[
  {
    "id": "eg",
    "name": "エジプト",
    "name_kana": "",
    "name_translations": { "en": "Egypt" },
    "latitude": 26.8206,
    "longitude": 30.8025
  },
  {
    "id": "ma",
    "name": "モロッコ",
    "name_kana": "",
    "name_translations": { "en": "Morocco" },
    "latitude": 31.7917,
    "longitude": -7.0926
  },
  {
    "id": "za",
    "name": "南アフリカ",
    "name_kana": "",
    "name_translations": { "en": "South Africa" },
    "latitude": -30.5595,
    "longitude": 22.9375
  },
  {
    "id": "ke",
    "name": "ケニア",
    "name_kana": "",
    "name_translations": { "en": "Kenya" },
    "latitude": -0.0236,
    "longitude": 37.9062
  },
  {
    "id": "tz",
    "name": "タンザニア",
    "name_kana": "",
    "name_translations": { "en": "Tanzania" },
    "latitude": -6.369,
    "longitude": 34.8888
  },
  {
    "id": "tn",
    "name": "チュニジア",
    "name_kana": "",
    "name_translations": { "en": "Tunisia" },
    "latitude": 33.8869,
    "longitude": 9.5375
  },
  {
    "id": "mu",
    "name": "モーリシャス",
    "name_kana": "",
    "name_translations": { "en": "Mauritius" },
    "latitude": -20.3484,
    "longitude": 57.5522
  }
]
