[
  {
    "id": "east_asia",
    "name": "東アジア",
    "display_order": 1,
    "latitude": 35.6762,
    "longitude": 139.6503
  },
  {
    "id": "southeast_asia",
    "name": "東南アジア",
    "display_order": 2,
    "latitude": 13.7563,
    "longitude": 100.5018
  },
  {
    "id": "south_asia",
    "name": "南アジア",
    "display_order": 3,
    "latitude": 20.5937,
    "longitude": 78.9629
  },
  {
    "id": "central_asia",
    "name": "中央アジア",
    "display_order": 4,
    "latitude": 41.2044,
    "longitude": 74.7661
  },
  {
    "id": "west_asia",
    "name": "西アジア",
    "display_order": 5,
    "latitude": 29.3117,
    "longitude": 47.4818
  },
  {
    "id": "europe",
    "name": "ヨーロッパ",
    "display_order": 6,
    "latitude": 54.5260,
    "longitude": 15.2551
  },
  {
    "id": "north_america",
    "name": "北アメリカ",
    "display_order": 7,
    "latitude": 54.5260,
    "longitude": -105.2551
  },
  {
    "id": "central_america",
    "name": "中央アメリカ",
    "display_order": 8,
    "latitude": 15.7835,
    "longitude": -90.2308
  },
  {
    "id": "south_america",
    "name": "南アメリカ",
    "display_order": 9,
    "latitude": -8.7832,
    "longitude": -55.4915
  },
  {
    "id": "oceania",
    "name": "オセアニア",
    "display_order": 10,
    "latitude": -25.2744,
    "longitude": 133.7751
  },
  {
    "id": "africa",
    "name": "アフリカ",
    "display_order": 11,
    "latitude": -8.7832,
    "longitude": 34.5085
  }
]
