id,name,name_en,name_kana,lat,lon,place_type,is_in,old_name,all_tags
775626812,"花小金井六丁目","Hanakoganei 6-chome","はなこがねい6ちょうめ",35.7287922,139.5084616,neighbourhood,"","","{""name"":""花小金井六丁目"",""name:en"":""Hanakoganei 6-chome"",""name:ja"":""花小金井六丁目"",""name:ja-Hira"":""はなこがねい6ちょうめ"",""place"":""neighbourhood"",""place_name:ja"":""花小金井6丁目""}"
790678956,"大山町","Oyamacho","おおやまちょう",35.6691581,139.6756865,neighbourhood,"渋谷区 (Shibuya)","","{""is_in"":""渋谷区 (Shibuya)"",""name"":""大山町"",""name:en"":""Oyamacho"",""name:ja"":""大山町"",""name:ja-Hira"":""おおやまちょう"",""name:ja_rm"":""Ōyama chō"",""name:ko"":""오야마초"",""place"":""neighbourhood"",""wikidata"":""Q11434660"",""wikimedia_commons"":""Category:Oyamacho, Shibuya"",""wikipedia"":""en:Ōyamachō""}"
824532732,"底沢","","",35.6343235,139.2034235,neighbourhood,"","","{""name"":""底沢"",""place"":""neighbourhood""}"
1018726456,"金程三丁目","Kanahodo 3-chome","かなほど3ちょうめ",35.6130757,139.4982653,neighbourhood,"","","{""name"":""金程三丁目"",""name:en"":""Kanahodo 3-chome"",""name:fr"":""Kanahodo 3"",""name:ja"":""金程三丁目"",""name:ja-Hira"":""かなほど3ちょうめ"",""place"":""neighbourhood"",""source"":""GSImaps/std""}"
1345508941,"船橋三丁目","Funabashi 3-chome","ふなばし3ちょうめ",35.6523144,139.6234956,neighbourhood,"船橋 (Funabashi)","","{""admin_level"":""10"",""is_in"":""船橋 (Funabashi)"",""name"":""船橋三丁目"",""name:en"":""Funabashi 3-chome"",""name:ja"":""船橋三丁目"",""name:ja-Hira"":""ふなばし3ちょうめ"",""name:ja_rm"":""funabashi san-chome"",""place"":""neighbourhood""}"
1347567707,"船橋一丁目","Funabashi 1-chome","ふなばし1ちょうめ",35.6499984,139.6219057,neighbourhood,"船橋 (Funabashi)","","{""admin_level"":""10"",""is_in"":""船橋 (Funabashi)"",""name"":""船橋一丁目"",""name:en"":""Funabashi 1-chome"",""name:ja"":""船橋一丁目"",""name:ja-Hira"":""ふなばし1ちょうめ"",""name:ja_rm"":""funabashi 1-chome"",""place"":""neighbourhood""}"
1347841768,"船橋二丁目","Funabashi 2-chome","ふなばし2ちょうめ",35.6511957,139.6183221,neighbourhood,"船橋 (Funabashi)","","{""admin_level"":""10"",""is_in"":""船橋 (Funabashi)"",""name"":""船橋二丁目"",""name:en"":""Funabashi 2-chome"",""name:ja"":""船橋二丁目"",""name:ja-Hira"":""ふなばし2ちょうめ"",""name:ja_rm"":""2choume"",""place"":""neighbourhood""}"
1351085994,"経堂四丁目","Kyodo 4-chome","きょうどう4ちょうめ",35.648657,139.6268946,neighbourhood,"経堂 (Kyodo)","","{""admin_level"":""10"",""is_in"":""経堂 (Kyodo)"",""name"":""経堂四丁目"",""name:en"":""Kyodo 4-chome"",""name:ja"":""経堂四丁目"",""name:ja-Hira"":""きょうどう4ちょうめ"",""name:ja_rm"":""kyodo yon-chome"",""name:ko"":""교도4초메"",""place"":""neighbourhood""}"
1650196490,"新町四丁目","Shinmachi 4-chome","しんまち4ちょうめ",35.7125742,139.5381538,neighbourhood,"新町","","{""is_in"":""新町"",""name"":""新町四丁目"",""name:en"":""Shinmachi 4-chome"",""name:ja"":""新町四丁目"",""name:ja-Hira"":""しんまち4ちょうめ"",""name:ja_kana"":""4ちょうめ"",""name:ja_rm"":""4-chōme"",""place"":""neighbourhood""}"
1650196491,"新町五丁目","Shinmachi 5-chome","しんまち5ちょうめ",35.713923,139.5345618,neighbourhood,"新町","","{""is_in"":""新町"",""name"":""新町五丁目"",""name:en"":""Shinmachi 5-chome"",""name:ja"":""新町五丁目"",""name:ja-Hira"":""しんまち5ちょうめ"",""name:ja_kana"":""5ちょうめ"",""name:ja_rm"":""5-chōme"",""place"":""neighbourhood""}"
1650293395,"新町一丁目","Shinmachi 1-chome","しんまち1ちょうめ",35.7168228,139.5461883,neighbourhood,"新町","","{""is_in"":""新町"",""name"":""新町一丁目"",""name:en"":""Shinmachi 1-chome"",""name:ja"":""新町一丁目"",""name:ja-Hira"":""しんまち1ちょうめ"",""name:ja_kana"":""しんまち1ちょうめ"",""name:ja_rm"":""1-chōme"",""place"":""neighbourhood""}"
1650295947,"新町六丁目","Shinmachi 6-chome","しんまち6ちょうめ",35.7141394,139.5309816,neighbourhood,"新町","","{""is_in"":""新町"",""name"":""新町六丁目"",""name:en"":""Shinmachi 6-chome"",""name:ja"":""新町六丁目"",""name:ja-Hira"":""しんまち6ちょうめ"",""name:ja_kana"":""6ちょうめ"",""name:ja_rm"":""6-chōme"",""place"":""neighbourhood""}"
1650295948,"新町三丁目","Shinmachi 3-chome","しんまち3ちょうめ",35.7150716,139.539334,neighbourhood,"新町","","{""is_in"":""新町"",""name"":""新町三丁目"",""name:en"":""Shinmachi 3-chome"",""name:ja"":""新町三丁目"",""name:ja-Hira"":""しんまち3ちょうめ"",""name:ja_kana"":""しんまち3ちょうめ"",""name:ja_rm"":""3-chōme"",""place"":""neighbourhood""}"
1650295949,"新町二丁目","Shinmachi 2-chome","しんまち2ちょうめ",35.7156871,139.5428467,neighbourhood,"新町","","{""is_in"":""新町"",""name"":""新町二丁目"",""name:en"":""Shinmachi 2-chome"",""name:ja"":""新町二丁目"",""name:ja-Hira"":""しんまち2ちょうめ"",""name:ja_kana"":""しんまち2ちょうめ"",""name:ja_rm"":""2-chōme"",""place"":""neighbourhood""}"
1736155484,"西久保一丁目","Nishikubo 1-chome","にしくぼ1ちょうめ",35.7060983,139.5563643,neighbourhood,"西久保 (Nishikubo)","","{""is_in"":""西久保 (Nishikubo)"",""name"":""西久保一丁目"",""name:en"":""Nishikubo 1-chome"",""name:ja"":""西久保一丁目"",""name:ja-Hira"":""にしくぼ1ちょうめ"",""name:ja_kana"":""にしくぼ1ちょうめ"",""place"":""neighbourhood""}"
1825343653,"八幡町一丁目","Yahatacho 1-chome","やはたちょう1ちょうめ",35.7158425,139.5565028,neighbourhood,"八幡町","","{""is_in"":""八幡町"",""name"":""八幡町一丁目"",""name:en"":""Yahatacho 1-chome"",""name:ja"":""八幡町一丁目"",""name:ja-Hira"":""やはたちょう1ちょうめ"",""place"":""neighbourhood""}"
1825343654,"八幡町三丁目","Yahatacho 3-chome","やはたちょう3ちょうめ",35.7171671,139.552251,neighbourhood,"八幡町","","{""is_in"":""八幡町"",""name"":""八幡町三丁目"",""name:en"":""Yahatacho 3-chome"",""name:ja"":""八幡町三丁目"",""name:ja-Hira"":""やはたちょう3ちょうめ"",""place"":""neighbourhood""}"
1825345709,"緑町一丁目","Midoricho 1-chome","みどりちょう1ちょうめ",35.7145849,139.5610121,neighbourhood,"緑町","","{""is_in"":""緑町"",""name"":""緑町一丁目"",""name:en"":""Midoricho 1-chome"",""name:ja"":""緑町一丁目"",""name:ja-Hira"":""みどりちょう1ちょうめ"",""place"":""neighbourhood""}"
1825358268,"中町一丁目","Nakacho 1-chome","なかちょう1ちょうめ",35.7042255,139.5621875,neighbourhood,"","","{""is_in:city"":""武蔵野市"",""name"":""中町一丁目"",""name:en"":""Nakacho 1-chome"",""name:ja"":""中町一丁目"",""name:ja-Hira"":""なかちょう1ちょうめ"",""place"":""neighbourhood""}"
1825358275,"吉祥寺本町四丁目","Kichijoji-honcho 4-chome","きちじょうじほんちょう4ちょうめ",35.7076261,139.5723843,neighbourhood,"吉祥寺本町","","{""is_in"":""吉祥寺本町"",""is_in:city"":""武蔵野市"",""name"":""吉祥寺本町四丁目"",""name:en"":""Kichijoji-honcho 4-chome"",""name:ja"":""吉祥寺本町四丁目"",""name:ja-Hira"":""きちじょうじほんちょう4ちょうめ"",""name:ja_kana"":""4ちょうめ"",""name:ja_rm"":""4 chome"",""place"":""neighbourhood""}"
1825364980,"吉祥寺東町一丁目","Kichijoji-higashicho 1-chome","きちじょうじひがしちょう1ちょうめ",35.7066421,139.5839705,neighbourhood,"","","{""name"":""吉祥寺東町一丁目"",""name:en"":""Kichijoji-higashicho 1-chome"",""name:ja"":""吉祥寺東町一丁目"",""name:ja-Hira"":""きちじょうじひがしちょう1ちょうめ"",""place"":""neighbourhood""}"
1827241721,"江古田二丁目","Egota 2-chome","えごた2ちょうめ",35.7256889,139.6669134,neighbourhood,"江古田 (Egota)","","{""is_in"":""江古田 (Egota)"",""name"":""江古田二丁目"",""name:en"":""Egota 2-chome"",""name:ja"":""江古田二丁目"",""name:ja-Hira"":""えごた2ちょうめ"",""place"":""neighbourhood""}"
1827241724,"江古田三丁目","Egota 3-chome","えごた3ちょうめ",35.7284981,139.6661016,neighbourhood,"江古田 (Egota)","","{""is_in"":""江古田 (Egota)"",""name"":""江古田三丁目"",""name:en"":""Egota 3-chome"",""name:ja"":""江古田三丁目"",""name:ja-Hira"":""えごた3ちょうめ"",""place"":""neighbourhood""}"
1827305901,"コモアしおつ一丁目","Komoashiotsu 1-chome","こもあしおつ1ちょうめ",35.6204347,139.0784863,neighbourhood,"","","{""name"":""コモアしおつ一丁目"",""name:en"":""Komoashiotsu 1-chome"",""name:ja"":""コモアしおつ一丁目"",""name:ja-Hira"":""こもあしおつ1ちょうめ"",""place"":""neighbourhood"",""source"":""GSI/KIBAN Block http://wiki.osm/wiki/GSI_KIBAN""}"
1827305902,"コモアしおつ三丁目","Komoashiotsu 3-chome","こもあしおつ3ちょうめ",35.6190865,139.0740538,neighbourhood,"","","{""name"":""コモアしおつ三丁目"",""name:en"":""Komoashiotsu 3-chome"",""name:ja"":""コモアしおつ三丁目"",""name:ja-Hira"":""こもあしおつ3ちょうめ"",""place"":""neighbourhood"",""source"":""GSI/KIBAN Block http://wiki.osm/wiki/GSI_KIBAN""}"
1827305903,"コモアしおつ二丁目","Komoashiotsu 2-chome","こもあしおつ2ちょうめ",35.6165123,139.0793867,neighbourhood,"","","{""name"":""コモアしおつ二丁目"",""name:en"":""Komoashiotsu 2-chome"",""name:ja"":""コモアしおつ二丁目"",""name:ja-Hira"":""こもあしおつ2ちょうめ"",""place"":""neighbourhood"",""source"":""GSI/KIBAN Block http://wiki.osm/wiki/GSI_KIBAN""}"
1827305904,"コモアしおつ四丁目","Komoashiotsu 4-chome","こもあしおつ4ちょうめ",35.6179127,139.070657,neighbourhood,"","","{""name"":""コモアしおつ四丁目"",""name:en"":""Komoashiotsu 4-chome"",""name:ja"":""コモアしおつ四丁目"",""name:ja-Hira"":""こもあしおつ4ちょうめ"",""place"":""neighbourhood"",""source"":""GSI/KIBAN Block http://wiki.osm/wiki/GSI_KIBAN""}"
1830900650,"西久保二丁目","Nishikubo 2-chome","にしくぼ2ちょうめ",35.7096254,139.5583583,neighbourhood,"西久保 (Nishikubo)","","{""is_in"":""西久保 (Nishikubo)"",""name"":""西久保二丁目"",""name:en"":""Nishikubo 2-chome"",""name:ja"":""西久保二丁目"",""name:ja-Hira"":""にしくぼ2ちょうめ"",""place"":""neighbourhood""}"
1830900653,"西久保三丁目","Nishikubo 3-chome","にしくぼ3ちょうめ",35.7115717,139.5600761,neighbourhood,"西久保 (Nishikubo)","","{""is_in"":""西久保 (Nishikubo)"",""name"":""西久保三丁目"",""name:en"":""Nishikubo 3-chome"",""name:ja"":""西久保三丁目"",""name:ja-Hira"":""にしくぼ3ちょうめ"",""place"":""neighbourhood""}"
1833150334,"八幡町二丁目","Hachimancho 2-chome","はちまんちょう2ちょうめ",35.6695789,139.4878532,neighbourhood,"","","{""is_in:city"":""府中市 (Fuchu)"",""is_in:suburb"":""八幡町 (Hachimancho)"",""name"":""八幡町二丁目"",""name:en"":""Hachimancho 2-chome"",""name:ja"":""八幡町二丁目"",""name:ja-Hira"":""はちまんちょう2ちょうめ"",""name:ja_kana"":""はちまんちょう2ちょうめ"",""name:ja_rm"":""Hachimancho 2 chome"",""place"":""neighbourhood""}"
1833150340,"八幡町三丁目","Hachimancho 3-chome","はちまんちょう3ちょうめ",35.6676064,139.4910247,neighbourhood,"","","{""is_in:city"":""府中市 (Fuchu)"",""is_in:suburb"":""八幡町 (Hachimancho)"",""name"":""八幡町三丁目"",""name:en"":""Hachimancho 3-chome"",""name:ja"":""八幡町三丁目"",""name:ja-Hira"":""はちまんちょう3ちょうめ"",""name:ja_kana"":""3ちょうめ"",""name:ja_rm"":""3 chome"",""place"":""neighbourhood""}"
1833176200,"東恋ケ窪二丁目","Higashikoigakubo 2-chome","ひがしこいがくぼ2ちょうめ",35.7082047,139.4758123,neighbourhood,"","","{""is_in:city"":""国分寺市 (Kokubunji)"",""is_in:suburb"":""東恋ケ窪 (Higashi Koigakubo)"",""name"":""東恋ケ窪二丁目"",""name:en"":""Higashikoigakubo 2-chome"",""name:ja"":""東恋ケ窪二丁目"",""name:ja-Hira"":""ひがしこいがくぼ2ちょうめ"",""name:ja_kana"":""2ちょうめ"",""name:ja_rm"":""2 chome"",""place"":""neighbourhood""}"
1833176214,"東恋ケ窪四丁目","Higashikoigakubo 4-chome","ひがしこいがくぼ4ちょうめ",35.7089621,139.4696867,neighbourhood,"","","{""is_in:city"":""国分寺市 (Kokubunji)"",""is_in:suburb"":""東恋ケ窪 (Higashi Koigakubo)"",""name"":""東恋ケ窪四丁目"",""name:en"":""Higashikoigakubo 4-chome"",""name:ja"":""東恋ケ窪四丁目"",""name:ja-Hira"":""ひがしこいがくぼ4ちょうめ"",""name:ja_kana"":""4ちょうめ"",""name:ja_rm"":""4 chome"",""place"":""neighbourhood""}"
1833196514,"本多一丁目","Honda 1-chome","ほんだ1ちょうめ",35.7042798,139.4834452,neighbourhood,"","","{""is_in:city"":""国分寺市 (Kokubunji)"",""is_in:suburb"":""本多 (Honda)"",""name"":""本多一丁目"",""name:en"":""Honda 1-chome"",""name:ja"":""本多一丁目"",""name:ja-Hira"":""ほんだ1ちょうめ"",""name:ja_kana"":""1ちょうめ"",""name:ja_rm"":""1 chome"",""place"":""neighbourhood""}"
1833196520,"本多二丁目","Honda 2-chome","ほんだ2ちょうめ",35.7047783,139.4810137,neighbourhood,"","","{""is_in:city"":""国分寺市 (Kokubunji)"",""is_in:suburb"":""本多 (Honda)"",""name"":""本多二丁目"",""name:en"":""Honda 2-chome"",""name:ja"":""本多二丁目"",""name:ja-Hira"":""ほんだ2ちょうめ"",""name:ja_rm"":""Honda 2 chome"",""place"":""neighbourhood""}"
1842606724,"花小金井一丁目","Hanakoganei 1-chome","はなこがねい1ちょうめ",35.7276896,139.5144039,neighbourhood,"","","{""is_in:city"":""小平市 (Kodaira)"",""is_in:district"":""花小金井 (Hanakoganei)"",""name"":""花小金井一丁目"",""name:en"":""Hanakoganei 1-chome"",""name:ja"":""花小金井一丁目"",""name:ja-Hira"":""はなこがねい1ちょうめ"",""name:ja_rm"":""1 chome"",""place"":""neighbourhood""}"
1842606732,"花小金井二丁目","Hanakoganei 2-chome","はなこがねい2ちょうめ",35.7324232,139.5158628,neighbourhood,"","","{""is_in:city"":""小平市 (Kodaira)"",""is_in:district"":""花小金井 (Hanakoganei)"",""name"":""花小金井二丁目"",""name:en"":""Hanakoganei 2-chome"",""name:ja"":""花小金井二丁目"",""name:ja-Hira"":""はなこがねい2ちょうめ"",""name:ja_rm"":""2 chome"",""place"":""neighbourhood""}"
1862991888,"境一丁目","Sakai 1-chome","さかい1ちょうめ",35.7039878,139.5471348,neighbourhood,"境 (Sakai)","","{""is_in"":""境 (Sakai)"",""is_in:city"":""武蔵野市 (Musashino)"",""name"":""境一丁目"",""name:en"":""Sakai 1-chome"",""name:ja"":""境一丁目"",""name:ja-Hira"":""さかい1ちょうめ"",""name:ja_rm"":""Sakai 1-chome"",""place"":""neighbourhood""}"
1862991889,"境二丁目","Sakai 2-chome","さかい2ちょうめ",35.7043789,139.5412104,neighbourhood,"境","","{""is_in"":""境"",""is_in:city"":""武蔵野市"",""name"":""境二丁目"",""name:en"":""Sakai 2-chome"",""name:ja"":""境二丁目"",""name:ja-Hira"":""さかい2ちょうめ"",""place"":""neighbourhood""}"
1883521849,"桜堤一丁目","Sakurazutsumi 1-chome","さくらづつみ1ちょうめ",35.7089707,139.5357795,neighbourhood,"","","{""is_in:city"":""武蔵野市"",""name"":""桜堤一丁目"",""name:en"":""Sakurazutsumi 1-chome"",""name:ja"":""桜堤一丁目"",""name:ja-Hira"":""さくらづつみ1ちょうめ"",""place"":""neighbourhood""}"
1883521850,"関野町1","","1ちょうめ",35.7130035,139.5244261,neighbourhood,"","","{""is_in:city"":""小金井市"",""is_in:suburb"":""関野町"",""name"":""関野町1"",""name:ja"":""一丁目"",""name:ja_kana"":""1ちょうめ"",""name:ja_rm"":""1-chome"",""place"":""neighbourhood""}"
1883521851,"桜堤3","","3ちょうめ",35.712872,139.5289146,neighbourhood,"","","{""is_in:city"":""武蔵野市"",""is_in:suburb"":""桜堤"",""name"":""桜堤3"",""name:ja"":""三丁目"",""name:ja_kana"":""3ちょうめ"",""name:ja_rm"":""3-chome"",""place"":""neighbourhood""}"
1883521852,"境五丁目","Sakai 5-chome","さかい5ちょうめ",35.7045628,139.5353092,neighbourhood,"","","{""is_in:city"":""武蔵野市"",""is_in:suburb"":""境"",""name"":""境五丁目"",""name:en"":""Sakai 5-chome"",""name:ja"":""境五丁目"",""name:ja-Hira"":""さかい5ちょうめ"",""place"":""neighbourhood""}"
1891354390,"吉祥寺北町一丁目","Kichijoji-kitamachi 1-chome","きちじょうじきたまち1ちょうめ",35.7102568,139.5778444,neighbourhood,"","","{""is_in:city"":""武蔵野市"",""is_in:suburb"":""吉祥寺北町"",""name"":""吉祥寺北町一丁目"",""name:en"":""Kichijoji-kitamachi 1-chome"",""name:ja"":""吉祥寺北町一丁目"",""name:ja-Hira"":""きちじょうじきたまち1ちょうめ"",""place"":""neighbourhood""}"
1891354395,"吉祥寺東町二丁目","Kichijoji-higashicho 2-chome","きちじょうじひがしちょう2ちょうめ",35.7110907,139.5846793,neighbourhood,"","","{""is_in:city"":""武蔵野市"",""is_in:suburb"":""吉祥寺東町"",""name"":""吉祥寺東町二丁目"",""name:en"":""Kichijoji-higashicho 2-chome"",""name:ja"":""吉祥寺東町二丁目"",""name:ja-Hira"":""きちじょうじひがしちょう2ちょうめ"",""place"":""neighbourhood""}"
1891354400,"吉祥寺北町二丁目","Kichijoji-kitamachi 2-chome","きちじょうじきたまち2ちょうめ",35.713786,139.5793816,neighbourhood,"","","{""is_in:city"":""武蔵野市"",""is_in:suburb"":""吉祥寺北町"",""name"":""吉祥寺北町二丁目"",""name:en"":""Kichijoji-kitamachi 2-chome"",""name:ja"":""吉祥寺北町二丁目"",""name:ja-Hira"":""きちじょうじきたまち2ちょうめ"",""place"":""neighbourhood""}"
1937880924,"池田二丁目","Ikeda 2-chome","いけだ2ちょうめ",35.5207255,139.6929173,neighbourhood,"","","{""name"":""池田二丁目"",""name:en"":""Ikeda 2-chome"",""name:ja"":""池田二丁目"",""name:ja-Hira"":""いけだ2ちょうめ"",""place"":""neighbourhood""}"
1937880928,"池田一丁目","Ikeda 1-chome","いけだ1ちょうめ",35.521531,139.6918002,neighbourhood,"","","{""name"":""池田一丁目"",""name:en"":""Ikeda 1-chome"",""name:ja"":""池田一丁目"",""name:ja-Hira"":""いけだ1ちょうめ"",""place"":""neighbourhood""}"
1950972660,"向台町二丁目","Mukodaicho 2-chome","むこうだいちょう2ちょうめ",35.7192369,139.5412761,neighbourhood,"向台町 (Mukodaicho)","","{""is_in"":""向台町 (Mukodaicho)"",""name"":""向台町二丁目"",""name:en"":""Mukodaicho 2-chome"",""name:ja"":""向台町二丁目"",""name:ja-Hira"":""むこうだいちょう2ちょうめ"",""name:ja_kana"":""むこうだいちょうにちょうめ"",""place"":""neighbourhood""}"
1950972679,"南町四丁目","Minamicho 4-chome","みなみちょう4ちょうめ",35.7247349,139.5402491,neighbourhood,"","","{""addr:quarter"":""南町"",""addr:quarter:ja"":""南町"",""is_in:quarter"":""南町"",""is_in:quarter:ja"":""南町"",""name"":""南町四丁目"",""name:en"":""Minamicho 4-chome"",""name:ja"":""南町四丁目"",""name:ja-Hira"":""みなみちょう4ちょうめ"",""place"":""neighbourhood"",""ref"":""4""}"
1976490524,"中町三丁目","Nakacho 3-chome","なかちょう3ちょうめ",35.7096606,139.5663856,neighbourhood,"","","{""is_in:city"":""武蔵野市"",""name"":""中町三丁目"",""name:en"":""Nakacho 3-chome"",""name:ja"":""中町三丁目"",""name:ja-Hira"":""なかちょう3ちょうめ"",""place"":""neighbourhood""}"
1978961425,"小峰台","Kominedai","こみねだい",35.7198147,139.2341269,neighbourhood,"","","{""name"":""小峰台"",""name:en"":""Kominedai"",""name:ja"":""小峰台"",""name:ja-Hira"":""こみねだい"",""place"":""neighbourhood"",""source"":""GSI/KIBAN Block""}"
2000550264,"牛浜","Ushihama","うしはま",35.7347908,139.3342731,neighbourhood,"","","{""name"":""牛浜"",""name:en"":""Ushihama"",""name:ja"":""牛浜"",""name:ja-Hira"":""うしはま"",""name:ja_rm"":""Ushihama"",""place"":""neighbourhood""}"
2000550268,"熊川","Kumagawa","くまがわ",35.7222012,139.3375935,neighbourhood,"","","{""name"":""熊川"",""name:en"":""Kumagawa"",""name:ja"":""熊川"",""name:ja-Hira"":""くまがわ"",""name:ja_rm"":""Kumagawa"",""official_name"":""大字熊川"",""place"":""neighbourhood""}"
2000550271,"本町","Honcho","ほんちょう",35.7400338,139.3282328,neighbourhood,"","","{""name"":""本町"",""name:en"":""Honcho"",""name:ja"":""本町"",""name:ja-Hira"":""ほんちょう"",""name:ja_rm"":""Honcho"",""place"":""neighbourhood""}"
2000550272,"大字熊川二宮","Kumagawa-ninomiya","くまがわにのみや",35.7332184,139.3389762,neighbourhood,"","","{""name"":""大字熊川二宮"",""name:en"":""Kumagawa-ninomiya"",""name:ja"":""大字熊川二宮"",""name:ja-Hira"":""くまがわにのみや"",""name:ja_rm"":""Kumagawa Ninomiya"",""official_name"":""大字熊川二宮"",""place"":""neighbourhood""}"
2000550274,"東町","Higashicho","ひがしちょう",35.7441387,139.3273514,neighbourhood,"","","{""name"":""東町"",""name:en"":""Higashicho"",""name:ja"":""東町"",""name:ja-Hira"":""ひがしちょう"",""place"":""neighbourhood""}"
2000550277,"志茂","Shimo","しも",35.7365796,139.3293138,neighbourhood,"","","{""name"":""志茂"",""name:en"":""Shimo"",""name:ja"":""志茂"",""name:ja-Hira"":""しも"",""place"":""neighbourhood""}"
2000550280,"福生","Fussa","ふっさ",35.7410679,139.3215219,neighbourhood,"","","{""name"":""福生"",""name:en"":""Fussa"",""name:ja"":""福生"",""name:ja-Hira"":""ふっさ"",""name:ja_rm"":""Fussa"",""official_name"":""大字福生"",""place"":""neighbourhood""}"
2031886260,"関前二丁目","Sekimae 2-chome","せきまえ2ちょうめ",35.7110728,139.551163,neighbourhood,"関前 (Sekimae)","","{""is_in"":""関前 (Sekimae)"",""is_in:city"":""武蔵野市"",""name"":""関前二丁目"",""name:en"":""Sekimae 2-chome"",""name:ja"":""関前二丁目"",""name:ja-Hira"":""せきまえ2ちょうめ"",""place"":""neighbourhood""}"
2031886269,"関前四丁目","Sekimae 4-chome","せきまえ4ちょうめ",35.7140625,139.5462792,neighbourhood,"関前 (Sekimae)","","{""is_in"":""関前 (Sekimae)"",""is_in:city"":""武蔵野市"",""name"":""関前四丁目"",""name:en"":""Sekimae 4-chome"",""name:ja"":""関前四丁目"",""name:ja-Hira"":""せきまえ4ちょうめ"",""place"":""neighbourhood""}"
2033442290,"上川原町一丁目","Jogawaracho 1-chome","じょうがわらちょう1ちょうめ",35.7071458,139.3623973,neighbourhood,"","","{""name"":""上川原町一丁目"",""name:en"":""Jogawaracho 1-chome"",""name:ja"":""上川原町一丁目"",""name:ja-Hira"":""じょうがわらちょう1ちょうめ"",""place"":""neighbourhood""}"
2033510943,"宮沢町","Miyazawacho","みやざわちょう",35.7134051,139.3720415,neighbourhood,"","","{""name"":""宮沢町"",""name:en"":""Miyazawacho"",""name:ja"":""宮沢町"",""name:ja-Hira"":""みやざわちょう"",""name:ja_kana"":""みやざわちょう"",""name:ja_rm"":""Miyazawacho"",""place"":""neighbourhood""}"
2033510984,"代官山一丁目","1tyoume Daikannyama","だいかんやまいっちょうめ",35.7195837,139.3600595,neighbourhood,"","","{""name"":""代官山一丁目"",""name:en"":""1tyoume Daikannyama"",""name:es"":""1tyoume Daikannyama"",""name:ja"":""代官山一丁目"",""name:ja-Hira"":""だいかんやまいっちょうめ"",""name:ja_rm"":""Haijimacho"",""note"":""2024年10月地名変更"",""place"":""neighbourhood""}"
2033510990,"中神町","Nakagamicho","なかがみちょう",35.711499,139.3767214,neighbourhood,"","","{""name"":""中神町"",""name:en"":""Nakagamicho"",""name:ja"":""中神町"",""name:ja-Hira"":""なかがみちょう"",""name:ja_kana"":""なかがみちょう"",""name:ja_rm"":""Nakagamicho"",""place"":""neighbourhood""}"
2035771010,"大神町","Ogamicho","おおがみちょう",35.7159838,139.3722962,neighbourhood,"","","{""name"":""大神町"",""name:en"":""Ogamicho"",""name:ja"":""大神町"",""name:ja-Hira"":""おおがみちょう"",""name:ja_kana"":""おおがみちょう"",""name:ja_rm"":""Ogamicho"",""place"":""neighbourhood""}"
2035771021,"築地町","Tsuijicho","ついじちょう",35.7084179,139.3803996,neighbourhood,"","","{""name"":""築地町"",""name:en"":""Tsuijicho"",""name:ja"":""築地町"",""name:ja-Hira"":""ついじちょう"",""name:ja_kana"":""ついじちょう"",""name:ja_rm"":""Tsuijicho"",""place"":""neighbourhood""}"
2037517334,"緑町","Midoricho","みどりちょう",35.7074626,139.4044158,neighbourhood,"","","{""name"":""緑町"",""name:en"":""Midoricho"",""name:ja"":""緑町"",""name:ja-Hira"":""みどりちょう"",""name:ja_kana"":""みどりちょう"",""name:ja_rm"":""Midoricho"",""place"":""neighbourhood""}"
2037517339,"泉町","Izumicho","いずみちょう",35.7158865,139.4043204,neighbourhood,"","","{""name"":""泉町"",""name:en"":""Izumicho"",""name:ja"":""泉町"",""name:ja-Hira"":""いずみちょう"",""name:ja_kana"":""いずみちょう"",""name:ja_rm"":""Izumicho"",""place"":""neighbourhood""}"
2037517347,"中島町","Nakajimacho","なかじまちょう",35.7298612,139.4321681,neighbourhood,"","","{""name"":""中島町"",""name:en"":""Nakajimacho"",""name:ja"":""中島町"",""name:ja-Hira"":""なかじまちょう"",""name:ja_kana"":""なかじまちょう"",""name:ja_rm"":""Nakajimacho"",""place"":""neighbourhood""}"
2043789549,"下連雀3","","3ちょうめ",35.7015299,139.5594598,neighbourhood,"下連雀","","{""is_in"":""下連雀"",""is_in:city"":""三鷹市"",""name"":""下連雀3"",""name:ja"":""三丁目"",""name:ja_kana"":""3ちょうめ"",""name:ja_rm"":""3 chome"",""place"":""neighbourhood""}"
2043789557,"下連雀四丁目","Shimorenjaku 4-chome","しもれんじゃく4ちょうめ",35.6949029,139.5622129,neighbourhood,"下連雀","","{""is_in"":""下連雀"",""is_in:city"":""三鷹市"",""name"":""下連雀四丁目"",""name:en"":""Shimorenjaku 4-chome"",""name:ja"":""下連雀四丁目"",""name:ja-Hira"":""しもれんじゃく4ちょうめ"",""name:ja_kana"":""4ちょうめ"",""name:ja_rm"":""4 chome"",""place"":""neighbourhood""}"
2088086008,"南青山六丁目","Minami-Aoyama 6","みなみあおやまろくちょうめ",35.6607745,139.7165651,neighbourhood,"","","{""name"":""南青山六丁目"",""name:en"":""Minami-Aoyama 6"",""name:es"":""6-chome"",""name:fr"":""Minami-Aoyama 6"",""name:ja"":""南青山六丁目"",""name:ja-Hira"":""みなみあおやまろくちょうめ"",""name:ja-Latn"":""Minami-Aoyama 6-chōme"",""name:ko"":""미나미아오야마6초메"",""place"":""neighbourhood""}"
2121099765,"宇田川町","Udagawacho","うだがわちょう",35.6620752,139.6974957,neighbourhood,"","","{""name"":""宇田川町"",""name:en"":""Udagawacho"",""name:es"":""Udagawacho"",""name:ja"":""宇田川町"",""name:ja-Hira"":""うだがわちょう"",""name:ja_rm"":""Udagawacho"",""name:ko"":""우다가와초"",""name:ru"":""Удагаватё"",""place"":""neighbourhood"",""wikidata"":""Q10946241"",""wikimedia_commons"":""Category:Udagawa-chō"",""wikipedia"":""ja:宇田川町""}"
2178275150,"吉祥寺北町四丁目","Kichijoji-kitamachi 4-chome","きちじょうじきたまち4ちょうめ",35.7138691,139.5672651,neighbourhood,"吉祥寺北町","","{""is_in"":""吉祥寺北町"",""name"":""吉祥寺北町四丁目"",""name:en"":""Kichijoji-kitamachi 4-chome"",""name:ja"":""吉祥寺北町四丁目"",""name:ja-Hira"":""きちじょうじきたまち4ちょうめ"",""place"":""neighbourhood""}"
2183413256,"渋谷一丁目","Shibuya 1-chome","しぶや1ちょうめ",35.6618126,139.7050733,neighbourhood,"","","{""name"":""渋谷一丁目"",""name:en"":""Shibuya 1-chome"",""name:ja"":""渋谷一丁目"",""name:ja-Hira"":""しぶや1ちょうめ"",""name:ko"":""시부야1초메"",""place"":""neighbourhood""}"
2248290459,"北町","Kitamachi","きたまち",35.5009555,139.4808169,neighbourhood,"","","{""name"":""北町"",""name:en"":""Kitamachi"",""name:ja"":""北町"",""name:ja-Hira"":""きたまち"",""place"":""neighbourhood""}"
2248291944,"卸本町","Oroshihoncho","おろしほんちょう",35.5003397,139.4858702,neighbourhood,"","","{""name"":""卸本町"",""name:en"":""Oroshihoncho"",""name:ja"":""卸本町"",""name:ja-Hira"":""おろしほんちょう"",""place"":""neighbourhood"",""wikidata"":""Q11409191""}"
2466117295,"下平間","Shimohirama","しもひらま",35.55061,139.6803594,neighbourhood,"","","{""name"":""下平間"",""name:en"":""Shimohirama"",""name:ja"":""下平間"",""name:ja-Hira"":""しもひらま"",""place"":""neighbourhood"",""source"":""GSI/KIBAN Block http://wiki.osm.org/wiki/GSI_KIBAN""}"
2466117296,"中幸町一丁目","Nakasaiwaicho 1-chome","なかさいわいちょう1ちょうめ",35.5370471,139.6932204,neighbourhood,"","","{""name"":""中幸町一丁目"",""name:en"":""Nakasaiwaicho 1-chome"",""name:ja"":""中幸町一丁目"",""name:ja-Hira"":""なかさいわいちょう1ちょうめ"",""place"":""neighbourhood"",""source"":""GSI/KIBAN Block http://wiki.osm.org/wiki/GSI_KIBAN""}"
2466117297,"中幸町三丁目","Nakasaiwaicho 3-chome","なかさいわいちょう3ちょうめ",35.5335733,139.6939679,neighbourhood,"","","{""name"":""中幸町三丁目"",""name:en"":""Nakasaiwaicho 3-chome"",""name:ja"":""中幸町三丁目"",""name:ja-Hira"":""なかさいわいちょう3ちょうめ"",""place"":""neighbourhood""}"
2466117298,"中幸町二丁目","Nakasaiwaicho 2-chome","なかさいわいちょう2ちょうめ",35.5371216,139.6953502,neighbourhood,"","","{""name"":""中幸町二丁目"",""name:en"":""Nakasaiwaicho 2-chome"",""name:ja"":""中幸町二丁目"",""name:ja-Hira"":""なかさいわいちょう2ちょうめ"",""place"":""neighbourhood"",""source"":""GSI/KIBAN Block http://wiki.osm.org/wiki/GSI_KIBAN""}"
2466117299,"中幸町四丁目","Nakasaiwaicho 4-chome","なかさいわいちょう4ちょうめ",35.5337445,139.69252,neighbourhood,"","","{""name"":""中幸町四丁目"",""name:en"":""Nakasaiwaicho 4-chome"",""name:ja"":""中幸町四丁目"",""name:ja-Hira"":""なかさいわいちょう4ちょうめ"",""place"":""neighbourhood"",""source"":""GSI/KIBAN Block http://wiki.osm.org/wiki/GSI_KIBAN""}"
2466117300,"新川崎","Shinkawasaki","しんかわさき",35.5496686,139.6702695,neighbourhood,"","","{""name"":""新川崎"",""name:en"":""Shinkawasaki"",""name:ja"":""新川崎"",""name:ja-Hira"":""しんかわさき"",""place"":""neighbourhood"",""source"":""GSI/KIBAN Block http://wiki.osm.org/wiki/GSI_KIBAN""}"
2466117301,"北加瀬一丁目","Kitakase 1-chome","きたかせ1ちょうめ",35.5501895,139.6673948,neighbourhood,"","","{""name"":""北加瀬一丁目"",""name:en"":""Kitakase 1-chome"",""name:ja"":""北加瀬一丁目"",""name:ja-Hira"":""きたかせ1ちょうめ"",""place"":""neighbourhood"",""source"":""GSI/KIBAN Block http://wiki.osm.org/wiki/GSI_KIBAN""}"
2466117302,"北加瀬三丁目","Kitakase 3-chome","きたかせ3ちょうめ",35.555986,139.6615649,neighbourhood,"","","{""name"":""北加瀬三丁目"",""name:en"":""Kitakase 3-chome"",""name:ja"":""北加瀬三丁目"",""name:ja-Hira"":""きたかせ3ちょうめ"",""place"":""neighbourhood"",""source"":""GSI/KIBAN Block http://wiki.osm.org/wiki/GSI_KIBAN""}"
2466117303,"北加瀬二丁目","Kitakase 2-chome","きたかせ2ちょうめ",35.5524839,139.6619874,neighbourhood,"","","{""name"":""北加瀬二丁目"",""name:en"":""Kitakase 2-chome"",""name:ja"":""北加瀬二丁目"",""name:ja-Hira"":""きたかせ2ちょうめ"",""place"":""neighbourhood"",""source"":""GSI/KIBAN Block http://wiki.osm.org/wiki/GSI_KIBAN""}"
2466117304,"南加瀬一丁目","Minamikase 1-chome","みなみかせ1ちょうめ",35.547891,139.6661673,neighbourhood,"","","{""name"":""南加瀬一丁目"",""name:en"":""Minamikase 1-chome"",""name:ja"":""南加瀬一丁目"",""name:ja-Hira"":""みなみかせ1ちょうめ"",""place"":""neighbourhood"",""source"":""GSI/KIBAN Block http://wiki.osm.org/wiki/GSI_KIBAN""}"
2466117305,"南加瀬三丁目","Minamikase 3-chome","みなみかせ3ちょうめ",35.5432863,139.663888,neighbourhood,"","","{""name"":""南加瀬三丁目"",""name:en"":""Minamikase 3-chome"",""name:ja"":""南加瀬三丁目"",""name:ja-Hira"":""みなみかせ3ちょうめ"",""place"":""neighbourhood"",""source"":""GSI/KIBAN Block http://wiki.osm.org/wiki/GSI_KIBAN""}"
2466117306,"南加瀬二丁目","Minamikase 2-chome","みなみかせ2ちょうめ",35.5478865,139.6618808,neighbourhood,"","","{""name"":""南加瀬二丁目"",""name:en"":""Minamikase 2-chome"",""name:ja"":""南加瀬二丁目"",""name:ja-Hira"":""みなみかせ2ちょうめ"",""place"":""neighbourhood"",""source"":""GSI/KIBAN Block http://wiki.osm.org/wiki/GSI_KIBAN""}"
2466117307,"南加瀬五丁目","Minamikase 5-chome","みなみかせ5ちょうめ",35.5394021,139.6590803,neighbourhood,"","","{""name"":""南加瀬五丁目"",""name:en"":""Minamikase 5-chome"",""name:ja"":""南加瀬五丁目"",""name:ja-Hira"":""みなみかせ5ちょうめ"",""place"":""neighbourhood"",""source"":""GSI/KIBAN Block http://wiki.osm.org/wiki/GSI_KIBAN""}"
2466117308,"南加瀬四丁目","Minamikase 4-chome","みなみかせ4ちょうめ",35.5450932,139.6581182,neighbourhood,"","","{""name"":""南加瀬四丁目"",""name:en"":""Minamikase 4-chome"",""name:ja"":""南加瀬四丁目"",""name:ja-Hira"":""みなみかせ4ちょうめ"",""place"":""neighbourhood"",""source"":""GSI/KIBAN Block http://wiki.osm.org/wiki/GSI_KIBAN""}"
2466117309,"南幸町一丁目","Minamisaiwaicho 1-chome","みなみさいわいちょう1ちょうめ",35.5355172,139.689899,neighbourhood,"","","{""name"":""南幸町一丁目"",""name:en"":""Minamisaiwaicho 1-chome"",""name:ja"":""南幸町一丁目"",""name:ja-Hira"":""みなみさいわいちょう1ちょうめ"",""place"":""neighbourhood"",""source"":""GSI/KIBAN Block http://wiki.osm.org/wiki/GSI_KIBAN""}"
2466117310,"南幸町三丁目","Minamisaiwaicho 3-chome","みなみさいわいちょう3ちょうめ",35.5331237,139.6865313,neighbourhood,"","","{""name"":""南幸町三丁目"",""name:en"":""Minamisaiwaicho 3-chome"",""name:ja"":""南幸町三丁目"",""name:ja-Hira"":""みなみさいわいちょう3ちょうめ"",""place"":""neighbourhood"",""source"":""GSI/KIBAN Block http://wiki.osm.org/wiki/GSI_KIBAN""}"
2466117311,"南幸町二丁目","Minamisaiwaicho 2-chome","みなみさいわいちょう2ちょうめ",35.5331836,139.6906074,neighbourhood,"","","{""name"":""南幸町二丁目"",""name:en"":""Minamisaiwaicho 2-chome"",""name:ja"":""南幸町二丁目"",""name:ja-Hira"":""みなみさいわいちょう2ちょうめ"",""place"":""neighbourhood"",""source"":""GSI/KIBAN Block http://wiki.osm.org/wiki/GSI_KIBAN""}"
2466117312,"古川町","Furukawamachi","ふるかわまち",35.5460836,139.682872,neighbourhood,"","","{""name"":""古川町"",""name:en"":""Furukawamachi"",""name:ja"":""古川町"",""name:ja-Hira"":""ふるかわまち"",""place"":""neighbourhood"",""source"":""GSI/KIBAN Block http://wiki.osm.org/wiki/GSI_KIBAN""}"
2466117314,"古市場","Furuichiba","ふるいちば",35.5563805,139.6898824,neighbourhood,"","","{""name"":""古市場"",""name:en"":""Furuichiba"",""name:ja"":""古市場"",""name:ja-Hira"":""ふるいちば"",""place"":""neighbourhood"",""source"":""GSI/KIBAN Block http://wiki.osm.org/wiki/GSI_KIBAN"",""wikidata"":""Q111020662"",""wikipedia"":""ja:古市場 (川崎市)""}"
2466117315,"古市場一丁目","Furuichiba 1-chome","ふるいちば1ちょうめ",35.5536705,139.6858605,neighbourhood,"","","{""name"":""古市場一丁目"",""name:en"":""Furuichiba 1-chome"",""name:ja"":""古市場一丁目"",""name:ja-Hira"":""ふるいちば1ちょうめ"",""place"":""neighbourhood"",""source"":""GSI/KIBAN Block http://wiki.osm.org/wiki/GSI_KIBAN""}"
2466117316,"古市場二丁目","Furuichiba 2-chome","ふるいちば2ちょうめ",35.5548718,139.6823618,neighbourhood,"","","{""name"":""古市場二丁目"",""name:en"":""Furuichiba 2-chome"",""name:ja"":""古市場二丁目"",""name:ja-Hira"":""ふるいちば2ちょうめ"",""name:ja_rm"":""Furuichiba 2"",""place"":""neighbourhood"",""source"":""GSI/KIBAN Block http://wiki.osm.org/wiki/GSI_KIBAN""}"
2466117317,"堀川町","Horikawacho","ほりかわちょう",35.5340092,139.6978937,neighbourhood,"","","{""name"":""堀川町"",""name:en"":""Horikawacho"",""name:ja"":""堀川町"",""name:ja-Hira"":""ほりかわちょう"",""place"":""neighbourhood""}"
2466117319,"塚越三丁目","Tsukagoshi 3-chome","つかごし3ちょうめ",35.5421551,139.6777808,neighbourhood,"","","{""name"":""塚越三丁目"",""name:en"":""Tsukagoshi 3-chome"",""name:ja"":""塚越三丁目"",""name:ja-Hira"":""つかごし3ちょうめ"",""place"":""neighbourhood"",""source"":""GSI/KIBAN Block http://wiki.osm.org/wiki/GSI_KIBAN""}"
2466117320,"塚越二丁目","Tsukagoshi 2-chome","つかごし2ちょうめ",35.5450059,139.6806193,neighbourhood,"","","{""name"":""塚越二丁目"",""name:en"":""Tsukagoshi 2-chome"",""name:ja"":""塚越二丁目"",""name:ja-Hira"":""つかごし2ちょうめ"",""place"":""neighbourhood"",""source"":""GSI/KIBAN Block http://wiki.osm.org/wiki/GSI_KIBAN""}"
2466117321,"塚越四丁目","Tsukagoshi 4-chome","つかごし4ちょうめ",35.5416493,139.6816503,neighbourhood,"","","{""name"":""塚越四丁目"",""name:en"":""Tsukagoshi 4-chome"",""name:ja"":""塚越四丁目"",""name:ja-Hira"":""つかごし4ちょうめ"",""place"":""neighbourhood"",""source"":""GSI/KIBAN Block http://wiki.osm.org/wiki/GSI_KIBAN""}"
2466117322,"大宮町","Omiyacho","おおみやちょう",35.5299976,139.6934161,neighbourhood,"","","{""name"":""大宮町"",""name:en"":""Omiyacho"",""name:ja"":""大宮町"",""name:ja-Hira"":""おおみやちょう"",""place"":""neighbourhood"",""source"":""GSI/KIBAN Block http://wiki.osm.org/wiki/GSI_KIBAN""}"
2466117325,"小向仲野町","Komukai-nakanocho","こむかいなかのちょう",35.5504143,139.696698,neighbourhood,"","","{""name"":""小向仲野町"",""name:en"":""Komukai-nakanocho"",""name:ja"":""小向仲野町"",""name:ja-Hira"":""こむかいなかのちょう"",""place"":""neighbourhood"",""source"":""GSI/KIBAN Block http://wiki.osm.org/wiki/GSI_KIBAN"",""wikidata"":""Q110741610"",""wikipedia"":""ja:小向仲野町""}"
2466117326,"小向東芝町","Komukai-toshibacho","こむかいとうしばちょう",35.5501467,139.6903155,neighbourhood,"","","{""name"":""小向東芝町"",""name:en"":""Komukai-toshibacho"",""name:ja"":""小向東芝町"",""name:ja-Hira"":""こむかいとうしばちょう"",""place"":""neighbourhood"",""source"":""GSI/KIBAN Block http://wiki.osm.org/wiki/GSI_KIBAN"",""wikidata"":""Q11459342"",""wikipedia"":""ja:小向東芝町""}"
2466117327,"小向町","Komukaicho","こむかいちょう",35.5475607,139.6952767,neighbourhood,"","","{""name"":""小向町"",""name:en"":""Komukaicho"",""name:ja"":""小向町"",""name:ja-Hira"":""こむかいちょう"",""place"":""neighbourhood"",""source"":""GSI/KIBAN Block http://wiki.osm.org/wiki/GSI_KIBAN"",""wikidata"":""Q110741544"",""wikipedia"":""ja:小向町 (川崎市)""}"
2466117328,"小向西町一丁目","Komukai-nishimachi 1-chome","こむかいにしまち1ちょうめ",35.5480299,139.6914254,neighbourhood,"","","{""name"":""小向西町一丁目"",""name:en"":""Komukai-nishimachi 1-chome"",""name:ja"":""小向西町一丁目"",""name:ja-Hira"":""こむかいにしまち1ちょうめ"",""place"":""neighbourhood"",""source"":""GSI/KIBAN Block http://wiki.osm.org/wiki/GSI_KIBAN""}"
2466117329,"小向西町三丁目","Komukai-nishimachi 3-chome","こむかいにしまち3ちょうめ",35.5480035,139.6877854,neighbourhood,"","","{""name"":""小向西町三丁目"",""name:en"":""Komukai-nishimachi 3-chome"",""name:ja"":""小向西町三丁目"",""name:ja-Hira"":""こむかいにしまち3ちょうめ"",""place"":""neighbourhood"",""source"":""GSI/KIBAN Block http://wiki.osm.org/wiki/GSI_KIBAN""}"
2466117330,"小向西町二丁目","Komukai-nishimachi 2-chome","こむかいにしまち2ちょうめ",35.5465901,139.6909795,neighbourhood,"","","{""name"":""小向西町二丁目"",""name:en"":""Komukai-nishimachi 2-chome"",""name:ja"":""小向西町二丁目"",""name:ja-Hira"":""こむかいにしまち2ちょうめ"",""place"":""neighbourhood"",""source"":""GSI/KIBAN Block http://wiki.osm.org/wiki/GSI_KIBAN""}"
2466117331,"小向西町四丁目","Komukai-nishimachi 4-chome","こむかいにしまち4ちょうめ",35.546137,139.6876597,neighbourhood,"","","{""name"":""小向西町四丁目"",""name:en"":""Komukai-nishimachi 4-chome"",""name:ja"":""小向西町四丁目"",""name:ja-Hira"":""こむかいにしまち4ちょうめ"",""place"":""neighbourhood"",""source"":""GSI/KIBAN Block http://wiki.osm.org/wiki/GSI_KIBAN""}"
2466117332,"幸町一丁目","Saiwaicho 1-chome","さいわいちょう1ちょうめ",35.5349861,139.6981122,neighbourhood,"","","{""name"":""幸町一丁目"",""name:en"":""Saiwaicho 1-chome"",""name:ja"":""幸町一丁目"",""name:ja-Hira"":""さいわいちょう1ちょうめ"",""place"":""neighbourhood"",""source"":""GSI/KIBAN Block http://wiki.osm.org/wiki/GSI_KIBAN""}"
2466117333,"幸町三丁目","Saiwaicho 3-chome","さいわいちょう3ちょうめ",35.5376966,139.6975226,neighbourhood,"","","{""name"":""幸町三丁目"",""name:en"":""Saiwaicho 3-chome"",""name:ja"":""幸町三丁目"",""name:ja-Hira"":""さいわいちょう3ちょうめ"",""place"":""neighbourhood"",""source"":""GSI/KIBAN Block http://wiki.osm.org/wiki/GSI_KIBAN""}"
2466117334,"幸町二丁目","Saiwaicho 2-chome","さいわいちょう2ちょうめ",35.5370976,139.6990169,neighbourhood,"","","{""name"":""幸町二丁目"",""name:en"":""Saiwaicho 2-chome"",""name:ja"":""幸町二丁目"",""name:ja-Hira"":""さいわいちょう2ちょうめ"",""place"":""neighbourhood"",""source"":""GSI/KIBAN Block http://wiki.osm.org/wiki/GSI_KIBAN""}"
2466117335,"幸町四丁目","Saiwaicho 4-chome","さいわいちょう4ちょうめ",35.535547,139.6961397,neighbourhood,"","","{""name"":""幸町四丁目"",""name:en"":""Saiwaicho 4-chome"",""name:ja"":""幸町四丁目"",""name:ja-Hira"":""さいわいちょう4ちょうめ"",""place"":""neighbourhood"",""source"":""GSI/KIBAN Block http://wiki.osm.org/wiki/GSI_KIBAN""}"
2466117336,"戸手一丁目","Tote 1-chome","とて1ちょうめ",35.5453774,139.690783,neighbourhood,"","","{""name"":""戸手一丁目"",""name:en"":""Tote 1-chome"",""name:ja"":""戸手一丁目"",""name:ja-Hira"":""とて1ちょうめ"",""place"":""neighbourhood"",""source"":""GSI/KIBAN Block http://wiki.osm.org/wiki/GSI_KIBAN""}"
2466117337,"戸手三丁目","Tote 3-chome","とて3ちょうめ",35.545561,139.6951178,neighbourhood,"","","{""name"":""戸手三丁目"",""name:en"":""Tote 3-chome"",""name:ja"":""戸手三丁目"",""name:ja-Hira"":""とて3ちょうめ"",""place"":""neighbourhood"",""source"":""GSI/KIBAN Block http://wiki.osm.org/wiki/GSI_KIBAN""}"
2466117338,"戸手二丁目","Tote 2-chome","とて2ちょうめ",35.5453084,139.6928605,neighbourhood,"","","{""name"":""戸手二丁目"",""name:en"":""Tote 2-chome"",""name:ja"":""戸手二丁目"",""name:ja-Hira"":""とて2ちょうめ"",""place"":""neighbourhood"",""source"":""GSI/KIBAN Block http://wiki.osm.org/wiki/GSI_KIBAN""}"
2466117339,"戸手四丁目","Tote 4-chome","とて4ちょうめ",35.5420328,139.6962207,neighbourhood,"","","{""name"":""戸手四丁目"",""name:en"":""Tote 4-chome"",""name:ja"":""戸手四丁目"",""name:ja-Hira"":""とて4ちょうめ"",""place"":""neighbourhood"",""source"":""GSI/KIBAN Block http://wiki.osm.org/wiki/GSI_KIBAN""}"
2466117340,"戸手本町一丁目","Totehonmachi 1-chome","とてほんまち1ちょうめ",35.543192,139.6871772,neighbourhood,"","","{""name"":""戸手本町一丁目"",""name:en"":""Totehonmachi 1-chome"",""name:ja"":""戸手本町一丁目"",""name:ja-Hira"":""とてほんまち1ちょうめ"",""place"":""neighbourhood"",""source"":""GSI/KIBAN Block http://wiki.osm.org/wiki/GSI_KIBAN""}"
2466117341,"戸手本町二丁目","Totehonmachi 2-chome","とてほんまち2ちょうめ",35.5397717,139.6863062,neighbourhood,"","","{""name"":""戸手本町二丁目"",""name:en"":""Totehonmachi 2-chome"",""name:ja"":""戸手本町二丁目"",""name:ja-Hira"":""とてほんまち2ちょうめ"",""place"":""neighbourhood"",""source"":""GSI/KIBAN Block http://wiki.osm.org/wiki/GSI_KIBAN""}"
2466117342,"新塚越","Shintsukagoshi","しんつかごし",35.5494042,139.676964,neighbourhood,"","","{""name"":""新塚越"",""name:en"":""Shintsukagoshi"",""name:es"":""Shintsukagoshi"",""name:ja"":""新塚越"",""name:ja-Hira"":""しんつかごし"",""place"":""neighbourhood"",""source"":""GSI/KIBAN Block http://wiki.osm.org/wiki/GSI_KIBAN""}"
2466117343,"東古市場","Higashifuruichiba","ひがしふるいちば",35.5523919,139.6906676,neighbourhood,"","","{""name"":""東古市場"",""name:en"":""Higashifuruichiba"",""name:ja"":""東古市場"",""name:ja-Hira"":""ひがしふるいちば"",""place"":""neighbourhood"",""source"":""GSI/KIBAN Block http://wiki.osm.org/wiki/GSI_KIBAN"",""wikidata"":""Q111020581"",""wikipedia"":""ja:東古市場""}"
2466117344,"柳町","Yanagicho","やなぎちょう",35.5291914,139.6889876,neighbourhood,"","","{""name"":""柳町"",""name:en"":""Yanagicho"",""name:ja"":""柳町"",""name:ja-Hira"":""やなぎちょう"",""place"":""neighbourhood"",""source"":""GSI/KIBAN Block http://wiki.osm.org/wiki/GSI_KIBAN""}"
2466117345,"河原町","Kawaramachi","かわらまち",35.5398668,139.6941208,neighbourhood,"","","{""name"":""河原町"",""name:en"":""Kawaramachi"",""name:ja"":""河原町"",""name:ja-Hira"":""かわらまち"",""place"":""neighbourhood"",""source"":""GSI/KIBAN Block http://wiki.osm.org/wiki/GSI_KIBAN""}"
2466117346,"矢上","Yagami","やがみ",35.5538713,139.6588268,neighbourhood,"","","{""name"":""矢上"",""name:en"":""Yagami"",""name:es"":""Yagami"",""name:ja"":""矢上"",""name:ja-Hira"":""やがみ"",""place"":""neighbourhood"",""source"":""GSI/KIBAN Block http://wiki.osm.org/wiki/GSI_KIBAN"",""wikidata"":""Q11583876"",""wikipedia"":""ja:矢上 (川崎市)""}"
2466117347,"神明町一丁目","Shinmeicho 1-chome","しんめいちょう1ちょうめ",35.5395395,139.6893824,neighbourhood,"","","{""name"":""神明町一丁目"",""name:en"":""Shinmeicho 1-chome"",""name:ja"":""神明町一丁目"",""name:ja-Hira"":""しんめいちょう1ちょうめ"",""place"":""neighbourhood"",""source"":""GSI/KIBAN Block http://wiki.osm.org/wiki/GSI_KIBAN""}"
2466117348,"神明町二丁目","Shinmeicho 2-chome","しんめいちょう2ちょうめ",35.5378426,139.6888577,neighbourhood,"","","{""name"":""神明町二丁目"",""name:en"":""Shinmeicho 2-chome"",""name:ja"":""神明町二丁目"",""name:ja-Hira"":""しんめいちょう2ちょうめ"",""place"":""neighbourhood"",""source"":""GSI/KIBAN Block http://wiki.osm.org/wiki/GSI_KIBAN""}"
2466117349,"紺屋町","Konyamachi","こんやまち",35.5423811,139.6899633,neighbourhood,"","","{""name"":""紺屋町"",""name:en"":""Konyamachi"",""name:ja"":""紺屋町"",""name:ja-Hira"":""こんやまち"",""place"":""neighbourhood"",""source"":""GSI/KIBAN Block http://wiki.osm.org/wiki/GSI_KIBAN""}"
2466117350,"遠藤町","Endomachi","えんどうまち",35.5423134,139.6923886,neighbourhood,"","","{""name"":""遠藤町"",""name:en"":""Endomachi"",""name:ja"":""遠藤町"",""name:ja-Hira"":""えんどうまち"",""place"":""neighbourhood"",""source"":""GSI/KIBAN Block http://wiki.osm.org/wiki/GSI_KIBAN""}"
2466117351,"都町","Miyakocho","みやこちょう",35.5369305,139.6895075,neighbourhood,"","","{""name"":""都町"",""name:en"":""Miyakocho"",""name:ja"":""都町"",""name:ja-Hira"":""みやこちょう"",""place"":""neighbourhood"",""source"":""GSI/KIBAN Block http://wiki.osm.org/wiki/GSI_KIBAN""}"
2466123143,"下並木","Shimonamiki","しもなみき",35.5231379,139.6900209,neighbourhood,"","","{""name"":""下並木"",""name:en"":""Shimonamiki"",""name:ja"":""下並木"",""name:ja-Hira"":""しもなみき"",""place"":""neighbourhood"",""source"":""GSI/KIBAN Block http://wiki.osm.org/wiki/GSI_KIBAN""}"
2466123144,"中島一丁目","Nakajima 1-chome","なかじま1ちょうめ",35.529989,139.7165494,neighbourhood,"","","{""name"":""中島一丁目"",""name:en"":""Nakajima 1-chome"",""name:ja"":""中島一丁目"",""name:ja-Hira"":""なかじま1ちょうめ"",""place"":""neighbourhood"",""source"":""GSI/KIBAN Block http://wiki.osm.org/wiki/GSI_KIBAN""}"
2466123145,"中島三丁目","Nakajima 3-chome","なかじま3ちょうめ",35.5268913,139.7163172,neighbourhood,"","","{""name"":""中島三丁目"",""name:en"":""Nakajima 3-chome"",""name:ja"":""中島三丁目"",""name:ja-Hira"":""なかじま3ちょうめ"",""place"":""neighbourhood"",""source"":""GSI/KIBAN Block http://wiki.osm.org/wiki/GSI_KIBAN""}"
2466123146,"中島二丁目","Nakajima 2-chome","なかじま2ちょうめ",35.5286665,139.7165,neighbourhood,"","","{""name"":""中島二丁目"",""name:en"":""Nakajima 2-chome"",""name:ja"":""中島二丁目"",""name:ja-Hira"":""なかじま2ちょうめ"",""place"":""neighbourhood"",""source"":""GSI/KIBAN Block http://wiki.osm.org/wiki/GSI_KIBAN""}"
2466123147,"中瀬一丁目","Nakaze 1-chome","なかぜ1ちょうめ",35.5398419,139.7287681,neighbourhood,"","","{""name"":""中瀬一丁目"",""name:en"":""Nakaze 1-chome"",""name:ja"":""中瀬一丁目"",""name:ja-Hira"":""なかぜ1ちょうめ"",""place"":""neighbourhood"",""source"":""GSI/KIBAN Block http://wiki.osm.org/wiki/GSI_KIBAN""}"
2466123148,"中瀬三丁目","Nakaze 3-chome","なかぜ3ちょうめ",35.5391729,139.7320721,neighbourhood,"","","{""name"":""中瀬三丁目"",""name:en"":""Nakaze 3-chome"",""name:ja"":""中瀬三丁目"",""name:ja-Hira"":""なかぜ3ちょうめ"",""place"":""neighbourhood"",""source"":""GSI/KIBAN Block http://wiki.osm.org/wiki/GSI_KIBAN""}"
2466123149,"中瀬二丁目","Nakaze 2-chome","なかぜ2ちょうめ",35.5376368,139.7278335,neighbourhood,"","","{""name"":""中瀬二丁目"",""name:en"":""Nakaze 2-chome"",""name:ja"":""中瀬二丁目"",""name:ja-Hira"":""なかぜ2ちょうめ"",""place"":""neighbourhood"",""source"":""GSI/KIBAN Block http://wiki.osm.org/wiki/GSI_KIBAN""}"
2466123150,"京町一丁目","Kyomachi 1-chome","きょうまち1ちょうめ",35.5178189,139.6938646,neighbourhood,"","","{""name"":""京町一丁目"",""name:en"":""Kyomachi 1-chome"",""name:ja"":""京町一丁目"",""name:ja-Hira"":""きょうまち1ちょうめ"",""place"":""neighbourhood"",""source"":""GSI/KIBAN Block http://wiki.osm.org/wiki/GSI_KIBAN""}"
2466123151,"京町三丁目","Kyomachi 3-chome","きょうまち3ちょうめ",35.508837,139.6969505,neighbourhood,"","","{""name"":""京町三丁目"",""name:en"":""Kyomachi 3-chome"",""name:ja"":""京町三丁目"",""name:ja-Hira"":""きょうまち3ちょうめ"",""place"":""neighbourhood"",""source"":""GSI/KIBAN Block http://wiki.osm.org/wiki/GSI_KIBAN""}"
2466123152,"京町二丁目","Kyomachi 2-chome","きょうまち2ちょうめ",35.5135413,139.6953626,neighbourhood,"","","{""name"":""京町二丁目"",""name:en"":""Kyomachi 2-chome"",""name:ja"":""京町二丁目"",""name:ja-Hira"":""きょうまち2ちょうめ"",""place"":""neighbourhood"",""source"":""GSI/KIBAN Block http://wiki.osm.org/wiki/GSI_KIBAN""}"
2466123153,"伊勢町","Isecho","いせちょう",35.5319685,139.7216771,neighbourhood,"","","{""name"":""伊勢町"",""name:en"":""Isecho"",""name:ja"":""伊勢町"",""name:ja-Hira"":""いせちょう"",""place"":""neighbourhood"",""source"":""GSI/KIBAN Block http://wiki.osm.org/wiki/GSI_KIBAN""}"
2466123154,"元木一丁目","Motogi 1-chome","もとぎ1ちょうめ",35.5237542,139.6993407,neighbourhood,"","","{""name"":""元木一丁目"",""name:en"":""Motogi 1-chome"",""name:ja"":""元木一丁目"",""name:ja-Hira"":""もとぎ1ちょうめ"",""place"":""neighbourhood"",""source"":""GSI/KIBAN Block http://wiki.osm.org/wiki/GSI_KIBAN""}"
2466123155,"元木二丁目","Motogi 2-chome","もとぎ2ちょうめ",35.5222124,139.6960813,neighbourhood,"","","{""name"":""元木二丁目"",""name:en"":""Motogi 2-chome"",""name:ja"":""元木二丁目"",""name:ja-Hira"":""もとぎ2ちょうめ"",""place"":""neighbourhood"",""source"":""GSI/KIBAN Block http://wiki.osm.org/wiki/GSI_KIBAN""}"
2466123156,"出来野","Dekino","できの",35.5336785,139.7399019,neighbourhood,"","","{""name"":""出来野"",""name:en"":""Dekino"",""name:ja"":""出来野"",""name:ja-Hira"":""できの"",""place"":""neighbourhood"",""source"":""GSI/KIBAN Block http://wiki.osm.org/wiki/GSI_KIBAN""}"
2466123157,"南渡田町","Minami-Wataridacho","みなみわたりだちょう",35.5083574,139.7164516,neighbourhood,"","","{""name"":""南渡田町"",""name:en"":""Minami-Wataridacho"",""name:ja"":""南渡田町"",""name:ja-Hira"":""みなみわたりだちょう"",""place"":""neighbourhood"",""source"":""GSI/KIBAN Block http://wiki.osm.org/wiki/GSI_KIBAN""}"
2466123158,"南町","Minamimachi","みなみまち",35.525717,139.6989984,neighbourhood,"","","{""name"":""南町"",""name:en"":""Minamimachi"",""name:ja"":""南町"",""name:ja-Hira"":""みなみまち"",""place"":""neighbourhood"",""source"":""GSI/KIBAN Block http://wiki.osm.org/wiki/GSI_KIBAN""}"
2466123159,"台町","Daimachi","だいまち",35.530126,139.732938,neighbourhood,"","","{""name"":""台町"",""name:en"":""Daimachi"",""name:ja"":""台町"",""name:ja-Hira"":""だいまち"",""place"":""neighbourhood"",""source"":""GSI/KIBAN Block http://wiki.osm.org/wiki/GSI_KIBAN""}"
2466123160,"四谷上町","Yotsuyakamicho","よつやかみちょう",35.5274934,139.7346008,neighbourhood,"","","{""name"":""四谷上町"",""name:en"":""Yotsuyakamicho"",""name:ja"":""四谷上町"",""name:ja-Hira"":""よつやかみちょう"",""place"":""neighbourhood"",""source"":""GSI/KIBAN Block http://wiki.osm.org/wiki/GSI_KIBAN""}"
2466123161,"四谷下町","Yotsuyashimocho","よつやしもちょう",35.525462,139.7381394,neighbourhood,"","","{""name"":""四谷下町"",""name:en"":""Yotsuyashimocho"",""name:ja"":""四谷下町"",""name:ja-Hira"":""よつやしもちょう"",""place"":""neighbourhood"",""source"":""GSI/KIBAN Block http://wiki.osm.org/wiki/GSI_KIBAN""}"
2466123162,"堀之内町","Horinouchicho","ほりのうちちょう",35.5330643,139.7060619,neighbourhood,"","","{""name"":""堀之内町"",""name:en"":""Horinouchicho"",""name:ja"":""堀之内町"",""name:ja-Hira"":""ほりのうちちょう"",""place"":""neighbourhood""}"
2466123163,"堤根","Tsutsumine","つつみね",35.5249933,139.6887189,neighbourhood,"","","{""name"":""堤根"",""name:en"":""Tsutsumine"",""name:ja"":""堤根"",""name:ja-Hira"":""つつみね"",""place"":""neighbourhood"",""source"":""GSI/KIBAN Block http://wiki.osm.org/wiki/GSI_KIBAN""}"
2466123164,"塩浜一丁目","Shiohama 1-chome","しおはま1ちょうめ",35.5285229,139.7410264,neighbourhood,"","","{""name"":""塩浜一丁目"",""name:en"":""Shiohama 1-chome"",""name:ja"":""塩浜一丁目"",""name:ja-Hira"":""しおはま1ちょうめ"",""place"":""neighbourhood"",""source"":""GSI/KIBAN Block http://wiki.osm.org/wiki/GSI_KIBAN""}"
2466123165,"塩浜三丁目","Shiohama 3-chome","しおはま3ちょうめ",35.5216173,139.7411998,neighbourhood,"","","{""name"":""塩浜三丁目"",""name:en"":""Shiohama 3-chome"",""name:ja"":""塩浜三丁目"",""name:ja-Hira"":""しおはま3ちょうめ"",""place"":""neighbourhood"",""source"":""GSI/KIBAN Block http://wiki.osm.org/wiki/GSI_KIBAN""}"
2466123166,"塩浜二丁目","Shiohama 2-chome","しおはま2ちょうめ",35.523486,139.737703,neighbourhood,"","","{""name"":""塩浜二丁目"",""name:en"":""Shiohama 2-chome"",""name:ja"":""塩浜二丁目"",""name:ja-Hira"":""しおはま2ちょうめ"",""place"":""neighbourhood"",""source"":""GSI/KIBAN Block http://wiki.osm.org/wiki/GSI_KIBAN""}"
2466123167,"塩浜四丁目","Shiohama 4-chome","しおはま4ちょうめ",35.5291171,139.7465136,neighbourhood,"","","{""name"":""塩浜四丁目"",""name:en"":""Shiohama 4-chome"",""name:ja"":""塩浜四丁目"",""name:ja-Hira"":""しおはま4ちょうめ"",""place"":""neighbourhood"",""source"":""GSI/KIBAN Block http://wiki.osm.org/wiki/GSI_KIBAN""}"
2466123168,"境町","Sakaicho","さかいちょう",35.5250935,139.708713,neighbourhood,"","","{""name"":""境町"",""name:en"":""Sakaicho"",""name:ja"":""境町"",""name:ja-Hira"":""さかいちょう"",""place"":""neighbourhood"",""source"":""GSI/KIBAN Block http://wiki.osm.org/wiki/GSI_KIBAN""}"
2466123169,"夜光一丁目","Yako 1-chome","やこう1ちょうめ",35.5282412,139.7534879,neighbourhood,"","","{""name"":""夜光一丁目"",""name:en"":""Yako 1-chome"",""name:ja"":""夜光一丁目"",""name:ja-Hira"":""やこう1ちょうめ"",""place"":""neighbourhood"",""source"":""GSI/KIBAN Block http://wiki.osm.org/wiki/GSI_KIBAN""}"
2466123170,"夜光三丁目","Yako 3-chome","やこう3ちょうめ",35.5175108,139.7416851,neighbourhood,"","","{""name"":""夜光三丁目"",""name:en"":""Yako 3-chome"",""name:ja"":""夜光三丁目"",""name:ja-Hira"":""やこう3ちょうめ"",""place"":""neighbourhood"",""source"":""GSI/KIBAN Block http://wiki.osm.org/wiki/GSI_KIBAN""}"
2466123171,"夜光二丁目","Yako 2-chome","やこう2ちょうめ",35.5222178,139.7478866,neighbourhood,"","","{""name"":""夜光二丁目"",""name:en"":""Yako 2-chome"",""name:ja"":""夜光二丁目"",""name:ja-Hira"":""やこう2ちょうめ"",""place"":""neighbourhood"",""source"":""GSI/KIBAN Block http://wiki.osm.org/wiki/GSI_KIBAN""}"
2466123172,"大島一丁目","Oshima 1-chome","おおしま1ちょうめ",35.5241828,139.7119195,neighbourhood,"","","{""name"":""大島一丁目"",""name:en"":""Oshima 1-chome"",""name:ja"":""大島一丁目"",""name:ja-Hira"":""おおしま1ちょうめ"",""place"":""neighbourhood"",""source"":""GSI/KIBAN Block http://wiki.osm.org/wiki/GSI_KIBAN""}"
2466123173,"大島三丁目","Oshima 3-chome","おおしま3ちょうめ",35.5206439,139.7182693,neighbourhood,"","","{""name"":""大島三丁目"",""name:en"":""Oshima 3-chome"",""name:ja"":""大島三丁目"",""name:ja-Hira"":""おおしま3ちょうめ"",""place"":""neighbourhood"",""source"":""GSI/KIBAN Block http://wiki.osm.org/wiki/GSI_KIBAN""}"
2466123174,"大島上町","Oshimakamicho","おおしまかみちょう",35.5207436,139.7102434,neighbourhood,"","","{""name"":""大島上町"",""name:en"":""Oshimakamicho"",""name:ja"":""大島上町"",""name:ja-Hira"":""おおしまかみちょう"",""place"":""neighbourhood"",""source"":""GSI/KIBAN Block http://wiki.osm.org/wiki/GSI_KIBAN""}"
2466123175,"大島二丁目","Oshima 2-chome","おおしま2ちょうめ",35.5214314,139.7147626,neighbourhood,"","","{""name"":""大島二丁目"",""name:en"":""Oshima 2-chome"",""name:ja"":""大島二丁目"",""name:ja-Hira"":""おおしま2ちょうめ"",""place"":""neighbourhood"",""source"":""GSI/KIBAN Block http://wiki.osm.org/wiki/GSI_KIBAN""}"
2466123176,"大島五丁目","Oshima 5-chome","おおしま5ちょうめ",35.5238572,139.717631,neighbourhood,"","","{""name"":""大島五丁目"",""name:en"":""Oshima 5-chome"",""name:ja"":""大島五丁目"",""name:ja-Hira"":""おおしま5ちょうめ"",""place"":""neighbourhood"",""source"":""GSI/KIBAN Block http://wiki.osm.org/wiki/GSI_KIBAN""}"
2466123177,"大島四丁目","Oshima 4-chome","おおしま4ちょうめ",35.5242993,139.7148483,neighbourhood,"","","{""name"":""大島四丁目"",""name:en"":""Oshima 4-chome"",""name:ja"":""大島四丁目"",""name:ja-Hira"":""おおしま4ちょうめ"",""place"":""neighbourhood"",""source"":""GSI/KIBAN Block http://wiki.osm.org/wiki/GSI_KIBAN""}"
2466123179,"大師本町","Daishihoncho","だいしほんちょう",35.5357078,139.7302243,neighbourhood,"","","{""name"":""大師本町"",""name:en"":""Daishihoncho"",""name:ja"":""大師本町"",""name:ja-Hira"":""だいしほんちょう"",""place"":""neighbourhood"",""source"":""GSI/KIBAN Block http://wiki.osm.org/wiki/GSI_KIBAN""}"
2466123180,"大師河原一丁目","Daishigawara 1-chome","だいしがわら1ちょうめ",35.5399412,139.7386948,neighbourhood,"","","{""name"":""大師河原一丁目"",""name:en"":""Daishigawara 1-chome"",""name:ja"":""大師河原一丁目"",""name:ja-Hira"":""だいしがわら1ちょうめ"",""place"":""neighbourhood"",""source"":""GSI/KIBAN Block http://wiki.osm.org/wiki/GSI_KIBAN""}"
2466123181,"大師河原二丁目","Daishigawara 2-chome","だいしがわら2ちょうめ",35.5359972,139.739944,neighbourhood,"","","{""name"":""大師河原二丁目"",""name:en"":""Daishigawara 2-chome"",""name:ja"":""大師河原二丁目"",""name:ja-Hira"":""だいしがわら2ちょうめ"",""place"":""neighbourhood"",""source"":""GSI/KIBAN Block http://wiki.osm.org/wiki/GSI_KIBAN""}"
2466123182,"大師町","Daishimachi","だいしまち",35.5338309,139.7306612,neighbourhood,"","","{""name"":""大師町"",""name:en"":""Daishimachi"",""name:ja"":""大師町"",""name:ja-Hira"":""だいしまち"",""place"":""neighbourhood"",""source"":""GSI/KIBAN Block http://wiki.osm.org/wiki/GSI_KIBAN""}"
2466123183,"大師駅前一丁目","Daishi-ekimae 1","だいしえきまえ いち ちょうめ",35.534689,139.7269628,neighbourhood,"","","{""name"":""大師駅前一丁目"",""name:en"":""Daishi-ekimae 1"",""name:fr"":""Daishi-ekimae 1"",""name:ja-Hira"":""だいしえきまえ いち ちょうめ"",""name:ja-Latn"":""Daishi-ekimae ichi-chōme"",""place"":""neighbourhood"",""source"":""GSI/KIBAN Block http://wiki.osm.org/wiki/GSI_KIBAN""}"
2466123184,"大師駅前二丁目","Daishi-ekimae 2","だいしえきまえ に ちょうめ",35.5340661,139.7233122,neighbourhood,"","","{""name"":""大師駅前二丁目"",""name:en"":""Daishi-ekimae 2"",""name:fr"":""Daishi-ekimae 2"",""name:ja-Hira"":""だいしえきまえ に ちょうめ"",""name:ja-Latn"":""Daishi-ekimae ni-chōme"",""place"":""neighbourhood"",""source"":""GSI/KIBAN Block http://wiki.osm.org/wiki/GSI_KIBAN""}"
2466123185,"宮前町","Miyamaecho","みやまえちょう",35.5281942,139.7056517,neighbourhood,"","","{""name"":""宮前町"",""name:en"":""Miyamaecho"",""name:es"":""Miyamae-cho"",""name:ja"":""宮前町"",""name:ja-Hira"":""みやまえちょう"",""place"":""neighbourhood"",""source"":""GSI/KIBAN Block http://wiki.osm.org/wiki/GSI_KIBAN"",""wikidata"":""Q30934486"",""wikipedia"":""ja:宮前町 (川崎市)""}"
2466123186,"宮本町","Miyamotocho","みやもとちょう",35.5309928,139.7042048,neighbourhood,"","","{""name"":""宮本町"",""name:en"":""Miyamotocho"",""name:ja"":""宮本町"",""name:ja-Hira"":""みやもとちょう"",""place"":""neighbourhood"",""source"":""GSI/KIBAN Block http://wiki.osm.org/wiki/GSI_KIBAN"",""wikidata"":""Q30934481"",""wikipedia"":""ja:宮本町 (川崎市)""}"
2466123187,"富士見一丁目","Fujimi 1-chome","ふじみ1ちょうめ",35.5315993,139.7109474,neighbourhood,"","","{""name"":""富士見一丁目"",""name:en"":""Fujimi 1-chome"",""name:ja"":""富士見一丁目"",""name:ja-Hira"":""ふじみ1ちょうめ"",""place"":""neighbourhood"",""source"":""GSI/KIBAN Block http://wiki.osm.org/wiki/GSI_KIBAN""}"
2466123188,"富士見二丁目","Fujimi 2-chome","ふじみ2ちょうめ",35.5277167,139.7109632,neighbourhood,"","","{""name"":""富士見二丁目"",""name:en"":""Fujimi 2-chome"",""name:es"":""2-chrome"",""name:ja"":""富士見二丁目"",""name:ja-Hira"":""ふじみ2ちょうめ"",""name:ja_rm"":""Nichōme"",""place"":""neighbourhood"",""source"":""GSI/KIBAN Block http://wiki.osm.org/wiki/GSI_KIBAN""}"
2466123189,"小島町","Kojimacho","こじまちょう",35.5334658,139.7572744,neighbourhood,"","","{""name"":""小島町"",""name:en"":""Kojimacho"",""name:ja"":""小島町"",""name:ja-Hira"":""こじまちょう"",""place"":""neighbourhood"",""source"":""GSI/KIBAN Block http://wiki.osm.org/wiki/GSI_KIBAN""}"
2466123190,"小川町","Ogawacho","おがわちょう",35.5273825,139.6975806,neighbourhood,"","","{""name"":""小川町"",""name:en"":""Ogawacho"",""name:ja"":""小川町"",""name:ja-Hira"":""おがわちょう"",""place"":""neighbourhood""}"
2466123191,"小田一丁目","Oda 1-chome","おだ1ちょうめ",35.515828,139.69908,neighbourhood,"","","{""name"":""小田一丁目"",""name:en"":""Oda 1-chome"",""name:ja"":""小田一丁目"",""name:ja-Hira"":""おだ1ちょうめ"",""place"":""neighbourhood"",""source"":""GSI/KIBAN Block http://wiki.osm.org/wiki/GSI_KIBAN""}"
2466123192,"小田七丁目","Oda 7-chome","おだ7ちょうめ",35.5090819,139.7086656,neighbourhood,"","","{""name"":""小田七丁目"",""name:en"":""Oda 7-chome"",""name:ja"":""小田七丁目"",""name:ja-Hira"":""おだ7ちょうめ"",""place"":""neighbourhood"",""source"":""GSI/KIBAN Block http://wiki.osm.org/wiki/GSI_KIBAN""}"
2466123193,"小田三丁目","Oda 3-chome","おだ3ちょうめ",35.513581,139.7039782,neighbourhood,"","","{""name"":""小田三丁目"",""name:en"":""Oda 3-chome"",""name:ja"":""小田三丁目"",""name:ja-Hira"":""おだ3ちょうめ"",""place"":""neighbourhood"",""source"":""GSI/KIBAN Block http://wiki.osm.org/wiki/GSI_KIBAN""}"
2466123194,"小田二丁目","Oda 2-chome","おだ2ちょうめ",35.5134504,139.6996067,neighbourhood,"","","{""name"":""小田二丁目"",""name:en"":""Oda 2-chome"",""name:ja"":""小田二丁目"",""name:ja-Hira"":""おだ2ちょうめ"",""place"":""neighbourhood"",""source"":""GSI/KIBAN Block http://wiki.osm.org/wiki/GSI_KIBAN""}"
2466123195,"小田五丁目","Oda 5-chome","おだ5ちょうめ",35.5111699,139.7060068,neighbourhood,"","","{""name"":""小田五丁目"",""name:en"":""Oda 5-chome"",""name:ja"":""小田五丁目"",""name:ja-Hira"":""おだ5ちょうめ"",""place"":""neighbourhood"",""source"":""GSI/KIBAN Block http://wiki.osm.org/wiki/GSI_KIBAN""}"
2466123196,"小田六丁目","Oda 6-chome","おだ6ちょうめ",35.5090872,139.7057322,neighbourhood,"","","{""name"":""小田六丁目"",""name:en"":""Oda 6-chome"",""name:ja"":""小田六丁目"",""name:ja-Hira"":""おだ6ちょうめ"",""place"":""neighbourhood"",""source"":""GSI/KIBAN Block http://wiki.osm.org/wiki/GSI_KIBAN""}"
2466123197,"小田四丁目","Oda 4-chome","おだ4ちょうめ",35.5106869,139.7004407,neighbourhood,"","","{""name"":""小田四丁目"",""name:en"":""Oda 4-chome"",""name:ja"":""小田四丁目"",""name:ja-Hira"":""おだ4ちょうめ"",""place"":""neighbourhood"",""source"":""GSI/KIBAN Block http://wiki.osm.org/wiki/GSI_KIBAN""}"
2466123198,"小田栄一丁目","Odasakae 1-chome","おださかえ1ちょうめ",35.5160531,139.7045119,neighbourhood,"","","{""name"":""小田栄一丁目"",""name:en"":""Odasakae 1-chome"",""name:ja"":""小田栄一丁目"",""name:ja-Hira"":""おださかえ1ちょうめ"",""place"":""neighbourhood"",""source"":""GSI/KIBAN Block http://wiki.osm.org/wiki/GSI_KIBAN""}"
2466123199,"小田栄二丁目","Odasakae 2-chome","おださかえ2ちょうめ",35.51359,139.7088293,neighbourhood,"","","{""name"":""小田栄二丁目"",""name:en"":""Odasakae 2-chome"",""name:ja"":""小田栄二丁目"",""name:ja-Hira"":""おださかえ2ちょうめ"",""place"":""neighbourhood"",""source"":""GSI/KIBAN Block http://wiki.osm.org/wiki/GSI_KIBAN""}"
2466123200,"川中島一丁目","Kawanakajima 1-chome","かわなかじま1ちょうめ",35.5322289,139.7269072,neighbourhood,"","","{""name"":""川中島一丁目"",""name:en"":""Kawanakajima 1-chome"",""name:ja"":""川中島一丁目"",""name:ja-Hira"":""かわなかじま1ちょうめ"",""place"":""neighbourhood"",""source"":""GSI/KIBAN Block http://wiki.osm.org/wiki/GSI_KIBAN""}"
2466123201,"川中島二丁目","Kawanakajima 2-chome","かわなかじま2ちょうめ",35.530245,139.7275362,neighbourhood,"","","{""name"":""川中島二丁目"",""name:en"":""Kawanakajima 2-chome"",""name:ja"":""川中島二丁目"",""name:ja-Hira"":""かわなかじま2ちょうめ"",""place"":""neighbourhood"",""source"":""GSI/KIBAN Block http://wiki.osm.org/wiki/GSI_KIBAN""}"
2466123202,"新川通","Shinkawadori","しんかわどおり",35.526367,139.7051989,neighbourhood,"","","{""name"":""新川通"",""name:en"":""Shinkawadori"",""name:ja"":""新川通"",""name:ja-Hira"":""しんかわどおり"",""place"":""neighbourhood"",""source"":""GSI/KIBAN Block http://wiki.osm.org/wiki/GSI_KIBAN"",""wikipedia"":""ja:新川通 (川崎市)""}"
2466123203,"日ノ出一丁目","Hinode 1-chome","ひので1ちょうめ",35.5330305,139.7456984,neighbourhood,"","","{""name"":""日ノ出一丁目"",""name:en"":""Hinode 1-chome"",""name:ja"":""日ノ出一丁目"",""name:ja-Hira"":""ひので1ちょうめ"",""place"":""neighbourhood"",""source"":""GSI/KIBAN Block http://wiki.osm.org/wiki/GSI_KIBAN""}"
2466123204,"日ノ出二丁目","Hinode 2-chome","ひので2ちょうめ",35.5317597,139.7442016,neighbourhood,"","","{""name"":""日ノ出二丁目"",""name:en"":""Hinode 2-chome"",""name:ja"":""日ノ出二丁目"",""name:ja-Hira"":""ひので2ちょうめ"",""place"":""neighbourhood"",""source"":""GSI/KIBAN Block http://wiki.osm.org/wiki/GSI_KIBAN""}"
2466123205,"日進町","Nisshincho","にっしんちょう",35.5259814,139.6939041,neighbourhood,"","","{""name"":""日進町"",""name:en"":""Nisshincho"",""name:ja"":""日進町"",""name:ja-Hira"":""にっしんちょう"",""place"":""neighbourhood"",""source"":""GSI/KIBAN Block http://wiki.osm.org/wiki/GSI_KIBAN"",""wikidata"":""Q30925292"",""wikipedia"":""ja:日進町 (川崎市)""}"
2466123206,"旭町一丁目","Asahicho 1-chome","あさひちょう1ちょうめ",35.5353126,139.7099266,neighbourhood,"","","{""name"":""旭町一丁目"",""name:en"":""Asahicho 1-chome"",""name:ja"":""旭町一丁目"",""name:ja-Hira"":""あさひちょう1ちょうめ"",""place"":""neighbourhood"",""source"":""GSI/KIBAN Block http://wiki.osm.org/wiki/GSI_KIBAN""}"
2466123207,"旭町二丁目","Asahicho 2-chome","あさひちょう2ちょうめ",35.5319252,139.7166435,neighbourhood,"","","{""name"":""旭町二丁目"",""name:en"":""Asahicho 2-chome"",""name:ja"":""旭町二丁目"",""name:ja-Hira"":""あさひちょう2ちょうめ"",""place"":""neighbourhood"",""source"":""GSI/KIBAN Block http://wiki.osm.org/wiki/GSI_KIBAN""}"
2466123208,"昭和一丁目","Showa 1-chome","しょうわ1ちょうめ",35.533096,139.7371203,neighbourhood,"","","{""name"":""昭和一丁目"",""name:en"":""Showa 1-chome"",""name:ja"":""昭和一丁目"",""name:ja-Hira"":""しょうわ1ちょうめ"",""place"":""neighbourhood"",""source"":""GSI/KIBAN Block http://wiki.osm.org/wiki/GSI_KIBAN""}"
2466123209,"昭和二丁目","Showa 2-chome","しょうわ2ちょうめ",35.5309376,139.7376674,neighbourhood,"","","{""name"":""昭和二丁目"",""name:en"":""Showa 2-chome"",""name:ja"":""昭和二丁目"",""name:ja-Hira"":""しょうわ2ちょうめ"",""place"":""neighbourhood"",""source"":""GSI/KIBAN Block http://wiki.osm.org/wiki/GSI_KIBAN""}"
2466123210,"本町一丁目","Honcho 1-chome","ほんちょう1ちょうめ",35.5333067,139.7033488,neighbourhood,"","","{""name"":""本町一丁目"",""name:en"":""Honcho 1-chome"",""name:ja"":""本町一丁目"",""name:ja-Hira"":""ほんちょう1ちょうめ"",""place"":""neighbourhood""}"
2466123211,"本町二丁目","Honcho 2-chome","ほんちょう2ちょうめ",35.5351119,139.7058571,neighbourhood,"","","{""name"":""本町二丁目"",""name:en"":""Honcho 2-chome"",""name:ja"":""本町二丁目"",""name:ja-Hira"":""ほんちょう2ちょうめ"",""place"":""neighbourhood""}"
2466123212,"東田町","Higashidacho","ひがしだちょう",35.5284619,139.702691,neighbourhood,"","","{""name"":""東田町"",""name:en"":""Higashidacho"",""name:ja"":""東田町"",""name:ja-Hira"":""ひがしだちょう"",""place"":""neighbourhood"",""source"":""GSI/KIBAN Block http://wiki.osm.org/wiki/GSI_KIBAN""}"
2466123213,"東門前一丁目","Higashimonzen 1-chome","ひがしもんぜん1ちょうめ",35.5355198,139.7333703,neighbourhood,"","","{""name"":""東門前一丁目"",""name:en"":""Higashimonzen 1-chome"",""name:ja"":""東門前一丁目"",""name:ja-Hira"":""ひがしもんぜん1ちょうめ"",""place"":""neighbourhood"",""source"":""GSI/KIBAN Block http://wiki.osm.org/wiki/GSI_KIBAN""}"
2466123214,"東門前三丁目","Higashimonzen 3-chome","ひがしもんぜん3ちょうめ",35.5355198,139.7365255,neighbourhood,"","","{""name"":""東門前三丁目"",""name:en"":""Higashimonzen 3-chome"",""name:ja"":""東門前三丁目"",""name:ja-Hira"":""ひがしもんぜん3ちょうめ"",""place"":""neighbourhood"",""source"":""GSI/KIBAN Block http://wiki.osm.org/wiki/GSI_KIBAN""}"
2466123215,"東門前二丁目","Higashimonzen 2-chome","ひがしもんぜん2ちょうめ",35.5333941,139.7346956,neighbourhood,"","","{""name"":""東門前二丁目"",""name:en"":""Higashimonzen 2-chome"",""name:ja"":""東門前二丁目"",""name:ja-Hira"":""ひがしもんぜん2ちょうめ"",""place"":""neighbourhood"",""source"":""GSI/KIBAN Block http://wiki.osm.org/wiki/GSI_KIBAN""}"
2466123216,"桜本一丁目","Sakuramoto 1-chome","さくらもと1ちょうめ",35.5192136,139.7229601,neighbourhood,"","","{""name"":""桜本一丁目"",""name:en"":""Sakuramoto 1-chome"",""name:ja"":""桜本一丁目"",""name:ja-Hira"":""さくらもと1ちょうめ"",""place"":""neighbourhood"",""source"":""GSI/KIBAN Block http://wiki.osm.org/wiki/GSI_KIBAN""}"
2466123217,"桜本二丁目","Sakuramoto 2-chome","さくらもと2ちょうめ",35.5216793,139.7255724,neighbourhood,"","","{""name"":""桜本二丁目"",""name:en"":""Sakuramoto 2-chome"",""name:ja"":""桜本二丁目"",""name:ja-Hira"":""さくらもと2ちょうめ"",""place"":""neighbourhood"",""source"":""GSI/KIBAN Block http://wiki.osm.org/wiki/GSI_KIBAN""}"
2466123218,"榎町","Enokicho","えのきちょう",35.5307057,139.706561,neighbourhood,"","","{""name"":""榎町"",""name:en"":""Enokicho"",""name:ja"":""榎町"",""name:ja-Hira"":""えのきちょう"",""place"":""neighbourhood"",""source"":""GSI/KIBAN Block http://wiki.osm.org/wiki/GSI_KIBAN""}"
2466123219,"殿町一丁目","Tonomachi 1-chome","とのまち1ちょうめ",35.5393374,139.7437888,neighbourhood,"","","{""name"":""殿町一丁目"",""name:en"":""Tonomachi 1-chome"",""name:ja"":""殿町一丁目"",""name:ja-Hira"":""とのまち1ちょうめ"",""place"":""neighbourhood"",""source"":""GSI/KIBAN Block http://wiki.osm.org/wiki/GSI_KIBAN""}"
2466123220,"殿町三丁目","Tono-machi 3","とのまちさんちょうめ",35.5383838,139.7577665,neighbourhood,"","","{""name"":""殿町三丁目"",""name:en"":""Tono-machi 3"",""name:fr"":""Tono-machi 3"",""name:ja"":""殿町三丁目"",""name:ja-Hira"":""とのまちさんちょうめ"",""name:ja-Latn"":""Tonomachi san-chōme"",""place"":""neighbourhood"",""source"":""GSI/KIBAN Block http://wiki.osm.org/wiki/GSI_KIBAN""}"
2466123221,"殿町二丁目","Tonomachi 2-chome","とのまち2ちょうめ",35.5401004,139.7476991,neighbourhood,"","","{""name"":""殿町二丁目"",""name:en"":""Tonomachi 2-chome"",""name:ja"":""殿町二丁目"",""name:ja-Hira"":""とのまち2ちょうめ"",""place"":""neighbourhood"",""source"":""GSI/KIBAN Block http://wiki.osm.org/wiki/GSI_KIBAN""}"
2466123222,"江川一丁目","Egawa 1-chome","えがわ1ちょうめ",35.5366207,139.7439886,neighbourhood,"","","{""name"":""江川一丁目"",""name:en"":""Egawa 1-chome"",""name:ja"":""江川一丁目"",""name:ja-Hira"":""えがわ1ちょうめ"",""place"":""neighbourhood"",""source"":""GSI/KIBAN Block http://wiki.osm.org/wiki/GSI_KIBAN""}"
2466123223,"江川二丁目","Egawa 2-chome","えがわ2ちょうめ",35.5362657,139.7475433,neighbourhood,"","","{""name"":""江川二丁目"",""name:en"":""Egawa 2-chome"",""name:ja"":""江川二丁目"",""name:ja-Hira"":""えがわ2ちょうめ"",""place"":""neighbourhood"",""source"":""GSI/KIBAN Block http://wiki.osm.org/wiki/GSI_KIBAN""}"
2466123224,"池上新町一丁目","Ikegamishincho 1-chome","いけがみしんちょう1ちょうめ",35.523233,139.7280385,neighbourhood,"","","{""name"":""池上新町一丁目"",""name:en"":""Ikegamishincho 1-chome"",""name:ja"":""池上新町一丁目"",""name:ja-Hira"":""いけがみしんちょう1ちょうめ"",""place"":""neighbourhood"",""source"":""GSI/KIBAN Block http://wiki.osm.org/wiki/GSI_KIBAN""}"
2466123225,"池上新町三丁目","Ikegamishincho 3-chome","いけがみしんちょう3ちょうめ",35.5218401,139.7338242,neighbourhood,"","","{""name"":""池上新町三丁目"",""name:en"":""Ikegamishincho 3-chome"",""name:ja"":""池上新町三丁目"",""name:ja-Hira"":""いけがみしんちょう3ちょうめ"",""place"":""neighbourhood"",""source"":""GSI/KIBAN Block http://wiki.osm.org/wiki/GSI_KIBAN""}"
2466123226,"池上新町二丁目","Ikegamishincho 2-chome","いけがみしんちょう2ちょうめ",35.5245006,139.7303306,neighbourhood,"","","{""name"":""池上新町二丁目"",""name:en"":""Ikegamishincho 2-chome"",""name:ja"":""池上新町二丁目"",""name:ja-Hira"":""いけがみしんちょう2ちょうめ"",""place"":""neighbourhood"",""source"":""GSI/KIBAN Block http://wiki.osm.org/wiki/GSI_KIBAN""}"
2466123227,"池上町","Ikegamicho","いけがみちょう",35.517079,139.7316229,neighbourhood,"","","{""name"":""池上町"",""name:en"":""Ikegamicho"",""name:ja"":""池上町"",""name:ja-Hira"":""いけがみちょう"",""place"":""neighbourhood"",""source"":""GSI/KIBAN Block http://wiki.osm.org/wiki/GSI_KIBAN;survey"",""wikidata"":""Q110584495"",""wikipedia"":""ja:池上町 (川崎市)""}"
2466123228,"浅田一丁目","Asada 1-chome","あさだ1ちょうめ",35.5069604,139.7049012,neighbourhood,"","","{""name"":""浅田一丁目"",""name:en"":""Asada 1-chome"",""name:ja"":""浅田一丁目"",""name:ja-Hira"":""あさだ1ちょうめ"",""place"":""neighbourhood"",""source"":""GSI/KIBAN Block http://wiki.osm.org/wiki/GSI_KIBAN""}"
2466123229,"浅田三丁目","Asada 3-chome","あさだ3ちょうめ",35.5073101,139.7000413,neighbourhood,"","","{""name"":""浅田三丁目"",""name:en"":""Asada 3-chome"",""name:ja"":""浅田三丁目"",""name:ja-Hira"":""あさだ3ちょうめ"",""place"":""neighbourhood"",""source"":""GSI/KIBAN Block http://wiki.osm.org/wiki/GSI_KIBAN""}"
2466123230,"浅田二丁目","Asada 2-chome","あさだ2ちょうめ",35.5071935,139.702693,neighbourhood,"","","{""name"":""浅田二丁目"",""name:en"":""Asada 2-chome"",""name:ja"":""浅田二丁目"",""name:ja-Hira"":""あさだ2ちょうめ"",""place"":""neighbourhood"",""source"":""GSI/KIBAN Block http://wiki.osm.org/wiki/GSI_KIBAN""}"
2466123231,"浅田四丁目","Asada 4-chome","あさだ4ちょうめ",35.5044642,139.7004538,neighbourhood,"","","{""name"":""浅田四丁目"",""name:en"":""Asada 4-chome"",""name:ja"":""浅田四丁目"",""name:ja-Hira"":""あさだ4ちょうめ"",""place"":""neighbourhood"",""source"":""GSI/KIBAN Block http://wiki.osm.org/wiki/GSI_KIBAN""}"
2466123232,"浅野町","Asanocho","あさのちょう",35.5130508,139.7258586,neighbourhood,"","","{""name"":""浅野町"",""name:en"":""Asanocho"",""name:ja"":""浅野町"",""name:ja-Hira"":""あさのちょう"",""place"":""neighbourhood"",""source"":""GSI/KIBAN Block http://wiki.osm.org/wiki/GSI_KIBAN"",""wikipedia"":""ja:浅野町 (川崎市)""}"
2466123233,"浜町一丁目","Hamacho 1-chome","はまちょう1ちょうめ",35.5166986,139.7176,neighbourhood,"","","{""name"":""浜町一丁目"",""name:en"":""Hamacho 1-chome"",""name:ja"":""浜町一丁目"",""name:ja-Hira"":""はまちょう1ちょうめ"",""place"":""neighbourhood"",""source"":""GSI/KIBAN Block http://wiki.osm.org/wiki/GSI_KIBAN""}"
2466123234,"浜町三丁目","Hamacho 3-chome","はまちょう3ちょうめ",35.5174272,139.7197979,neighbourhood,"","","{""name"":""浜町三丁目"",""name:en"":""Hamacho 3-chome"",""name:ja"":""浜町三丁目"",""name:ja-Hira"":""はまちょう3ちょうめ"",""place"":""neighbourhood"",""source"":""GSI/KIBAN Block http://wiki.osm.org/wiki/GSI_KIBAN""}"
2466123235,"浜町二丁目","Hamacho 2-chome","はまちょう2ちょうめ",35.513905,139.7178622,neighbourhood,"","","{""name"":""浜町二丁目"",""name:en"":""Hamacho 2-chome"",""name:ja"":""浜町二丁目"",""name:ja-Hira"":""はまちょう2ちょうめ"",""place"":""neighbourhood"",""source"":""GSI/KIBAN Block http://wiki.osm.org/wiki/GSI_KIBAN""}"
2466123236,"浜町四丁目","Hamacho 4-chome","はまちょう4ちょうめ",35.51601,139.721992,neighbourhood,"","","{""name"":""浜町四丁目"",""name:en"":""Hamacho 4-chome"",""name:ja"":""浜町四丁目"",""name:ja-Hira"":""はまちょう4ちょうめ"",""place"":""neighbourhood"",""source"":""GSI/KIBAN Block http://wiki.osm.org/wiki/GSI_KIBAN""}"
2466123237,"渡田一丁目","Watarida 1-chome","わたりだ1ちょうめ",35.5227965,139.7076546,neighbourhood,"","","{""name"":""渡田一丁目"",""name:en"":""Watarida 1-chome"",""name:ja"":""渡田一丁目"",""name:ja-Hira"":""わたりだ1ちょうめ"",""place"":""neighbourhood"",""source"":""GSI/KIBAN Block http://wiki.osm.org/wiki/GSI_KIBAN""}"
2466123238,"渡田三丁目","Watarida 3-chome","わたりだ3ちょうめ",35.5188516,139.7052074,neighbourhood,"","","{""name"":""渡田三丁目"",""name:en"":""Watarida 3-chome"",""name:ja"":""渡田三丁目"",""name:ja-Hira"":""わたりだ3ちょうめ"",""place"":""neighbourhood"",""source"":""GSI/KIBAN Block http://wiki.osm.org/wiki/GSI_KIBAN""}"
2466123239,"渡田二丁目","Watarida 2-chome","わたりだ2ちょうめ",35.5208523,139.7062624,neighbourhood,"","","{""name"":""渡田二丁目"",""name:en"":""Watarida 2-chome"",""name:ja"":""渡田二丁目"",""name:ja-Hira"":""わたりだ2ちょうめ"",""place"":""neighbourhood"",""source"":""GSI/KIBAN Block http://wiki.osm.org/wiki/GSI_KIBAN""}"
2466123240,"渡田向町","Watarida-mukaicho","わたりだむかいちょう",35.5216799,139.7032513,neighbourhood,"","","{""name"":""渡田向町"",""name:en"":""Watarida-mukaicho"",""name:ja"":""渡田向町"",""name:ja-Hira"":""わたりだむかいちょう"",""place"":""neighbourhood"",""source"":""GSI/KIBAN Block http://wiki.osm.org/wiki/GSI_KIBAN""}"
2466123241,"渡田四丁目","Watarida 4-chome","わたりだ4ちょうめ",35.5178891,139.7031789,neighbourhood,"","","{""name"":""渡田四丁目"",""name:en"":""Watarida 4-chome"",""name:ja"":""渡田四丁目"",""name:ja-Hira"":""わたりだ4ちょうめ"",""place"":""neighbourhood"",""source"":""GSI/KIBAN Block http://wiki.osm.org/wiki/GSI_KIBAN""}"
2466123242,"渡田山王町","Watarida-sannocho","わたりださんのうちょう",35.5185581,139.6966543,neighbourhood,"","","{""name"":""渡田山王町"",""name:en"":""Watarida-sannocho"",""name:ja"":""渡田山王町"",""name:ja-Hira"":""わたりださんのうちょう"",""place"":""neighbourhood"",""source"":""GSI/KIBAN Block http://wiki.osm.org/wiki/GSI_KIBAN""}"
2466123243,"渡田新町一丁目","Watarida-shincho 1-chome","わたりだしんちょう1ちょうめ",35.5221138,139.7002162,neighbourhood,"","","{""name"":""渡田新町一丁目"",""name:en"":""Watarida-shincho 1-chome"",""name:ja"":""渡田新町一丁目"",""name:ja-Hira"":""わたりだしんちょう1ちょうめ"",""place"":""neighbourhood"",""source"":""GSI/KIBAN Block http://wiki.osm.org/wiki/GSI_KIBAN""}"
2466123244,"渡田新町三丁目","","わたりだしんちょう3ちょうめ",35.5196535,139.6989278,neighbourhood,"","","{""name"":""渡田新町三丁目"",""name:ja"":""渡田新町三丁目"",""name:ja-Hira"":""わたりだしんちょう3ちょうめ"",""place"":""neighbourhood"",""source"":""GSI/KIBAN Block http://wiki.osm.org/wiki/GSI_KIBAN""}"
2466123245,"渡田新町二丁目","Watarida-shincho 2-chome","わたりだしんちょう2ちょうめ",35.5210254,139.6994309,neighbourhood,"","","{""name"":""渡田新町二丁目"",""name:en"":""Watarida-shincho 2-chome"",""name:ja"":""渡田新町二丁目"",""name:ja-Hira"":""わたりだしんちょう2ちょうめ"",""place"":""neighbourhood"",""source"":""GSI/KIBAN Block http://wiki.osm.org/wiki/GSI_KIBAN""}"
2466123246,"渡田東町","Watarida-higashicho","わたりだひがしちょう",35.5181513,139.7078908,neighbourhood,"","","{""name"":""渡田東町"",""name:en"":""Watarida-higashicho"",""name:ja"":""渡田東町"",""name:ja-Hira"":""わたりだひがしちょう"",""place"":""neighbourhood"",""source"":""GSI/KIBAN Block http://wiki.osm.org/wiki/GSI_KIBAN""}"
2466123247,"港町","Minatocho","みなとちょう",35.5351604,139.7141167,neighbourhood,"","","{""name"":""港町"",""name:en"":""Minatocho"",""name:ja"":""港町"",""name:ja-Hira"":""みなとちょう"",""place"":""neighbourhood"",""source"":""GSI/KIBAN Block http://wiki.osm.org/wiki/GSI_KIBAN""}"
2466123248,"田島町","Tajimacho","たじまちょう",35.5164443,139.710372,neighbourhood,"","","{""name"":""田島町"",""name:en"":""Tajimacho"",""name:ja"":""田島町"",""name:ja-Hira"":""たじまちょう"",""place"":""neighbourhood"",""source"":""GSI/KIBAN Block http://wiki.osm.org/wiki/GSI_KIBAN""}"
2466123249,"田町一丁目","Tamachi 1-chome","たまち1ちょうめ",35.5352679,139.7422215,neighbourhood,"","","{""name"":""田町一丁目"",""name:en"":""Tamachi 1-chome"",""name:ja"":""田町一丁目"",""name:ja-Hira"":""たまち1ちょうめ"",""place"":""neighbourhood"",""source"":""GSI/KIBAN Block http://wiki.osm.org/wiki/GSI_KIBAN""}"
2466123250,"田町三丁目","Tamachi 3-chome","たまち3ちょうめ",35.5347617,139.7495894,neighbourhood,"","","{""name"":""田町三丁目"",""name:en"":""Tamachi 3-chome"",""name:ja"":""田町三丁目"",""name:ja-Hira"":""たまち3ちょうめ"",""place"":""neighbourhood"",""source"":""GSI/KIBAN Block http://wiki.osm.org/wiki/GSI_KIBAN""}"
2466123251,"田町二丁目","Tamachi 2-chome","たまち2ちょうめ",35.5345273,139.7453675,neighbourhood,"","","{""name"":""田町二丁目"",""name:en"":""Tamachi 2-chome"",""name:ja"":""田町二丁目"",""name:ja-Hira"":""たまち2ちょうめ"",""place"":""neighbourhood"",""source"":""GSI/KIBAN Block http://wiki.osm.org/wiki/GSI_KIBAN""}"
2466123252,"田辺新田","Tanabe-shinden","たなべしんでん",35.5047259,139.7072352,neighbourhood,"","","{""name"":""田辺新田"",""name:en"":""Tanabe-shinden"",""name:ja"":""田辺新田"",""name:ja-Hira"":""たなべしんでん"",""place"":""neighbourhood"",""source"":""GSI/KIBAN Block http://wiki.osm.org/wiki/GSI_KIBAN""}"
2466123253,"白石町","Shiraishicho","しらいしちょう",35.5006604,139.7097862,neighbourhood,"","","{""name"":""白石町"",""name:en"":""Shiraishicho"",""name:ja"":""白石町"",""name:ja-Hira"":""しらいしちょう"",""place"":""neighbourhood"",""source"":""GSI/KIBAN Block http://wiki.osm.org/wiki/GSI_KIBAN""}"
2466123254,"砂子一丁目","Isago 1-chome","いさご1ちょうめ",35.5319901,139.701502,neighbourhood,"","","{""name"":""砂子一丁目"",""name:en"":""Isago 1-chome"",""name:ja"":""砂子一丁目"",""name:ja-Hira"":""いさご1ちょうめ"",""place"":""neighbourhood"",""source"":""GSI/KIBAN Block http://wiki.osm.org/wiki/GSI_KIBAN""}"
2466123255,"砂子二丁目","Isago 2-chome","いさご2ちょうめ",35.5293091,139.700418,neighbourhood,"","","{""name"":""砂子二丁目"",""name:en"":""Isago 2-chome"",""name:ja"":""砂子二丁目"",""name:ja-Hira"":""いさご2ちょうめ"",""place"":""neighbourhood"",""source"":""GSI/KIBAN Block http://wiki.osm.org/wiki/GSI_KIBAN""}"
2466123256,"藤崎一丁目","Fujisaki 1-chome","ふじさき1ちょうめ",35.5293318,139.7210407,neighbourhood,"","","{""name"":""藤崎一丁目"",""name:en"":""Fujisaki 1-chome"",""name:ja"":""藤崎一丁目"",""name:ja-Hira"":""ふじさき1ちょうめ"",""place"":""neighbourhood"",""source"":""GSI/KIBAN Block http://wiki.osm.org/wiki/GSI_KIBAN""}"
2466123257,"藤崎二丁目","Fujisaki 2-chome","ふじさき2ちょうめ",35.5266851,139.7207566,neighbourhood,"","","{""name"":""藤崎二丁目"",""name:en"":""Fujisaki 2-chome"",""name:ja"":""藤崎二丁目"",""name:ja-Hira"":""ふじさき2ちょうめ"",""place"":""neighbourhood"",""source"":""GSI/KIBAN Block http://wiki.osm.org/wiki/GSI_KIBAN""}"
2466123258,"藤崎三丁目","Fujisaki 3-chome","ふじさき3ちょうめ",35.5278092,139.7241752,neighbourhood,"","","{""name"":""藤崎三丁目"",""name:en"":""Fujisaki 3-chome"",""name:ja"":""藤崎三丁目"",""name:ja-Hira"":""ふじさき3ちょうめ"",""place"":""neighbourhood"",""source"":""GSI/KIBAN Block http://wiki.osm.org/wiki/GSI_KIBAN""}"
2466123259,"藤崎四丁目","Fujisaki 4-chome","ふじさき4ちょうめ",35.5243892,139.7221908,neighbourhood,"","","{""name"":""藤崎四丁目"",""name:en"":""Fujisaki 4-chome"",""name:ja"":""藤崎四丁目"",""name:ja-Hira"":""ふじさき4ちょうめ"",""place"":""neighbourhood"",""source"":""GSI/KIBAN Block http://wiki.osm.org/wiki/GSI_KIBAN""}"
2466123260,"観音一丁目","Kannon 1-chome","かんのん1ちょうめ",35.5274896,139.7264342,neighbourhood,"","","{""name"":""観音一丁目"",""name:en"":""Kannon 1-chome"",""name:ja"":""観音一丁目"",""name:ja-Hira"":""かんのん1ちょうめ"",""place"":""neighbourhood"",""source"":""GSI/KIBAN Block http://wiki.osm.org/wiki/GSI_KIBAN""}"
2466123261,"観音2","Kannon 2-chome","かんのん2ちょうめ",35.5275147,139.7295768,neighbourhood,"","","{""name"":""観音2"",""name:en"":""Kannon 2-chome"",""name:ja"":""観音二丁目"",""name:ja-Hira"":""かんのん2ちょうめ"",""place"":""neighbourhood"",""source"":""GSI/KIBAN Block http://wiki.osm.org/wiki/GSI_KIBAN""}"
2466123262,"貝塚一丁目","Kaizuka 1-chome","かいづか1ちょうめ",35.5251579,139.7021859,neighbourhood,"","","{""name"":""貝塚一丁目"",""name:en"":""Kaizuka 1-chome"",""name:ja"":""貝塚一丁目"",""name:ja-Hira"":""かいづか1ちょうめ"",""place"":""neighbourhood"",""source"":""GSI/KIBAN Block http://wiki.osm.org/wiki/GSI_KIBAN""}"
2466123263,"貝塚二丁目","Kaizuka 2-chome","かいづか2ちょうめ",35.5242277,139.7042196,neighbourhood,"","","{""name"":""貝塚二丁目"",""name:en"":""Kaizuka 2-chome"",""name:ja"":""貝塚二丁目"",""name:ja-Hira"":""かいづか2ちょうめ"",""place"":""neighbourhood"",""source"":""GSI/KIBAN Block http://wiki.osm.org/wiki/GSI_KIBAN""}"
2466123264,"追分町","Oiwakecho","おいわけちょう",35.5193105,139.7147033,neighbourhood,"","","{""name"":""追分町"",""name:en"":""Oiwakecho"",""name:ja"":""追分町"",""name:ja-Hira"":""おいわけちょう"",""place"":""neighbourhood"",""source"":""GSI/KIBAN Block http://wiki.osm.org/wiki/GSI_KIBAN""}"
2466123265,"鈴木町","Suzukicho","すずきちょう",35.5370812,139.7232345,neighbourhood,"","","{""name"":""鈴木町"",""name:en"":""Suzukicho"",""name:ja"":""鈴木町"",""name:ja-Hira"":""すずきちょう"",""place"":""neighbourhood"",""source"":""GSI/KIBAN Block http://wiki.osm.org/wiki/GSI_KIBAN""}"
2466123266,"鋼管通一丁目","Kokandori 1-chome","こうかんどおり1ちょうめ",35.5177706,139.7128273,neighbourhood,"","","{""name"":""鋼管通一丁目"",""name:en"":""Kokandori 1-chome"",""name:ja"":""鋼管通一丁目"",""name:ja-Hira"":""こうかんどおり1ちょうめ"",""place"":""neighbourhood"",""source"":""GSI/KIBAN Block http://wiki.osm.org/wiki/GSI_KIBAN""}"
2466123267,"鋼管通三丁目","Kokandori 3-chome","こうかんどおり3ちょうめ",35.5139562,139.7136322,neighbourhood,"","","{""name"":""鋼管通三丁目"",""name:en"":""Kokandori 3-chome"",""name:ja"":""鋼管通三丁目"",""name:ja-Hira"":""こうかんどおり3ちょうめ"",""place"":""neighbourhood"",""source"":""GSI/KIBAN Block http://wiki.osm.org/wiki/GSI_KIBAN""}"
2466123268,"鋼管通二丁目","Kokandori 2-chome","こうかんどおり2ちょうめ",35.5162635,139.7153502,neighbourhood,"","","{""name"":""鋼管通二丁目"",""name:en"":""Kokandori 2-chome"",""name:ja"":""鋼管通二丁目"",""name:ja-Hira"":""こうかんどおり2ちょうめ"",""place"":""neighbourhood"",""source"":""GSI/KIBAN Block http://wiki.osm.org/wiki/GSI_KIBAN""}"
2466123269,"鋼管通五丁目","Kokandori 5-chome","こうかんどおり5ちょうめ",35.5107562,139.7142699,neighbourhood,"","","{""name"":""鋼管通五丁目"",""name:en"":""Kokandori 5-chome"",""name:ja"":""鋼管通五丁目"",""name:ja-Hira"":""こうかんどおり5ちょうめ"",""place"":""neighbourhood"",""source"":""GSI/KIBAN Block http://wiki.osm.org/wiki/GSI_KIBAN""}"
2466123270,"鋼管通四丁目","Kokandori 4-chome","こうかんどおり4ちょうめ",35.5116173,139.7124081,neighbourhood,"","","{""name"":""鋼管通四丁目"",""name:en"":""Kokandori 4-chome"",""name:ja"":""鋼管通四丁目"",""name:ja-Hira"":""こうかんどおり4ちょうめ"",""place"":""neighbourhood"",""source"":""GSI/KIBAN Block http://wiki.osm.org/wiki/GSI_KIBAN""}"
2466123271,"駅前本町","Ekimae-honcho","えきまえほんちょう",35.5325821,139.6998962,neighbourhood,"","","{""name"":""駅前本町"",""name:en"":""Ekimae-honcho"",""name:es"":""Ekimae-honcho"",""name:ja"":""駅前本町"",""name:ja-Hira"":""えきまえほんちょう"",""place"":""neighbourhood"",""source"":""GSI/KIBAN Block http://wiki.osm.org/wiki/GSI_KIBAN"",""wikidata"":""Q30924745"",""wikimedia_commons"":""Category:Ekimae Honcho, Kawasaki"",""wikipedia"":""ja:駅前本町 (川崎市)""}"
2525225168,"ひばりが丘三丁目","Hibarigaoka 3-chome","ひばりがおか3ちょうめ",35.7446167,139.5353396,neighbourhood,"ひばりヶ丘","","{""is_in"":""ひばりヶ丘"",""name"":""ひばりが丘三丁目"",""name:en"":""Hibarigaoka 3-chome"",""name:ja"":""ひばりが丘三丁目"",""name:ja-Hira"":""ひばりがおか3ちょうめ"",""name:ja_kana"":""ひばりがおかさんちょうめ"",""name:ja_rm"":""Hibarigaoka Sanchome"",""place"":""neighbourhood""}"
2525234504,"ひばりが丘一丁目","Hibarigaoka 1-chome","ひばりがおか1ちょうめ",35.7509503,139.5421218,neighbourhood,"ひばりヶ丘","","{""is_in"":""ひばりヶ丘"",""name"":""ひばりが丘一丁目"",""name:en"":""Hibarigaoka 1-chome"",""name:ja"":""ひばりが丘一丁目"",""name:ja-Hira"":""ひばりがおか1ちょうめ"",""name:ja_kana"":""ひばりがおかいっちょうめ"",""name:ja_rm"":""Hibarigaoka Sanchome"",""place"":""neighbourhood""}"
2525357588,"ひばりが丘団地","Hibarigaokadanchi","ひばりがおかだんち",35.7468193,139.5339095,neighbourhood,"","","{""name"":""ひばりが丘団地"",""name:en"":""Hibarigaokadanchi"",""name:ja"":""ひばりが丘団地"",""name:ja-Hira"":""ひばりがおかだんち"",""name:ja_kana"":""ひばりがおかだんち"",""name:ja_rm"":""Hibarigaoka Danchi"",""place"":""neighbourhood""}"
2548836216,"高島平三丁目","Takashimadaira 3-chome","たかしまだいら3ちょうめ",35.7866641,139.6556645,neighbourhood,"","","{""name"":""高島平三丁目"",""name:en"":""Takashimadaira 3-chome"",""name:ja"":""高島平三丁目"",""name:ja-Hira"":""たかしまだいら3ちょうめ"",""place"":""neighbourhood""}"
2548836225,"高島平一丁目","Takashimadaira 1-chome","たかしまだいら1ちょうめ",35.7838909,139.6698298,neighbourhood,"","","{""name"":""高島平一丁目"",""name:en"":""Takashimadaira 1-chome"",""name:ja"":""高島平一丁目"",""name:ja-Hira"":""たかしまだいら1ちょうめ"",""place"":""neighbourhood""}"
2548836234,"高島平二丁目","Takashimadaira 2-chome","たかしまだいら2ちょうめ",35.7852516,139.6627054,neighbourhood,"","","{""name"":""高島平二丁目"",""name:en"":""Takashimadaira 2-chome"",""name:ja"":""高島平二丁目"",""name:ja-Hira"":""たかしまだいら2ちょうめ"",""place"":""neighbourhood""}"
2548836241,"高島平四丁目","Takashimadaira 4-chome","たかしまだいら4ちょうめ",35.7879241,139.6503568,neighbourhood,"","","{""name"":""高島平四丁目"",""name:en"":""Takashimadaira 4-chome"",""name:ja"":""高島平四丁目"",""name:ja-Hira"":""たかしまだいら4ちょうめ"",""place"":""neighbourhood""}"
2548836248,"高島平五丁目","Takashimadaira 5-chome","たかしまだいら5ちょうめ",35.7888898,139.6463624,neighbourhood,"","","{""name"":""高島平五丁目"",""name:en"":""Takashimadaira 5-chome"",""name:ja"":""高島平五丁目"",""name:ja-Hira"":""たかしまだいら5ちょうめ"",""place"":""neighbourhood""}"
2548836298,"高島平六丁目","Takashimadaira 6-chome","たかしまだいら6ちょうめ",35.7933281,139.6490112,neighbourhood,"","","{""name"":""高島平六丁目"",""name:en"":""Takashimadaira 6-chome"",""name:ja"":""高島平六丁目"",""name:ja-Hira"":""たかしまだいら6ちょうめ"",""place"":""neighbourhood""}"
2548836308,"高島平七丁目","Takashimadaira 7-chome","たかしまだいら7ちょうめ",35.791476,139.6567972,neighbourhood,"","","{""name"":""高島平七丁目"",""name:en"":""Takashimadaira 7-chome"",""name:ja"":""高島平七丁目"",""name:ja-Hira"":""たかしまだいら7ちょうめ"",""place"":""neighbourhood""}"
2548836320,"高島平八丁目","Takashimadaira 8-chome","たかしまだいら8ちょうめ",35.7905589,139.6625537,neighbourhood,"","","{""name"":""高島平八丁目"",""name:en"":""Takashimadaira 8-chome"",""name:ja"":""高島平八丁目"",""name:ja-Hira"":""たかしまだいら8ちょうめ"",""place"":""neighbourhood""}"
2548836332,"高島平九丁目","Takashimadaira 9-chome","たかしまだいら9ちょうめ",35.7897936,139.6693598,neighbourhood,"","","{""name"":""高島平九丁目"",""name:en"":""Takashimadaira 9-chome"",""name:ja"":""高島平九丁目"",""name:ja-Hira"":""たかしまだいら9ちょうめ"",""place"":""neighbourhood""}"
2550751552,"徳丸一丁目","Tokumaru 1-chome","とくまる1ちょうめ",35.7717851,139.6659209,neighbourhood,"","","{""name"":""徳丸一丁目"",""name:en"":""Tokumaru 1-chome"",""name:ja"":""徳丸一丁目"",""name:ja-Hira"":""とくまる1ちょうめ"",""place"":""neighbourhood""}"
2550751553,"徳丸二丁目","Tokumaru 2-chome","とくまる2ちょうめ",35.7720778,139.6617347,neighbourhood,"板橋区","","{""is_in"":""板橋区"",""name"":""徳丸二丁目"",""name:en"":""Tokumaru 2-chome"",""name:ja"":""徳丸二丁目"",""name:ja-Hira"":""とくまる2ちょうめ"",""place"":""neighbourhood""}"
2550751557,"徳丸三丁目","Tokumaru 3-chome","とくまる3ちょうめ",35.7725274,139.6578236,neighbourhood,"","","{""name"":""徳丸三丁目"",""name:en"":""Tokumaru 3-chome"",""name:ja"":""徳丸三丁目"",""name:ja-Hira"":""とくまる3ちょうめ"",""place"":""neighbourhood""}"
2550751558,"徳丸四丁目","Tokumaru 4-chome","とくまる4ちょうめ",35.7725797,139.6534557,neighbourhood,"","","{""name"":""徳丸四丁目"",""name:en"":""Tokumaru 4-chome"",""name:ja"":""徳丸四丁目"",""name:ja-Hira"":""とくまる4ちょうめ"",""place"":""neighbourhood""}"
2550751560,"徳丸五丁目","Tokumaru 5-chome","とくまる5ちょうめ",35.7777827,139.6567248,neighbourhood,"","","{""name"":""徳丸五丁目"",""name:en"":""Tokumaru 5-chome"",""name:ja"":""徳丸五丁目"",""name:ja-Hira"":""とくまる5ちょうめ"",""place"":""neighbourhood""}"
2550751561,"徳丸六丁目","Tokumaru 6-chome","とくまる6ちょうめ",35.7781266,139.6612783,neighbourhood,"","","{""name"":""徳丸六丁目"",""name:en"":""Tokumaru 6-chome"",""name:ja"":""徳丸六丁目"",""name:ja-Hira"":""とくまる6ちょうめ"",""place"":""neighbourhood""}"
2550751562,"徳丸七丁目","Tokumaru 7-chome","とくまる7ちょうめ",35.7809845,139.6618073,neighbourhood,"","","{""name"":""徳丸七丁目"",""name:en"":""Tokumaru 7-chome"",""name:ja"":""徳丸七丁目"",""name:ja-Hira"":""とくまる7ちょうめ"",""place"":""neighbourhood""}"
2550751564,"徳丸八丁目","Tokumaru 8-chome","とくまる8ちょうめ",35.7817864,139.6573086,neighbourhood,"","","{""name"":""徳丸八丁目"",""name:en"":""Tokumaru 8-chome"",""name:ja"":""徳丸八丁目"",""name:ja-Hira"":""とくまる8ちょうめ"",""place"":""neighbourhood""}"
2550751565,"牛久保西一丁目","Ushikubo-nishi 1-chome","うしくぼにし1ちょうめ",35.5572547,139.5805719,neighbourhood,"","","{""name"":""牛久保西一丁目"",""name:en"":""Ushikubo-nishi 1-chome"",""name:ja"":""牛久保西一丁目"",""name:ja-Hira"":""うしくぼにし1ちょうめ"",""place"":""neighbourhood"",""wikidata"":""Q93715993"",""wikipedia"":""ja:牛久保西""}"
2550751566,"牛久保西二丁目","Ushikubo-nishi 2-chome","うしくぼにし2ちょうめ",35.5588275,139.5745834,neighbourhood,"","","{""name"":""牛久保西二丁目"",""name:en"":""Ushikubo-nishi 2-chome"",""name:ja"":""牛久保西二丁目"",""name:ja-Hira"":""うしくぼにし2ちょうめ"",""place"":""neighbourhood"",""wikidata"":""Q93715993"",""wikipedia"":""ja:牛久保西""}"
2550751568,"牛久保西三丁目","Ushikubo-nishi 3-chome","うしくぼにし3ちょうめ",35.5607562,139.5763093,neighbourhood,"","","{""name"":""牛久保西三丁目"",""name:en"":""Ushikubo-nishi 3-chome"",""name:ja"":""牛久保西三丁目"",""name:ja-Hira"":""うしくぼにし3ちょうめ"",""place"":""neighbourhood"",""wikidata"":""Q93715993"",""wikipedia"":""ja:牛久保西""}"
2550751569,"牛久保西四丁目","Ushikubo-nishi 4-chome","うしくぼにし4ちょうめ",35.5635335,139.5722873,neighbourhood,"","","{""name"":""牛久保西四丁目"",""name:en"":""Ushikubo-nishi 4-chome"",""name:ja"":""牛久保西四丁目"",""name:ja-Hira"":""うしくぼにし4ちょうめ"",""place"":""neighbourhood"",""wikidata"":""Q93715993"",""wikipedia"":""ja:牛久保西""}"
2550751570,"中川中央二丁目","Nakagawa-chuo 2-chome","なかがわちゅうおう2ちょうめ",35.5494104,139.5765448,neighbourhood,"","","{""name"":""中川中央二丁目"",""name:en"":""Nakagawa-chuo 2-chome"",""name:es"":""Nakagawa-chuo 2"",""name:ja"":""中川中央二丁目"",""name:ja-Hira"":""なかがわちゅうおう2ちょうめ"",""place"":""neighbourhood""}"
2550751572,"中川中央一丁目","Nakagawa-chuo 1-chome","なかがわちゅうおう1ちょうめ",35.5532544,139.5786318,neighbourhood,"","","{""name"":""中川中央一丁目"",""name:en"":""Nakagawa-chuo 1-chome"",""name:ja"":""中川中央一丁目"",""name:ja-Hira"":""なかがわちゅうおう1ちょうめ"",""place"":""neighbourhood""}"
2550751574,"牛久保町","Ushikubocho","うしくぼちょう",35.5676608,139.5696329,neighbourhood,"","","{""name"":""牛久保町"",""name:en"":""Ushikubocho"",""name:ja"":""牛久保町"",""name:ja-Hira"":""うしくぼちょう"",""place"":""neighbourhood"",""wikidata"":""Q97188893"",""wikipedia"":""ja:牛久保町 (横浜市)""}"
2550751575,"あゆみが丘","Ayumigaoka","あゆみがおか",35.5686799,139.5666168,neighbourhood,"","","{""name"":""あゆみが丘"",""name:en"":""Ayumigaoka"",""name:ja"":""あゆみが丘"",""name:ja-Hira"":""あゆみがおか"",""place"":""neighbourhood"",""wikidata"":""Q48763561"",""wikipedia"":""ja:あゆみが丘""}"
2550751576,"すみれが丘","Sumiregaoka","すみれがおか",35.566691,139.580659,neighbourhood,"","","{""name"":""すみれが丘"",""name:en"":""Sumiregaoka"",""name:ja"":""すみれが丘"",""name:ja-Hira"":""すみれがおか"",""place"":""neighbourhood"",""wikidata"":""Q86743479"",""wikipedia"":""ja:すみれが丘""}"
2550751578,"茅ケ崎中央","Chigasaki-chuo","ちがさきちゅうおう",35.5469221,139.5730833,neighbourhood,"","","{""name"":""茅ケ崎中央"",""name:en"":""Chigasaki-chuo"",""name:ja"":""茅ケ崎中央"",""name:ja-Hira"":""ちがさきちゅうおう"",""place"":""neighbourhood"",""wikidata"":""Q11617146"",""wikipedia"":""ja:茅ケ崎 (横浜市)""}"
2550751579,"茅ケ崎町","Chigasakicho","ちがさきちょう",35.5479787,139.5820526,neighbourhood,"","","{""name"":""茅ケ崎町"",""name:en"":""Chigasakicho"",""name:ja"":""茅ケ崎町"",""name:ja-Hira"":""ちがさきちょう"",""place"":""neighbourhood""}"
2550751580,"大棚西","Odananishi","おおだなにし",35.5508819,139.5804053,neighbourhood,"","","{""name"":""大棚西"",""name:en"":""Odananishi"",""name:ja"":""大棚西"",""name:ja-Hira"":""おおだなにし"",""place"":""neighbourhood""}"
2550751582,"中川一丁目","Nakagawa 1-chome","なかがわ1ちょうめ",35.5636081,139.5699475,neighbourhood,"","","{""name"":""中川一丁目"",""name:en"":""Nakagawa 1-chome"",""name:ja"":""中川一丁目"",""name:ja-Hira"":""なかがわ1ちょうめ"",""place"":""neighbourhood""}"
2550751583,"中川二丁目","Nakagawa 2-chome","なかがわ2ちょうめ",35.5639236,139.5678547,neighbourhood,"","","{""name"":""中川二丁目"",""name:en"":""Nakagawa 2-chome"",""name:ja"":""中川二丁目"",""name:ja-Hira"":""なかがわ2ちょうめ"",""place"":""neighbourhood""}"
2552572565,"大門","Daimon","だいもん",35.7836937,139.6481588,neighbourhood,"","","{""name"":""大門"",""name:en"":""Daimon"",""name:ja"":""大門"",""name:ja-Hira"":""だいもん"",""place"":""neighbourhood"",""wikidata"":""Q11439821""}"
2552572569,"四葉一丁目","Yotsuba 1-chome","よつば1ちょうめ",35.7776089,139.6519844,neighbourhood,"","","{""name"":""四葉一丁目"",""name:en"":""Yotsuba 1-chome"",""name:ja"":""四葉一丁目"",""name:ja-Hira"":""よつば1ちょうめ"",""place"":""neighbourhood""}"
2552572573,"四葉二丁目","Yotsuba 2-chome","よつば2ちょうめ",35.7821877,139.6520758,neighbourhood,"","","{""name"":""四葉二丁目"",""name:en"":""Yotsuba 2-chome"",""name:ja"":""四葉二丁目"",""name:ja-Hira"":""よつば2ちょうめ"",""place"":""neighbourhood""}"
2552572576,"三園一丁目","Misono 1-chome","みその1ちょうめ",35.7891517,139.6407677,neighbourhood,"","","{""name"":""三園一丁目"",""name:en"":""Misono 1-chome"",""name:ja"":""三園一丁目"",""name:ja-Hira"":""みその1ちょうめ"",""place"":""neighbourhood""}"
2552572580,"三園二丁目","Misono 2-chome","みその2ちょうめ",35.7950497,139.6423465,neighbourhood,"","","{""name"":""三園二丁目"",""name:en"":""Misono 2-chome"",""name:ja"":""三園二丁目"",""name:ja-Hira"":""みその2ちょうめ"",""place"":""neighbourhood""}"
2552593215,"桐ケ丘一丁目","Kirigaoka 1-chome","きりがおか1ちょうめ",35.7772158,139.7075109,neighbourhood,"","","{""name"":""桐ケ丘一丁目"",""name:en"":""Kirigaoka 1-chome"",""name:ja"":""桐ケ丘一丁目"",""name:ja-Hira"":""きりがおか1ちょうめ"",""place"":""neighbourhood""}"
2552593220,"桐ケ丘二丁目","Kirigaoka 2-chome","きりがおか2ちょうめ",35.7812516,139.7102302,neighbourhood,"","","{""name"":""桐ケ丘二丁目"",""name:en"":""Kirigaoka 2-chome"",""name:ja"":""桐ケ丘二丁目"",""name:ja-Hira"":""きりがおか2ちょうめ"",""place"":""neighbourhood""}"
2554229919,"新河岸一丁目","Shingashi 1-chome","しんがし1ちょうめ",35.7960717,139.6677515,neighbourhood,"","","{""name"":""新河岸一丁目"",""name:en"":""Shingashi 1-chome"",""name:ja"":""新河岸一丁目"",""name:ja-Hira"":""しんがし1ちょうめ"",""place"":""neighbourhood""}"
2554229920,"新河岸二丁目","Shingashi 2-chome","しんがし2ちょうめ",35.7966829,139.6621196,neighbourhood,"","","{""name"":""新河岸二丁目"",""name:en"":""Shingashi 2-chome"",""name:ja"":""新河岸二丁目"",""name:ja-Hira"":""しんがし2ちょうめ"",""place"":""neighbourhood""}"
2554229921,"新河岸三丁目","Shingashi 3-chome","しんがし3ちょうめ",35.7967421,139.6523955,neighbourhood,"","","{""name"":""新河岸三丁目"",""name:en"":""Shingashi 3-chome"",""name:ja"":""新河岸三丁目"",""name:ja-Hira"":""しんがし3ちょうめ"",""place"":""neighbourhood""}"
2554374566,"赤塚六丁目","Akatsuka 6-chome","あかつか6ちょうめ",35.776537,139.644328,neighbourhood,"","","{""name"":""赤塚六丁目"",""name:en"":""Akatsuka 6-chome"",""name:ja"":""赤塚六丁目"",""name:ja-Hira"":""あかつか6ちょうめ"",""place"":""neighbourhood""}"
2554374567,"赤塚七丁目","Akatsuka 7-chome","あかつか7ちょうめ",35.7767264,139.6486182,neighbourhood,"","","{""name"":""赤塚七丁目"",""name:en"":""Akatsuka 7-chome"",""name:ja"":""赤塚七丁目"",""name:ja-Hira"":""あかつか7ちょうめ"",""place"":""neighbourhood""}"
2554374569,"蓮根三丁目","Hasune 3-chome","はすね3ちょうめ",35.7885949,139.676396,neighbourhood,"","","{""name"":""蓮根三丁目"",""name:en"":""Hasune 3-chome"",""name:ja"":""蓮根三丁目"",""name:ja-Hira"":""はすね3ちょうめ"",""place"":""neighbourhood""}"
2554374570,"相生町","Aioicho","あいおいちょう",35.7771571,139.6797394,neighbourhood,"","","{""name"":""相生町"",""name:en"":""Aioicho"",""name:ja"":""相生町"",""name:ja-Hira"":""あいおいちょう"",""place"":""neighbourhood""}"
2554374571,"成増二丁目","Narimasu 2-chome","なります2ちょうめ",35.7779895,139.6307728,neighbourhood,"","","{""name"":""成増二丁目"",""name:en"":""Narimasu 2-chome"",""name:ja"":""成増二丁目"",""name:ja-Hira"":""なります2ちょうめ"",""place"":""neighbourhood""}"
2554374574,"赤塚二丁目","Akatsuka 2-chome","あかつか2ちょうめ",35.7738897,139.6408934,neighbourhood,"","","{""name"":""赤塚二丁目"",""name:en"":""Akatsuka 2-chome"",""name:ja"":""赤塚二丁目"",""name:ja-Hira"":""あかつか2ちょうめ"",""place"":""neighbourhood""}"
2554374575,"赤塚四丁目","Akatsuka 4","あかつか4ちょうめ",35.7844499,139.6407218,neighbourhood,"","","{""name"":""赤塚四丁目"",""name:en"":""Akatsuka 4"",""name:fr"":""Akatsuka 4"",""name:ja"":""赤塚四丁目"",""name:ja-Hira"":""あかつか4ちょうめ"",""name:ja-Latn"":""Akatsuka yon-chōme"",""place"":""neighbourhood""}"
2554374576,"成増三丁目","Narimasu 3-chome","なります3ちょうめ",35.7800089,139.6320449,neighbourhood,"","","{""name"":""成増三丁目"",""name:en"":""Narimasu 3-chome"",""name:ja"":""成増三丁目"",""name:ja-Hira"":""なります3ちょうめ"",""place"":""neighbourhood""}"
2554374578,"西台二丁目","Nishidai 2-chome","にしだい2ちょうめ",35.7787642,139.6692417,neighbourhood,"","","{""name"":""西台二丁目"",""name:en"":""Nishidai 2-chome"",""name:ja"":""西台二丁目"",""name:ja-Hira"":""にしだい2ちょうめ"",""place"":""neighbourhood""}"
2554374579,"赤塚三丁目","Akatsuka 3-chome","あかつか3ちょうめ",35.7786359,139.6383346,neighbourhood,"","","{""name"":""赤塚三丁目"",""name:en"":""Akatsuka 3-chome"",""name:ja"":""赤塚三丁目"",""name:ja-Hira"":""あかつか3ちょうめ"",""place"":""neighbourhood""}"
2554374580,"蓮根一丁目","Hasune 1-chome","はすね1ちょうめ",35.778812,139.6770062,neighbourhood,"","","{""name"":""蓮根一丁目"",""name:en"":""Hasune 1-chome"",""name:ja"":""蓮根一丁目"",""name:ja-Hira"":""はすね1ちょうめ"",""place"":""neighbourhood""}"
2554374581,"成増五丁目","Narimasu 5-chome","なります5ちょうめ",35.7865442,139.6332572,neighbourhood,"","","{""name"":""成増五丁目"",""name:en"":""Narimasu 5-chome"",""name:ja"":""成増五丁目"",""name:ja-Hira"":""なります5ちょうめ"",""place"":""neighbourhood""}"
2554374583,"赤塚新町二丁目","Akatsuka-shinmachi 2-chome","あかつかしんまち2ちょうめ",35.7727614,139.6387142,neighbourhood,"","","{""name"":""赤塚新町二丁目"",""name:en"":""Akatsuka-shinmachi 2-chome"",""name:ja"":""赤塚新町二丁目"",""name:ja-Hira"":""あかつかしんまち2ちょうめ"",""place"":""neighbourhood""}"
2554374586,"成増一丁目","Narimasu 1-chome","なります1ちょうめ",35.7741988,139.631204,neighbourhood,"","","{""name"":""成増一丁目"",""name:en"":""Narimasu 1-chome"",""name:ja"":""成増一丁目"",""name:ja-Hira"":""なります1ちょうめ"",""place"":""neighbourhood""}"
2554374590,"西台三丁目","Nishidai 3-chome","にしだい3ちょうめ",35.7754881,139.6675332,neighbourhood,"","","{""name"":""西台三丁目"",""name:en"":""Nishidai 3-chome"",""name:ja"":""西台三丁目"",""name:ja-Hira"":""にしだい3ちょうめ"",""place"":""neighbourhood""}"
2554374593,"赤塚新町一丁目","Akatsuka-shinmachi 1-chome","あかつかしんまち1ちょうめ",35.7695476,139.6466737,neighbourhood,"","","{""name"":""赤塚新町一丁目"",""name:en"":""Akatsuka-shinmachi 1-chome"",""name:ja"":""赤塚新町一丁目"",""name:ja-Hira"":""あかつかしんまち1ちょうめ"",""place"":""neighbourhood""}"
2554374599,"赤塚八丁目","Akatsuka 8","あかつか はち ちょうめ",35.7830236,139.6470424,neighbourhood,"","","{""name"":""赤塚八丁目"",""name:en"":""Akatsuka 8"",""name:fr"":""Akatsuka 8"",""name:ja"":""赤塚八丁目"",""name:ja-Hira"":""あかつか はち ちょうめ"",""name:ja-Latn"":""Akatsuka hachi-chōme"",""place"":""neighbourhood""}"
2554374605,"赤塚一丁目","Akatsuka 1-chome","あかつか1ちょうめ",35.7715742,139.6487892,neighbourhood,"","","{""name"":""赤塚一丁目"",""name:en"":""Akatsuka 1-chome"",""name:ja"":""赤塚一丁目"",""name:ja-Hira"":""あかつか1ちょうめ"",""place"":""neighbourhood""}"
2554374609,"赤塚新町三丁目","Akatsuka-shinmachi 3-chome","あかつかしんまち3ちょうめ",35.7709715,139.6371411,neighbourhood,"","","{""name"":""赤塚新町三丁目"",""name:en"":""Akatsuka-shinmachi 3-chome"",""name:ja"":""赤塚新町三丁目"",""name:ja-Hira"":""あかつかしんまち3ちょうめ"",""place"":""neighbourhood""}"
2554374613,"西台一丁目","Nishidai 1-chome","にしだい1ちょうめ",35.7750136,139.6732028,neighbourhood,"","","{""name"":""西台一丁目"",""name:en"":""Nishidai 1-chome"",""name:ja"":""西台一丁目"",""name:ja-Hira"":""にしだい1ちょうめ"",""place"":""neighbourhood""}"
2554374617,"成増四丁目","Narimasu 4-chome","なります4ちょうめ",35.7843205,139.6345018,neighbourhood,"","","{""name"":""成増四丁目"",""name:en"":""Narimasu 4-chome"",""name:ja"":""成増四丁目"",""name:ja-Hira"":""なります4ちょうめ"",""place"":""neighbourhood""}"
2554374619,"赤塚五丁目","Akatsuka 5","あかつか5ちょうめ",35.7818427,139.6429648,neighbourhood,"","","{""name"":""赤塚五丁目"",""name:en"":""Akatsuka 5"",""name:fr"":""Akatsuka 5"",""name:ja"":""赤塚五丁目"",""name:ja-Hira"":""あかつか5ちょうめ"",""name:ja-Latn"":""Akatsuka go-chōme"",""place"":""neighbourhood""}"
2554374620,"蓮根二丁目","Hasune 2-chome","はすね2ちょうめ",35.7830508,139.6766588,neighbourhood,"","","{""name"":""蓮根二丁目"",""name:en"":""Hasune 2-chome"",""name:ja"":""蓮根二丁目"",""name:ja-Hira"":""はすね2ちょうめ"",""place"":""neighbourhood""}"
2554374621,"西台四丁目","Nishidai 4-chome","にしだい4ちょうめ",35.7699551,139.6679871,neighbourhood,"","","{""name"":""西台四丁目"",""name:en"":""Nishidai 4-chome"",""name:ja"":""西台四丁目"",""name:ja-Hira"":""にしだい4ちょうめ"",""place"":""neighbourhood""}"
2557058804,"蓮沼町","Hasunumacho","はすぬまちょう",35.7706619,139.7032367,neighbourhood,"","","{""name"":""蓮沼町"",""name:en"":""Hasunumacho"",""name:ja"":""蓮沼町"",""name:ja-Hira"":""はすぬまちょう"",""name:ja_kana"":""はすぬまちょう"",""place"":""neighbourhood""}"
2557058809,"泉町","Izumicho","いずみちょう",35.7669048,139.7007048,neighbourhood,"","","{""name"":""泉町"",""name:en"":""Izumicho"",""name:ja"":""泉町"",""name:ja-Hira"":""いずみちょう"",""name:ja_kana"":""いずみちょう"",""place"":""neighbourhood""}"
2557058815,"大原町","Oharacho","おおはらちょう",35.7689399,139.6983449,neighbourhood,"","","{""name"":""大原町"",""name:en"":""Oharacho"",""name:ja"":""大原町"",""name:ja-Hira"":""おおはらちょう"",""name:ja_kana"":""おおはらちょう"",""place"":""neighbourhood""}"
2575957808,"中川三丁目","Nakagawa 3-chome","なかがわ3ちょうめ",35.5621521,139.5632049,neighbourhood,"","","{""name"":""中川三丁目"",""name:en"":""Nakagawa 3-chome"",""name:ja"":""中川三丁目"",""name:ja-Hira"":""なかがわ3ちょうめ"",""place"":""neighbourhood""}"
2575957809,"中川四丁目","Nakagawa 4-chome","なかがわ4ちょうめ",35.5594247,139.5672253,neighbourhood,"","","{""name"":""中川四丁目"",""name:en"":""Nakagawa 4-chome"",""name:ja"":""中川四丁目"",""name:ja-Hira"":""なかがわ4ちょうめ"",""place"":""neighbourhood""}"
2575957810,"中川五丁目","Nakagawa 5-chome","なかがわ5ちょうめ",35.5558945,139.5706635,neighbourhood,"","","{""name"":""中川五丁目"",""name:en"":""Nakagawa 5-chome"",""name:ja"":""中川五丁目"",""name:ja-Hira"":""なかがわ5ちょうめ"",""place"":""neighbourhood""}"
2575957811,"中川六丁目","Nakagawa 6-chome","なかがわ6ちょうめ",35.5559323,139.5758581,neighbourhood,"","","{""name"":""中川六丁目"",""name:en"":""Nakagawa 6-chome"",""name:ja"":""中川六丁目"",""name:ja-Hira"":""なかがわ6ちょうめ"",""place"":""neighbourhood""}"
2575957812,"中川七丁目","Nakagawa 7-chome","なかがわ7ちょうめ",35.5535284,139.5728096,neighbourhood,"","","{""name"":""中川七丁目"",""name:en"":""Nakagawa 7-chome"",""name:ja"":""中川七丁目"",""name:ja-Hira"":""なかがわ7ちょうめ"",""place"":""neighbourhood""}"
2575957813,"中川八丁目","Nakagawa 8-chome","なかがわ8ちょうめ",35.5515007,139.5738784,neighbourhood,"","","{""name"":""中川八丁目"",""name:en"":""Nakagawa 8-chome"",""name:ja"":""中川八丁目"",""name:ja-Hira"":""なかがわ8ちょうめ"",""place"":""neighbourhood""}"
2575957814,"牛久保一丁目","Ushikubo 1-chome","うしくぼ1ちょうめ",35.5612291,139.5814792,neighbourhood,"","","{""name"":""牛久保一丁目"",""name:en"":""Ushikubo 1-chome"",""name:ja"":""牛久保一丁目"",""name:ja-Hira"":""うしくぼ1ちょうめ"",""place"":""neighbourhood"",""wikidata"":""Q93715595"",""wikipedia"":""ja:牛久保 (横浜市)""}"
2575957815,"牛久保二丁目","Ushikubo 2-chome","うしくぼ2ちょうめ",35.5634407,139.5770665,neighbourhood,"","","{""name"":""牛久保二丁目"",""name:en"":""Ushikubo 2-chome"",""name:ja"":""牛久保二丁目"",""name:ja-Hira"":""うしくぼ2ちょうめ"",""place"":""neighbourhood"",""wikidata"":""Q93715595"",""wikipedia"":""ja:牛久保 (横浜市)""}"
2575957816,"牛久保三丁目","Ushikubo 3-chome","うしくぼ3ちょうめ",35.5680766,139.5740314,neighbourhood,"","","{""name"":""牛久保三丁目"",""name:en"":""Ushikubo 3-chome"",""name:ja"":""牛久保三丁目"",""name:ja-Hira"":""うしくぼ3ちょうめ"",""place"":""neighbourhood"",""wikidata"":""Q93715595"",""wikipedia"":""ja:牛久保 (横浜市)""}"
2577040125,"荏田東町","Edahigashicho","えだひがしちょう",35.5542997,139.567232,neighbourhood,"","","{""name"":""荏田東町"",""name:en"":""Edahigashicho"",""name:ja"":""荏田東町"",""name:ja-Hira"":""えだひがしちょう"",""place"":""neighbourhood"",""population"":""189"",""source:population"":""Census 2020"",""wikidata"":""Q48763623"",""wikipedia"":""ja:荏田東町""}"
2577040126,"荏田南町","Edaminamicho","えだみなみちょう",35.5546217,139.5643184,neighbourhood,"","","{""name"":""荏田南町"",""name:en"":""Edaminamicho"",""name:ja"":""荏田南町"",""name:ja-Hira"":""えだみなみちょう"",""place"":""neighbourhood"",""population"":""272"",""source:population"":""Census 2020"",""wikidata"":""Q48763620"",""wikipedia"":""ja:荏田南町""}"
2600954689,"浮間一丁目","Ukima 1-chome","うきま1ちょうめ",35.7910055,139.7061186,neighbourhood,"","","{""name"":""浮間一丁目"",""name:en"":""Ukima 1-chome"",""name:ja"":""浮間一丁目"",""name:ja-Hira"":""うきま1ちょうめ"",""name:ja_kana"":""うきまいっちょうめ"",""place"":""neighbourhood""}"
2600954690,"浮間三丁目","Ukima 3-chome","うきま3ちょうめ",35.7862749,139.7020311,neighbourhood,"","","{""name"":""浮間三丁目"",""name:en"":""Ukima 3-chome"",""name:ja"":""浮間三丁目"",""name:ja-Hira"":""うきま3ちょうめ"",""name:ja_kana"":""うきまさんちょうめ"",""place"":""neighbourhood""}"
2600954691,"浮間二丁目","Ukima 2-chome","うきま2ちょうめ",35.7946482,139.6974139,neighbourhood,"","","{""name"":""浮間二丁目"",""name:en"":""Ukima 2-chome"",""name:ja"":""浮間二丁目"",""name:ja-Hira"":""うきま2ちょうめ"",""name:ja_kana"":""うきまにちょうめ"",""place"":""neighbourhood""}"
2600954692,"浮間五丁目","Ukima 5-chome","うきま5ちょうめ",35.7847188,139.6942546,neighbourhood,"","","{""name"":""浮間五丁目"",""name:en"":""Ukima 5-chome"",""name:ja"":""浮間五丁目"",""name:ja-Hira"":""うきま5ちょうめ"",""name:ja_kana"":""うきまごちょうめ"",""place"":""neighbourhood""}"
2600954693,"浮間四丁目","Ukima 4-chome","うきま4ちょうめ",35.7889174,139.6939232,neighbourhood,"","","{""name"":""浮間四丁目"",""name:en"":""Ukima 4-chome"",""name:ja"":""浮間四丁目"",""name:ja-Hira"":""うきま4ちょうめ"",""name:ja_kana"":""うきまよんちょうめ"",""place"":""neighbourhood""}"
2600954694,"舟渡一丁目","Funado 1-chome","ふなど1ちょうめ",35.7904317,139.6886709,neighbourhood,"","","{""name"":""舟渡一丁目"",""name:en"":""Funado 1-chome"",""name:ja"":""舟渡一丁目"",""name:ja-Hira"":""ふなど1ちょうめ"",""name:ja_kana"":""ふなどいっちょうめ"",""place"":""neighbourhood""}"
2600954695,"舟渡三丁目","Funado 3-chome","ふなど3ちょうめ",35.7957332,139.6827958,neighbourhood,"","","{""name"":""舟渡三丁目"",""name:en"":""Funado 3-chome"",""name:ja"":""舟渡三丁目"",""name:ja-Hira"":""ふなど3ちょうめ"",""name:ja_kana"":""ふなどさんちょうめ"",""place"":""neighbourhood""}"
2600954696,"舟渡二丁目","Funado 2-chome","ふなど2ちょうめ",35.7965056,139.6907318,neighbourhood,"","","{""name"":""舟渡二丁目"",""name:en"":""Funado 2-chome"",""name:ja"":""舟渡二丁目"",""name:ja-Hira"":""ふなど2ちょうめ"",""name:ja_kana"":""ふなどにちょうめ"",""place"":""neighbourhood""}"
2600954697,"舟渡四丁目","Funado 4-chome","ふなど4ちょうめ",35.7956616,139.675755,neighbourhood,"","","{""name"":""舟渡四丁目"",""name:en"":""Funado 4-chome"",""name:ja"":""舟渡四丁目"",""name:ja-Hira"":""ふなど4ちょうめ"",""name:ja_kana"":""ふなどよんちょうめ"",""place"":""neighbourhood""}"
2674819496,"つきみ野一丁目","Tsukimino 1-chome","つきみの1ちょうめ",35.5040819,139.4577326,neighbourhood,"","","{""name"":""つきみ野一丁目"",""name:en"":""Tsukimino 1-chome"",""name:ja"":""つきみ野一丁目"",""name:ja-Hira"":""つきみの1ちょうめ"",""place"":""neighbourhood"",""source"":""GSI/KIBAN Block http://wiki.osm.org/wiki/GSI_KIBAN""}"
2674819497,"つきみ野七丁目","Tsukimino 7-chome","つきみの7ちょうめ",35.5141369,139.4557042,neighbourhood,"","","{""name"":""つきみ野七丁目"",""name:en"":""Tsukimino 7-chome"",""name:ja"":""つきみ野七丁目"",""name:ja-Hira"":""つきみの7ちょうめ"",""place"":""neighbourhood"",""source"":""GSI/KIBAN Block http://wiki.osm.org/wiki/GSI_KIBAN""}"
