{
  "fetchedAt": "2025-12-24T05:54:44.049Z",
  "prefecture_id": "jp_hyogo",
  "prefecture_name": "兵庫県",
  "stats": {
    "station": 356,
    "airport": 3,
    "ferry_terminal": 17,
    "bus_terminal": 22,
    "total": 398
  },
  "data": [
    {
      "id": "jp_hyogo_station_265895565",
      "osm_id": 265895565,
      "osm_type": "node",
      "prefecture_id": "jp_hyogo",
      "type": "station",
      "subtype": "private",
      "name": "姫路",
      "name_kana": "",
      "name_translations": {
        "en": "Himeji"
      },
      "operator": null,
      "network": null,
      "ref": null,
      "latitude": 34.8264048,
      "longitude": 134.6907972
    },
    {
      "id": "jp_hyogo_station_265910727",
      "osm_id": 265910727,
      "osm_type": "node",
      "prefecture_id": "jp_hyogo",
      "type": "station",
      "subtype": "private",
      "name": "西明石",
      "name_kana": "",
      "name_translations": {
        "en": "Nishi-Akashi"
      },
      "operator": null,
      "network": null,
      "ref": "JR-A74",
      "latitude": 34.6658868,
      "longitude": 134.9602417
    },
    {
      "id": "jp_hyogo_station_265910879",
      "osm_id": 265910879,
      "osm_type": "node",
      "prefecture_id": "jp_hyogo",
      "type": "station",
      "subtype": "jr",
      "name": "明石",
      "name_kana": "",
      "name_translations": {
        "en": "Akashi"
      },
      "operator": "西日本旅客鉄道",
      "network": null,
      "ref": "JR-A73",
      "latitude": 34.6491038,
      "longitude": 134.9927483
    },
    {
      "id": "jp_hyogo_station_265960658",
      "osm_id": 265960658,
      "osm_type": "node",
      "prefecture_id": "jp_hyogo",
      "type": "station",
      "subtype": "private",
      "name": "香住",
      "name_kana": "",
      "name_translations": {
        "en": "Kasumi"
      },
      "operator": null,
      "network": null,
      "ref": null,
      "latitude": 35.6354933,
      "longitude": 134.6231388
    },
    {
      "id": "jp_hyogo_station_265960661",
      "osm_id": 265960661,
      "osm_type": "node",
      "prefecture_id": "jp_hyogo",
      "type": "station",
      "subtype": "private",
      "name": "江原",
      "name_kana": "",
      "name_translations": {
        "en": "Ebara"
      },
      "operator": null,
      "network": null,
      "ref": null,
      "latitude": 35.4695106,
      "longitude": 134.7758144
    },
    {
      "id": "jp_hyogo_station_265960886",
      "osm_id": 265960886,
      "osm_type": "node",
      "prefecture_id": "jp_hyogo",
      "type": "station",
      "subtype": "private",
      "name": "養父",
      "name_kana": "",
      "name_translations": {
        "en": "Yabu"
      },
      "operator": null,
      "network": null,
      "ref": null,
      "latitude": 35.3710145,
      "longitude": 134.8117204
    },
    {
      "id": "jp_hyogo_station_265960889",
      "osm_id": 265960889,
      "osm_type": "node",
      "prefecture_id": "jp_hyogo",
      "type": "station",
      "subtype": "private",
      "name": "国府",
      "name_kana": "",
      "name_translations": {
        "en": "Kokufu"
      },
      "operator": null,
      "network": null,
      "ref": null,
      "latitude": 35.4963023,
      "longitude": 134.8000012
    },
    {
      "id": "jp_hyogo_station_265961024",
      "osm_id": 265961024,
      "osm_type": "node",
      "prefecture_id": "jp_hyogo",
      "type": "station",
      "subtype": "private",
      "name": "玄武洞",
      "name_kana": "",
      "name_translations": {
        "en": "Genbudo"
      },
      "operator": null,
      "network": null,
      "ref": null,
      "latitude": 35.58863,
      "longitude": 134.7992171
    },
    {
      "id": "jp_hyogo_station_265961246",
      "osm_id": 265961246,
      "osm_type": "node",
      "prefecture_id": "jp_hyogo",
      "type": "station",
      "subtype": "private",
      "name": "梁瀬",
      "name_kana": "",
      "name_translations": {
        "en": "Yanase"
      },
      "operator": null,
      "network": null,
      "ref": null,
      "latitude": 35.3222852,
      "longitude": 134.8810215
    },
    {
      "id": "jp_hyogo_station_265961255",
      "osm_id": 265961255,
      "osm_type": "node",
      "prefecture_id": "jp_hyogo",
      "type": "station",
      "subtype": "private",
      "name": "佐津",
      "name_kana": "",
      "name_translations": {
        "en": "Satsu"
      },
      "operator": null,
      "network": null,
      "ref": null,
      "latitude": 35.6531158,
      "longitude": 134.6856879
    },
    {
      "id": "jp_hyogo_station_265963234",
      "osm_id": 265963234,
      "osm_type": "node",
      "prefecture_id": "jp_hyogo",
      "type": "station",
      "subtype": "private",
      "name": "柴山",
      "name_kana": "",
      "name_translations": {
        "en": "Shibayama"
      },
      "operator": null,
      "network": null,
      "ref": null,
      "latitude": 35.6464791,
      "longitude": 134.6637555
    },
    {
      "id": "jp_hyogo_station_265963441",
      "osm_id": 265963441,
      "osm_type": "node",
      "prefecture_id": "jp_hyogo",
      "type": "station",
      "subtype": "private",
      "name": "竹野",
      "name_kana": "",
      "name_translations": {
        "en": "Takeno"
      },
      "operator": null,
      "network": null,
      "ref": null,
      "latitude": 35.6499609,
      "longitude": 134.7563763
    },
    {
      "id": "jp_hyogo_station_265966891",
      "osm_id": 265966891,
      "osm_type": "node",
      "prefecture_id": "jp_hyogo",
      "type": "station",
      "subtype": "private",
      "name": "鎧",
      "name_kana": "",
      "name_translations": {
        "en": "Yoroi"
      },
      "operator": null,
      "network": null,
      "ref": null,
      "latitude": 35.6516349,
      "longitude": 134.5754602
    },
    {
      "id": "jp_hyogo_station_265967312",
      "osm_id": 265967312,
      "osm_type": "node",
      "prefecture_id": "jp_hyogo",
      "type": "station",
      "subtype": "private",
      "name": "餘部",
      "name_kana": "",
      "name_translations": {
        "en": "Amarube"
      },
      "operator": null,
      "network": null,
      "ref": null,
      "latitude": 35.6487624,
      "longitude": 134.5570701
    },
    {
      "id": "jp_hyogo_station_265967803",
      "osm_id": 265967803,
      "osm_type": "node",
      "prefecture_id": "jp_hyogo",
      "type": "station",
      "subtype": "private",
      "name": "諸寄",
      "name_kana": "",
      "name_translations": {
        "en": "Moroyose"
      },
      "operator": null,
      "network": null,
      "ref": null,
      "latitude": 35.6195566,
      "longitude": 134.4343476
    },
    {
      "id": "jp_hyogo_station_265968202",
      "osm_id": 265968202,
      "osm_type": "node",
      "prefecture_id": "jp_hyogo",
      "type": "station",
      "subtype": "private",
      "name": "浜坂",
      "name_kana": "",
      "name_translations": {
        "en": "Hamasaka"
      },
      "operator": null,
      "network": null,
      "ref": null,
      "latitude": 35.6208056,
      "longitude": 134.4523087
    },
    {
      "id": "jp_hyogo_station_265969026",
      "osm_id": 265969026,
      "osm_type": "node",
      "prefecture_id": "jp_hyogo",
      "type": "station",
      "subtype": "private",
      "name": "居組",
      "name_kana": "",
      "name_translations": {
        "en": "Igumi"
      },
      "operator": null,
      "network": null,
      "ref": null,
      "latitude": 35.6068993,
      "longitude": 134.3935415
    },
    {
      "id": "jp_hyogo_station_266921888",
      "osm_id": 266921888,
      "osm_type": "node",
      "prefecture_id": "jp_hyogo",
      "type": "station",
      "subtype": "jr",
      "name": "播磨高岡",
      "name_kana": "",
      "name_translations": {
        "en": "Harima-Takaoka"
      },
      "operator": "西日本旅客鉄道",
      "network": null,
      "ref": null,
      "latitude": 34.8420109,
      "longitude": 134.6587105
    },
    {
      "id": "jp_hyogo_station_266921972",
      "osm_id": 266921972,
      "osm_type": "node",
      "prefecture_id": "jp_hyogo",
      "type": "station",
      "subtype": "jr",
      "name": "太市",
      "name_kana": "",
      "name_translations": {
        "en": "Ōichi"
      },
      "operator": "西日本旅客鉄道",
      "network": null,
      "ref": null,
      "latitude": 34.8640236,
      "longitude": 134.6071434
    },
    {
      "id": "jp_hyogo_station_266922052",
      "osm_id": 266922052,
      "osm_type": "node",
      "prefecture_id": "jp_hyogo",
      "type": "station",
      "subtype": "jr",
      "name": "千本",
      "name_kana": "",
      "name_translations": {
        "en": "Sembon"
      },
      "operator": "西日本旅客鉄道",
      "network": null,
      "ref": null,
      "latitude": 34.9424722,
      "longitude": 134.4943513
    },
    {
      "id": "jp_hyogo_station_266922630",
      "osm_id": 266922630,
      "osm_type": "node",
      "prefecture_id": "jp_hyogo",
      "type": "station",
      "subtype": "private",
      "name": "上月",
      "name_kana": "",
      "name_translations": {
        "en": "Kozuki"
      },
      "operator": null,
      "network": null,
      "ref": null,
      "latitude": 34.9836369,
      "longitude": 134.3226039
    },
    {
      "id": "jp_hyogo_station_266922708",
      "osm_id": 266922708,
      "osm_type": "node",
      "prefecture_id": "jp_hyogo",
      "type": "station",
      "subtype": "private",
      "name": "西栗栖",
      "name_kana": "",
      "name_translations": {
        "en": "Nishi Kurisu"
      },
      "operator": null,
      "network": null,
      "ref": null,
      "latitude": 34.9524131,
      "longitude": 134.4704009
    },
    {
      "id": "jp_hyogo_station_266922713",
      "osm_id": 266922713,
      "osm_type": "node",
      "prefecture_id": "jp_hyogo",
      "type": "station",
      "subtype": "jr",
      "name": "播磨徳久",
      "name_kana": "",
      "name_translations": {
        "en": "Harima-Tokusa"
      },
      "operator": "西日本旅客鉄道",
      "network": null,
      "ref": null,
      "latitude": 34.990524,
      "longitude": 134.3860046
    },
    {
      "id": "jp_hyogo_station_266923818",
      "osm_id": 266923818,
      "osm_type": "node",
      "prefecture_id": "jp_hyogo",
      "type": "station",
      "subtype": "jr",
      "name": "東觜崎",
      "name_kana": "",
      "name_translations": {
        "en": "Higashi-Hashisaki"
      },
      "operator": "西日本旅客鉄道",
      "network": null,
      "ref": null,
      "latitude": 34.8879681,
      "longitude": 134.5578852
    },
    {
      "id": "jp_hyogo_station_266924834",
      "osm_id": 266924834,
      "osm_type": "node",
      "prefecture_id": "jp_hyogo",
      "type": "station",
      "subtype": "private",
      "name": "三日月",
      "name_kana": "",
      "name_translations": {
        "en": "Mikazuki"
      },
      "operator": null,
      "network": null,
      "ref": null,
      "latitude": 34.985006,
      "longitude": 134.4353888
    },
    {
      "id": "jp_hyogo_station_266924921",
      "osm_id": 266924921,
      "osm_type": "node",
      "prefecture_id": "jp_hyogo",
      "type": "station",
      "subtype": "jr",
      "name": "播磨新宮",
      "name_kana": "",
      "name_translations": {
        "en": "Harima-Shingū"
      },
      "operator": "西日本旅客鉄道",
      "network": null,
      "ref": null,
      "latitude": 34.9210847,
      "longitude": 134.5465177
    },
    {
      "id": "jp_hyogo_station_266925698",
      "osm_id": 266925698,
      "osm_type": "node",
      "prefecture_id": "jp_hyogo",
      "type": "station",
      "subtype": "private",
      "name": "本竜野",
      "name_kana": "",
      "name_translations": {
        "en": "Hon-Tatsuno"
      },
      "operator": null,
      "network": null,
      "ref": null,
      "latitude": 34.8619028,
      "longitude": 134.5555323
    },
    {
      "id": "jp_hyogo_station_267062368",
      "osm_id": 267062368,
      "osm_type": "node",
      "prefecture_id": "jp_hyogo",
      "type": "station",
      "subtype": "jr",
      "name": "新井",
      "name_kana": "",
      "name_translations": {
        "en": "Nii"
      },
      "operator": "西日本旅客鉄道",
      "network": null,
      "ref": null,
      "latitude": 35.2370627,
      "longitude": 134.7951345
    },
    {
      "id": "jp_hyogo_station_267062582",
      "osm_id": 267062582,
      "osm_type": "node",
      "prefecture_id": "jp_hyogo",
      "type": "station",
      "subtype": "jr",
      "name": "長谷",
      "name_kana": "はせ",
      "name_translations": {
        "en": "Hase"
      },
      "operator": "西日本旅客鉄道",
      "network": null,
      "ref": null,
      "latitude": 35.1168355,
      "longitude": 134.7480051
    },
    {
      "id": "jp_hyogo_station_267063319",
      "osm_id": 267063319,
      "osm_type": "node",
      "prefecture_id": "jp_hyogo",
      "type": "station",
      "subtype": "jr",
      "name": "青倉",
      "name_kana": "あおくら",
      "name_translations": {
        "en": "Aokura"
      },
      "operator": "西日本旅客鉄道",
      "network": null,
      "ref": null,
      "latitude": 35.2671129,
      "longitude": 134.8114283
    },
    {
      "id": "jp_hyogo_station_267063450",
      "osm_id": 267063450,
      "osm_type": "node",
      "prefecture_id": "jp_hyogo",
      "type": "station",
      "subtype": "private",
      "name": "仁豊野",
      "name_kana": "",
      "name_translations": {
        "en": "Nibuno"
      },
      "operator": null,
      "network": null,
      "ref": null,
      "latitude": 34.8850884,
      "longitude": 134.7282033
    },
    {
      "id": "jp_hyogo_station_267063477",
      "osm_id": 267063477,
      "osm_type": "node",
      "prefecture_id": "jp_hyogo",
      "type": "station",
      "subtype": "private",
      "name": "砥堀",
      "name_kana": "",
      "name_translations": {
        "en": "Tohori"
      },
      "operator": null,
      "network": null,
      "ref": null,
      "latitude": 34.8662556,
      "longitude": 134.7245136
    },
    {
      "id": "jp_hyogo_station_267063488",
      "osm_id": 267063488,
      "osm_type": "node",
      "prefecture_id": "jp_hyogo",
      "type": "station",
      "subtype": "jr",
      "name": "京口",
      "name_kana": "",
      "name_translations": {
        "en": "Kyōguchi"
      },
      "operator": "西日本旅客鉄道",
      "network": null,
      "ref": null,
      "latitude": 34.8340316,
      "longitude": 134.7051426
    },
    {
      "id": "jp_hyogo_station_267064937",
      "osm_id": 267064937,
      "osm_type": "node",
      "prefecture_id": "jp_hyogo",
      "type": "station",
      "subtype": "private",
      "name": "西脇市",
      "name_kana": "",
      "name_translations": {
        "en": "Nishiwakishi"
      },
      "operator": null,
      "network": null,
      "ref": null,
      "latitude": 34.972016,
      "longitude": 134.9691057
    },
    {
      "id": "jp_hyogo_station_267064939",
      "osm_id": 267064939,
      "osm_type": "node",
      "prefecture_id": "jp_hyogo",
      "type": "station",
      "subtype": "private",
      "name": "滝野",
      "name_kana": "",
      "name_translations": {
        "en": "Takino"
      },
      "operator": null,
      "network": null,
      "ref": null,
      "latitude": 34.9412041,
      "longitude": 134.9554044
    },
    {
      "id": "jp_hyogo_station_267064941",
      "osm_id": 267064941,
      "osm_type": "node",
      "prefecture_id": "jp_hyogo",
      "type": "station",
      "subtype": "private",
      "name": "比延",
      "name_kana": "",
      "name_translations": {
        "en": "Hie"
      },
      "operator": null,
      "network": null,
      "ref": null,
      "latitude": 34.9891,
      "longitude": 134.995816
    },
    {
      "id": "jp_hyogo_station_267064988",
      "osm_id": 267064988,
      "osm_type": "node",
      "prefecture_id": "jp_hyogo",
      "type": "station",
      "subtype": "private",
      "name": "新西脇",
      "name_kana": "",
      "name_translations": {
        "en": "Shin-Nishiwaki"
      },
      "operator": null,
      "network": null,
      "ref": null,
      "latitude": 34.978038,
      "longitude": 134.977966
    },
    {
      "id": "jp_hyogo_station_267065019",
      "osm_id": 267065019,
      "osm_type": "node",
      "prefecture_id": "jp_hyogo",
      "type": "station",
      "subtype": "private",
      "name": "黒田庄",
      "name_kana": "",
      "name_translations": {
        "en": "Kurodashō"
      },
      "operator": null,
      "network": null,
      "ref": null,
      "latitude": 35.0225486,
      "longitude": 134.9924538
    },
    {
      "id": "jp_hyogo_station_267065085",
      "osm_id": 267065085,
      "osm_type": "node",
      "prefecture_id": "jp_hyogo",
      "type": "station",
      "subtype": "private",
      "name": "船町口",
      "name_kana": "",
      "name_translations": {
        "en": "Funamachiguchi"
      },
      "operator": null,
      "network": null,
      "ref": null,
      "latitude": 35.063125,
      "longitude": 135.009646
    },
    {
      "id": "jp_hyogo_station_267065222",
      "osm_id": 267065222,
      "osm_type": "node",
      "prefecture_id": "jp_hyogo",
      "type": "station",
      "subtype": "private",
      "name": "日本へそ公園",
      "name_kana": "",
      "name_translations": {
        "en": "Nihonhesokōen"
      },
      "operator": null,
      "network": null,
      "ref": null,
      "latitude": 35.0023377,
      "longitude": 134.9977005
    },
    {
      "id": "jp_hyogo_station_267065337",
      "osm_id": 267065337,
      "osm_type": "node",
      "prefecture_id": "jp_hyogo",
      "type": "station",
      "subtype": "private",
      "name": "本黒田",
      "name_kana": "",
      "name_translations": {
        "en": "Hon-Kuroda"
      },
      "operator": null,
      "network": null,
      "ref": null,
      "latitude": 35.0529112,
      "longitude": 134.9959899
    },
    {
      "id": "jp_hyogo_station_267065496",
      "osm_id": 267065496,
      "osm_type": "node",
      "prefecture_id": "jp_hyogo",
      "type": "station",
      "subtype": "private",
      "name": "滝",
      "name_kana": "",
      "name_translations": {
        "en": "Taki"
      },
      "operator": null,
      "network": null,
      "ref": null,
      "latitude": 34.9487252,
      "longitude": 134.9623912
    },
    {
      "id": "jp_hyogo_station_267071537",
      "osm_id": 267071537,
      "osm_type": "node",
      "prefecture_id": "jp_hyogo",
      "type": "station",
      "subtype": "private",
      "name": "久下村",
      "name_kana": "",
      "name_translations": {
        "en": "Kugemura"
      },
      "operator": null,
      "network": null,
      "ref": null,
      "latitude": 35.0755103,
      "longitude": 135.0303859
    },
    {
      "id": "jp_hyogo_station_267071646",
      "osm_id": 267071646,
      "osm_type": "node",
      "prefecture_id": "jp_hyogo",
      "type": "station",
      "subtype": "private",
      "name": "神野",
      "name_kana": "",
      "name_translations": {
        "en": "Kanno"
      },
      "operator": null,
      "network": null,
      "ref": null,
      "latitude": 34.7910573,
      "longitude": 134.8789714
    },
    {
      "id": "jp_hyogo_station_267071649",
      "osm_id": 267071649,
      "osm_type": "node",
      "prefecture_id": "jp_hyogo",
      "type": "station",
      "subtype": "private",
      "name": "河合西",
      "name_kana": "",
      "name_translations": {
        "en": "Kawainishi"
      },
      "operator": null,
      "network": null,
      "ref": null,
      "latitude": 34.8791376,
      "longitude": 134.91955
    },
    {
      "id": "jp_hyogo_station_267071662",
      "osm_id": 267071662,
      "osm_type": "node",
      "prefecture_id": "jp_hyogo",
      "type": "station",
      "subtype": "private",
      "name": "青野ヶ原",
      "name_kana": "あおのがはら",
      "name_translations": {
        "en": "Aonogahara"
      },
      "operator": null,
      "network": null,
      "ref": null,
      "latitude": 34.8973121,
      "longitude": 134.9280878
    },
    {
      "id": "jp_hyogo_station_267071677",
      "osm_id": 267071677,
      "osm_type": "node",
      "prefecture_id": "jp_hyogo",
      "type": "station",
      "subtype": "private",
      "name": "小野町",
      "name_kana": "",
      "name_translations": {
        "en": "Onomachi"
      },
      "operator": null,
      "network": null,
      "ref": null,
      "latitude": 34.8338489,
      "longitude": 134.9181795
    },
    {
      "id": "jp_hyogo_station_267071737",
      "osm_id": 267071737,
      "osm_type": "node",
      "prefecture_id": "jp_hyogo",
      "type": "station",
      "subtype": "private",
      "name": "厄神",
      "name_kana": "",
      "name_translations": {
        "en": "Yakujin"
      },
      "operator": null,
      "network": null,
      "ref": null,
      "latitude": 34.7945532,
      "longitude": 134.9065433
    },
    {
      "id": "jp_hyogo_station_267071748",
      "osm_id": 267071748,
      "osm_type": "node",
      "prefecture_id": "jp_hyogo",
      "type": "station",
      "subtype": "private",
      "name": "市場",
      "name_kana": "",
      "name_translations": {
        "en": "Ichiba"
      },
      "operator": null,
      "network": null,
      "ref": null,
      "latitude": 34.8192242,
      "longitude": 134.9324618
    },
    {
      "id": "jp_hyogo_station_267460771",
      "osm_id": 267460771,
      "osm_type": "node",
      "prefecture_id": "jp_hyogo",
      "type": "station",
      "subtype": "private",
      "name": "立花",
      "name_kana": "たちばな",
      "name_translations": {
        "en": "Tachibana"
      },
      "operator": null,
      "network": null,
      "ref": null,
      "latitude": 34.7379561,
      "longitude": 135.3990209
    },
    {
      "id": "jp_hyogo_station_346121695",
      "osm_id": 346121695,
      "osm_type": "node",
      "prefecture_id": "jp_hyogo",
      "type": "station",
      "subtype": "private",
      "name": "中山観音",
      "name_kana": "",
      "name_translations": {
        "en": "Nakayama-kannon"
      },
      "operator": null,
      "network": null,
      "ref": null,
      "latitude": 34.8196261,
      "longitude": 135.3692889
    },
    {
      "id": "jp_hyogo_station_346121934",
      "osm_id": 346121934,
      "osm_type": "node",
      "prefecture_id": "jp_hyogo",
      "type": "station",
      "subtype": "private",
      "name": "売布神社",
      "name_kana": "",
      "name_translations": {
        "en": "Mefu-jinja"
      },
      "operator": null,
      "network": null,
      "ref": null,
      "latitude": 34.8157929,
      "longitude": 135.3613299
    },
    {
      "id": "jp_hyogo_station_346121951",
      "osm_id": 346121951,
      "osm_type": "node",
      "prefecture_id": "jp_hyogo",
      "type": "station",
      "subtype": "private",
      "name": "山本",
      "name_kana": "",
      "name_translations": {
        "en": "Yamamoto"
      },
      "operator": null,
      "network": null,
      "ref": null,
      "latitude": 34.8220433,
      "longitude": 135.3886222
    },
    {
      "id": "jp_hyogo_station_346122037",
      "osm_id": 346122037,
      "osm_type": "node",
      "prefecture_id": "jp_hyogo",
      "type": "station",
      "subtype": "private",
      "name": "清荒神",
      "name_kana": "",
      "name_translations": {
        "en": "Kiyoshikōjin"
      },
      "operator": null,
      "network": null,
      "ref": null,
      "latitude": 34.811261,
      "longitude": 135.353308
    },
    {
      "id": "jp_hyogo_station_346122422",
      "osm_id": 346122422,
      "osm_type": "node",
      "prefecture_id": "jp_hyogo",
      "type": "station",
      "subtype": "private",
      "name": "雲雀丘花屋敷",
      "name_kana": "",
      "name_translations": {
        "en": "Hibarigaoka-Hanayashiki"
      },
      "operator": null,
      "network": null,
      "ref": null,
      "latitude": 34.8272086,
      "longitude": 135.4027325
    },
    {
      "id": "jp_hyogo_station_346486696",
      "osm_id": 346486696,
      "osm_type": "node",
      "prefecture_id": "jp_hyogo",
      "type": "station",
      "subtype": "private",
      "name": "武庫之荘",
      "name_kana": "",
      "name_translations": {
        "en": "Mukonoso"
      },
      "operator": "阪急電鉄",
      "network": "阪急電鉄",
      "ref": "HK-07",
      "latitude": 34.7515492,
      "longitude": 135.3933358
    },
    {
      "id": "jp_hyogo_station_346486938",
      "osm_id": 346486938,
      "osm_type": "node",
      "prefecture_id": "jp_hyogo",
      "type": "station",
      "subtype": "private",
      "name": "園田",
      "name_kana": "そのだ",
      "name_translations": {
        "en": "Sonoda"
      },
      "operator": null,
      "network": null,
      "ref": null,
      "latitude": 34.7519904,
      "longitude": 135.4480934
    },
    {
      "id": "jp_hyogo_station_346487068",
      "osm_id": 346487068,
      "osm_type": "node",
      "prefecture_id": "jp_hyogo",
      "type": "station",
      "subtype": "private",
      "name": "塚口",
      "name_kana": "",
      "name_translations": {
        "en": "Tsukaguchi"
      },
      "operator": "阪急電鉄",
      "network": "阪急神戸線;阪急伊丹線",
      "ref": null,
      "latitude": 34.7527774,
      "longitude": 135.4159169
    },
    {
      "id": "jp_hyogo_station_346648359",
      "osm_id": 346648359,
      "osm_type": "node",
      "prefecture_id": "jp_hyogo",
      "type": "station",
      "subtype": "private",
      "name": "門戸厄神",
      "name_kana": "",
      "name_translations": {
        "en": "Mondo-Yakujin"
      },
      "operator": "阪急電鉄",
      "network": "阪急電鉄今津線",
      "ref": null,
      "latitude": 34.7575817,
      "longitude": 135.3582866
    },
    {
      "id": "jp_hyogo_station_346648538",
      "osm_id": 346648538,
      "osm_type": "node",
      "prefecture_id": "jp_hyogo",
      "type": "station",
      "subtype": "private",
      "name": "小林",
      "name_kana": "",
      "name_translations": {
        "en": "Obayashi"
      },
      "operator": "阪急電鉄",
      "network": "阪急電鉄今津線",
      "ref": null,
      "latitude": 34.7891636,
      "longitude": 135.3524275
    },
    {
      "id": "jp_hyogo_station_346648675",
      "osm_id": 346648675,
      "osm_type": "node",
      "prefecture_id": "jp_hyogo",
      "type": "station",
      "subtype": "private",
      "name": "宝塚南口",
      "name_kana": "",
      "name_translations": {
        "en": "Takarazuka-Minamiguchi"
      },
      "operator": null,
      "network": null,
      "ref": null,
      "latitude": 34.8041687,
      "longitude": 135.3458387
    },
    {
      "id": "jp_hyogo_station_346649198",
      "osm_id": 346649198,
      "osm_type": "node",
      "prefecture_id": "jp_hyogo",
      "type": "station",
      "subtype": "private",
      "name": "仁川",
      "name_kana": "",
      "name_translations": {
        "en": "Nigawa"
      },
      "operator": "阪急電鉄",
      "network": "阪急電鉄今津線",
      "ref": null,
      "latitude": 34.7747939,
      "longitude": 135.3569799
    },
    {
      "id": "jp_hyogo_station_355838072",
      "osm_id": 355838072,
      "osm_type": "node",
      "prefecture_id": "jp_hyogo",
      "type": "station",
      "subtype": "private",
      "name": "久崎",
      "name_kana": "",
      "name_translations": {
        "en": "Kuzaki"
      },
      "operator": null,
      "network": null,
      "ref": null,
      "latitude": 34.9609827,
      "longitude": 134.3442701
    },
    {
      "id": "jp_hyogo_station_355838114",
      "osm_id": 355838114,
      "osm_type": "node",
      "prefecture_id": "jp_hyogo",
      "type": "station",
      "subtype": "private",
      "name": "河野原円心",
      "name_kana": "",
      "name_translations": {
        "en": "Kōnohara-Enshin"
      },
      "operator": null,
      "network": null,
      "ref": null,
      "latitude": 34.9188868,
      "longitude": 134.3526652
    },
    {
      "id": "jp_hyogo_station_355838570",
      "osm_id": 355838570,
      "osm_type": "node",
      "prefecture_id": "jp_hyogo",
      "type": "station",
      "subtype": "private",
      "name": "平福",
      "name_kana": "",
      "name_translations": null,
      "operator": null,
      "network": null,
      "ref": null,
      "latitude": 35.0437169,
      "longitude": 134.3718449
    },
    {
      "id": "jp_hyogo_station_359791943",
      "osm_id": 359791943,
      "osm_type": "node",
      "prefecture_id": "jp_hyogo",
      "type": "station",
      "subtype": "private",
      "name": "北条町",
      "name_kana": "",
      "name_translations": {
        "en": "Hōjōmachi"
      },
      "operator": "北条鉄道",
      "network": null,
      "ref": null,
      "latitude": 34.9294625,
      "longitude": 134.8323158
    },
    {
      "id": "jp_hyogo_station_359792136",
      "osm_id": 359792136,
      "osm_type": "node",
      "prefecture_id": "jp_hyogo",
      "type": "station",
      "subtype": "private",
      "name": "法華口",
      "name_kana": "",
      "name_translations": {
        "en": "Hokkeguchi"
      },
      "operator": null,
      "network": null,
      "ref": null,
      "latitude": 34.8755134,
      "longitude": 134.8562206
    },
    {
      "id": "jp_hyogo_station_359792145",
      "osm_id": 359792145,
      "osm_type": "node",
      "prefecture_id": "jp_hyogo",
      "type": "station",
      "subtype": "private",
      "name": "網引",
      "name_kana": "",
      "name_translations": {
        "en": "Abiki"
      },
      "operator": "北条鉄道",
      "network": null,
      "ref": null,
      "latitude": 34.8621055,
      "longitude": 134.8779303
    },
    {
      "id": "jp_hyogo_station_359792261",
      "osm_id": 359792261,
      "osm_type": "node",
      "prefecture_id": "jp_hyogo",
      "type": "station",
      "subtype": "private",
      "name": "播磨下里",
      "name_kana": "",
      "name_translations": {
        "en": "Harima-Shimosato"
      },
      "operator": "北条鉄道",
      "network": null,
      "ref": null,
      "latitude": 34.8864812,
      "longitude": 134.8401474
    },
    {
      "id": "jp_hyogo_station_359792288",
      "osm_id": 359792288,
      "osm_type": "node",
      "prefecture_id": "jp_hyogo",
      "type": "station",
      "subtype": "private",
      "name": "田原",
      "name_kana": "",
      "name_translations": {
        "en": "Tahara"
      },
      "operator": "北条鉄道",
      "network": null,
      "ref": null,
      "latitude": 34.8655875,
      "longitude": 134.8666742
    },
    {
      "id": "jp_hyogo_station_359792515",
      "osm_id": 359792515,
      "osm_type": "node",
      "prefecture_id": "jp_hyogo",
      "type": "station",
      "subtype": "private",
      "name": "長",
      "name_kana": "",
      "name_translations": {
        "en": "Osa"
      },
      "operator": "北条鉄道",
      "network": null,
      "ref": null,
      "latitude": 34.8965929,
      "longitude": 134.8255815
    },
    {
      "id": "jp_hyogo_station_359798283",
      "osm_id": 359798283,
      "osm_type": "node",
      "prefecture_id": "jp_hyogo",
      "type": "station",
      "subtype": "subway",
      "name": "新神戸",
      "name_kana": "しんこうべ",
      "name_translations": {
        "en": "Shin-Kobe"
      },
      "operator": null,
      "network": null,
      "ref": "S02",
      "latitude": 34.7047051,
      "longitude": 135.1956697
    },
    {
      "id": "jp_hyogo_station_359808109",
      "osm_id": 359808109,
      "osm_type": "node",
      "prefecture_id": "jp_hyogo",
      "type": "station",
      "subtype": "private",
      "name": "豊岡",
      "name_kana": "",
      "name_translations": {
        "en": "Toyooka"
      },
      "operator": null,
      "network": null,
      "ref": null,
      "latitude": 35.5447858,
      "longitude": 134.8133194
    },
    {
      "id": "jp_hyogo_station_443057009",
      "osm_id": 443057009,
      "osm_type": "node",
      "prefecture_id": "jp_hyogo",
      "type": "station",
      "subtype": "private",
      "name": "中公園",
      "name_kana": "",
      "name_translations": {
        "en": "Naka Koen"
      },
      "operator": "神戸新交通",
      "network": "ポートライナー",
      "ref": "P04",
      "latitude": 34.6733088,
      "longitude": 135.2074848
    },
    {
      "id": "jp_hyogo_station_505242242",
      "osm_id": 505242242,
      "osm_type": "node",
      "prefecture_id": "jp_hyogo",
      "type": "station",
      "subtype": "jr",
      "name": "はりま勝原",
      "name_kana": "はりまかつはら",
      "name_translations": {
        "en": "Harima-Katsuhara"
      },
      "operator": "西日本旅客鉄道",
      "network": "JR山陽本線",
      "ref": null,
      "latitude": 34.8101481,
      "longitude": 134.6140705
    },
    {
      "id": "jp_hyogo_station_516137301",
      "osm_id": 516137301,
      "osm_type": "node",
      "prefecture_id": "jp_hyogo",
      "type": "station",
      "subtype": "private",
      "name": "新伊丹",
      "name_kana": "",
      "name_translations": {
        "en": "Shinitami"
      },
      "operator": null,
      "network": null,
      "ref": null,
      "latitude": 34.7726357,
      "longitude": 135.4155927
    },
    {
      "id": "jp_hyogo_station_516137427",
      "osm_id": 516137427,
      "osm_type": "node",
      "prefecture_id": "jp_hyogo",
      "type": "station",
      "subtype": "private",
      "name": "稲野",
      "name_kana": "",
      "name_translations": {
        "en": "Inano"
      },
      "operator": null,
      "network": null,
      "ref": null,
      "latitude": 34.7648674,
      "longitude": 135.4156535
    },
    {
      "id": "jp_hyogo_station_516180759",
      "osm_id": 516180759,
      "osm_type": "node",
      "prefecture_id": "jp_hyogo",
      "type": "station",
      "subtype": "private",
      "name": "甲陽園",
      "name_kana": "こうようえん",
      "name_translations": {
        "en": "Koyoen"
      },
      "operator": "阪急電鉄",
      "network": null,
      "ref": "HK30",
      "latitude": 34.7608785,
      "longitude": 135.3301337
    },
    {
      "id": "jp_hyogo_station_516180817",
      "osm_id": 516180817,
      "osm_type": "node",
      "prefecture_id": "jp_hyogo",
      "type": "station",
      "subtype": "private",
      "name": "苦楽園口",
      "name_kana": "くらくえんぐち",
      "name_translations": {
        "en": "Kurakuenguchi"
      },
      "operator": "阪急電鉄",
      "network": null,
      "ref": "HK29",
      "latitude": 34.7502404,
      "longitude": 135.3288957
    },
    {
      "id": "jp_hyogo_station_517815393",
      "osm_id": 517815393,
      "osm_type": "node",
      "prefecture_id": "jp_hyogo",
      "type": "station",
      "subtype": "private",
      "name": "谷上",
      "name_kana": "たにがみ",
      "name_translations": {
        "en": "Tanigami"
      },
      "operator": "神戸市交通局",
      "network": "神戸電鉄有馬線",
      "ref": null,
      "latitude": 34.7618497,
      "longitude": 135.1713884
    },
    {
      "id": "jp_hyogo_station_517816421",
      "osm_id": 517816421,
      "osm_type": "node",
      "prefecture_id": "jp_hyogo",
      "type": "station",
      "subtype": "private",
      "name": "花山",
      "name_kana": "",
      "name_translations": {
        "en": "Hanayama"
      },
      "operator": null,
      "network": null,
      "ref": null,
      "latitude": 34.7697058,
      "longitude": 135.1872768
    },
    {
      "id": "jp_hyogo_station_517817004",
      "osm_id": 517817004,
      "osm_type": "node",
      "prefecture_id": "jp_hyogo",
      "type": "station",
      "subtype": "private",
      "name": "大池",
      "name_kana": "",
      "name_translations": {
        "en": "Ooike"
      },
      "operator": null,
      "network": null,
      "ref": null,
      "latitude": 34.7810659,
      "longitude": 135.198828
    },
    {
      "id": "jp_hyogo_station_517817365",
      "osm_id": 517817365,
      "osm_type": "node",
      "prefecture_id": "jp_hyogo",
      "type": "station",
      "subtype": "private",
      "name": "神鉄六甲",
      "name_kana": "",
      "name_translations": {
        "en": "Shintetsu-Rokko"
      },
      "operator": null,
      "network": null,
      "ref": null,
      "latitude": 34.7854092,
      "longitude": 135.2063002
    },
    {
      "id": "jp_hyogo_station_517817650",
      "osm_id": 517817650,
      "osm_type": "node",
      "prefecture_id": "jp_hyogo",
      "type": "station",
      "subtype": "private",
      "name": "唐櫃台",
      "name_kana": "",
      "name_translations": {
        "en": "Karatodai"
      },
      "operator": null,
      "network": null,
      "ref": null,
      "latitude": 34.7903203,
      "longitude": 135.2114797
    },
    {
      "id": "jp_hyogo_station_517820275",
      "osm_id": 517820275,
      "osm_type": "node",
      "prefecture_id": "jp_hyogo",
      "type": "station",
      "subtype": "private",
      "name": "有馬温泉",
      "name_kana": "",
      "name_translations": {
        "en": "Arima Onsen"
      },
      "operator": "神戸電鉄",
      "network": "神戸電鉄有馬線",
      "ref": "KB16",
      "latitude": 34.7992564,
      "longitude": 135.2462748
    },
    {
      "id": "jp_hyogo_station_519550645",
      "osm_id": 519550645,
      "osm_type": "node",
      "prefecture_id": "jp_hyogo",
      "type": "station",
      "subtype": "private",
      "name": "南ウッディタウン",
      "name_kana": "",
      "name_translations": {
        "en": "Minami Woody Town"
      },
      "operator": "神戸電鉄",
      "network": null,
      "ref": null,
      "latitude": 34.9016603,
      "longitude": 135.1896709
    },
    {
      "id": "jp_hyogo_station_519550655",
      "osm_id": 519550655,
      "osm_type": "node",
      "prefecture_id": "jp_hyogo",
      "type": "station",
      "subtype": "private",
      "name": "ウッディタウン中央",
      "name_kana": "うっでぃたうんちゅうおう",
      "name_translations": {
        "en": "Woody Town Chūō"
      },
      "operator": "神戸電鉄",
      "network": null,
      "ref": "KB33",
      "latitude": 34.909716,
      "longitude": 135.1836684
    },
    {
      "id": "jp_hyogo_station_519693912",
      "osm_id": 519693912,
      "osm_type": "node",
      "prefecture_id": "jp_hyogo",
      "type": "station",
      "subtype": "subway",
      "name": "妙法寺",
      "name_kana": "",
      "name_translations": {
        "en": "Myohoji"
      },
      "operator": null,
      "network": null,
      "ref": "S11",
      "latitude": 34.675049,
      "longitude": 135.1101441
    },
    {
      "id": "jp_hyogo_station_823215106",
      "osm_id": 823215106,
      "osm_type": "node",
      "prefecture_id": "jp_hyogo",
      "type": "station",
      "subtype": "private",
      "name": "フラワータウン",
      "name_kana": "",
      "name_translations": {
        "en": "Flower Town"
      },
      "operator": "神戸電鉄",
      "network": "神戸電鉄公園都市線",
      "ref": null,
      "latitude": 34.8855795,
      "longitude": 135.2022631
    },
    {
      "id": "jp_hyogo_station_823218395",
      "osm_id": 823218395,
      "osm_type": "node",
      "prefecture_id": "jp_hyogo",
      "type": "station",
      "subtype": "private",
      "name": "新開地",
      "name_kana": "",
      "name_translations": {
        "en": "Shinkaichi"
      },
      "operator": "阪神電気鉄道",
      "network": "神戸高速線",
      "ref": "KB01",
      "latitude": 34.6763214,
      "longitude": 135.1699022
    },
    {
      "id": "jp_hyogo_station_823224152",
      "osm_id": 823224152,
      "osm_type": "node",
      "prefecture_id": "jp_hyogo",
      "type": "station",
      "subtype": "private",
      "name": "恵比須",
      "name_kana": "",
      "name_translations": {
        "en": "Ebisu"
      },
      "operator": null,
      "network": null,
      "ref": null,
      "latitude": 34.7977491,
      "longitude": 134.9986769
    },
    {
      "id": "jp_hyogo_station_823224727",
      "osm_id": 823224727,
      "osm_type": "node",
      "prefecture_id": "jp_hyogo",
      "type": "station",
      "subtype": "private",
      "name": "押部谷",
      "name_kana": "",
      "name_translations": {
        "en": "Oshibedani"
      },
      "operator": null,
      "network": null,
      "ref": null,
      "latitude": 34.7566824,
      "longitude": 135.0392453
    },
    {
      "id": "jp_hyogo_station_823226628",
      "osm_id": 823226628,
      "osm_type": "node",
      "prefecture_id": "jp_hyogo",
      "type": "station",
      "subtype": "private",
      "name": "鈴蘭台西口",
      "name_kana": "",
      "name_translations": {
        "en": "Suzurandai Nishi-guchi"
      },
      "operator": null,
      "network": null,
      "ref": null,
      "latitude": 34.7263275,
      "longitude": 135.140439
    },
    {
      "id": "jp_hyogo_station_823226771",
      "osm_id": 823226771,
      "osm_type": "node",
      "prefecture_id": "jp_hyogo",
      "type": "station",
      "subtype": "private",
      "name": "三木",
      "name_kana": "",
      "name_translations": {
        "en": "Miki"
      },
      "operator": null,
      "network": null,
      "ref": null,
      "latitude": 34.7997742,
      "longitude": 134.9817843
    },
    {
      "id": "jp_hyogo_station_823227994",
      "osm_id": 823227994,
      "osm_type": "node",
      "prefecture_id": "jp_hyogo",
      "type": "station",
      "subtype": "private",
      "name": "志染",
      "name_kana": "",
      "name_translations": {
        "en": "Shijimi"
      },
      "operator": null,
      "network": null,
      "ref": null,
      "latitude": 34.782411,
      "longitude": 135.0077769
    },
    {
      "id": "jp_hyogo_station_823230461",
      "osm_id": 823230461,
      "osm_type": "node",
      "prefecture_id": "jp_hyogo",
      "type": "station",
      "subtype": "private",
      "name": "栄",
      "name_kana": "",
      "name_translations": {
        "en": "Sakae"
      },
      "operator": null,
      "network": null,
      "ref": null,
      "latitude": 34.7552424,
      "longitude": 135.0566637
    },
    {
      "id": "jp_hyogo_station_823230555",
      "osm_id": 823230555,
      "osm_type": "node",
      "prefecture_id": "jp_hyogo",
      "type": "station",
      "subtype": "private",
      "name": "広野ゴルフ場前",
      "name_kana": "",
      "name_translations": {
        "en": "Hirono Golf-jō-mae"
      },
      "operator": null,
      "network": null,
      "ref": null,
      "latitude": 34.7704745,
      "longitude": 135.0231495
    },
    {
      "id": "jp_hyogo_station_823233064",
      "osm_id": 823233064,
      "osm_type": "node",
      "prefecture_id": "jp_hyogo",
      "type": "station",
      "subtype": "private",
      "name": "緑が丘",
      "name_kana": "",
      "name_translations": {
        "en": "Midorigaoka"
      },
      "operator": null,
      "network": null,
      "ref": null,
      "latitude": 34.7649923,
      "longitude": 135.025844
    },
    {
      "id": "jp_hyogo_station_823233342",
      "osm_id": 823233342,
      "osm_type": "node",
      "prefecture_id": "jp_hyogo",
      "type": "station",
      "subtype": "private",
      "name": "木幡",
      "name_kana": "",
      "name_translations": {
        "en": "Kobata"
      },
      "operator": null,
      "network": null,
      "ref": null,
      "latitude": 34.748642,
      "longitude": 135.0708798
    },
    {
      "id": "jp_hyogo_station_823235192",
      "osm_id": 823235192,
      "osm_type": "node",
      "prefecture_id": "jp_hyogo",
      "type": "station",
      "subtype": "private",
      "name": "葉多",
      "name_kana": "",
      "name_translations": {
        "en": "Hata"
      },
      "operator": null,
      "network": null,
      "ref": null,
      "latitude": 34.8500852,
      "longitude": 134.9202113
    },
    {
      "id": "jp_hyogo_station_823235438",
      "osm_id": 823235438,
      "osm_type": "node",
      "prefecture_id": "jp_hyogo",
      "type": "station",
      "subtype": "private",
      "name": "西鈴蘭台",
      "name_kana": "",
      "name_translations": {
        "en": "Nishi Suzurandai"
      },
      "operator": null,
      "network": null,
      "ref": null,
      "latitude": 34.7257569,
      "longitude": 135.1354302
    },
    {
      "id": "jp_hyogo_station_823235637",
      "osm_id": 823235637,
      "osm_type": "node",
      "prefecture_id": "jp_hyogo",
      "type": "station",
      "subtype": "private",
      "name": "木津",
      "name_kana": "",
      "name_translations": {
        "en": "Kizu"
      },
      "operator": null,
      "network": null,
      "ref": null,
      "latitude": 34.7441814,
      "longitude": 135.0883511
    },
    {
      "id": "jp_hyogo_station_823236497",
      "osm_id": 823236497,
      "osm_type": "node",
      "prefecture_id": "jp_hyogo",
      "type": "station",
      "subtype": "private",
      "name": "三木上の丸",
      "name_kana": "",
      "name_translations": {
        "en": "Miki Uenomaru"
      },
      "operator": null,
      "network": null,
      "ref": null,
      "latitude": 34.80013,
      "longitude": 134.9886604
    },
    {
      "id": "jp_hyogo_station_823241937",
      "osm_id": 823241937,
      "osm_type": "node",
      "prefecture_id": "jp_hyogo",
      "type": "station",
      "subtype": "private",
      "name": "大村",
      "name_kana": "",
      "name_translations": {
        "en": "Ōmura"
      },
      "operator": null,
      "network": null,
      "ref": null,
      "latitude": 34.8086641,
      "longitude": 134.9714322
    },
    {
      "id": "jp_hyogo_station_823243814",
      "osm_id": 823243814,
      "osm_type": "node",
      "prefecture_id": "jp_hyogo",
      "type": "station",
      "subtype": "private",
      "name": "樫山",
      "name_kana": "",
      "name_translations": {
        "en": "Kashiyama"
      },
      "operator": null,
      "network": null,
      "ref": null,
      "latitude": 34.8205652,
      "longitude": 134.9496928
    },
    {
      "id": "jp_hyogo_station_823246187",
      "osm_id": 823246187,
      "osm_type": "node",
      "prefecture_id": "jp_hyogo",
      "type": "station",
      "subtype": "private",
      "name": "小野",
      "name_kana": "",
      "name_translations": {
        "en": "Ono"
      },
      "operator": null,
      "network": null,
      "ref": null,
      "latitude": 34.8430827,
      "longitude": 134.9343913
    },
    {
      "id": "jp_hyogo_station_1424100626",
      "osm_id": 1424100626,
      "osm_type": "node",
      "prefecture_id": "jp_hyogo",
      "type": "station",
      "subtype": "private",
      "name": "みなとじま",
      "name_kana": "みなとじま",
      "name_translations": {
        "en": "Minatojima (Campus Mae)"
      },
      "operator": "神戸新交通",
      "network": "ポートアイランド線",
      "ref": "P05",
      "latitude": 34.6689656,
      "longitude": 135.2101149
    },
    {
      "id": "jp_hyogo_station_2822263911",
      "osm_id": 2822263911,
      "osm_type": "node",
      "prefecture_id": "jp_hyogo",
      "type": "station",
      "subtype": "private",
      "name": "社町",
      "name_kana": "",
      "name_translations": {
        "en": "Yashirochō"
      },
      "operator": null,
      "network": null,
      "ref": null,
      "latitude": 34.9203254,
      "longitude": 134.9346987
    },
    {
      "id": "jp_hyogo_station_2837065868",
      "osm_id": 2837065868,
      "osm_type": "node",
      "prefecture_id": "jp_hyogo",
      "type": "station",
      "subtype": "private",
      "name": "播磨横田",
      "name_kana": "",
      "name_translations": {
        "en": "Harima-Yokota"
      },
      "operator": "北条鉄道",
      "network": null,
      "ref": null,
      "latitude": 34.9101911,
      "longitude": 134.8251219
    },
    {
      "id": "jp_hyogo_bus_terminal_3030969737",
      "osm_id": 3030969737,
      "osm_type": "node",
      "prefecture_id": "jp_hyogo",
      "type": "bus_terminal",
      "subtype": null,
      "name": "三宮バスターミナル",
      "name_kana": "",
      "name_translations": {
        "en": "Sannomiya Bus Terminal"
      },
      "operator": null,
      "network": null,
      "ref": null,
      "latitude": 34.6943947,
      "longitude": 135.195996
    },
    {
      "id": "jp_hyogo_station_3163215065",
      "osm_id": 3163215065,
      "osm_type": "node",
      "prefecture_id": "jp_hyogo",
      "type": "station",
      "subtype": "private",
      "name": "三田",
      "name_kana": "",
      "name_translations": {
        "en": "Sanda"
      },
      "operator": "神戸電鉄",
      "network": "神戸電鉄三田線",
      "ref": "KB29",
      "latitude": 34.8883577,
      "longitude": 135.2302716
    },
    {
      "id": "jp_hyogo_station_3203267292",
      "osm_id": 3203267292,
      "osm_type": "node",
      "prefecture_id": "jp_hyogo",
      "type": "station",
      "subtype": "private",
      "name": "夙川",
      "name_kana": "しゅくがわ",
      "name_translations": {
        "en": "Shukugawa"
      },
      "operator": "阪急電鉄",
      "network": null,
      "ref": null,
      "latitude": 34.7422128,
      "longitude": 135.3279801
    },
    {
      "id": "jp_hyogo_station_3629375864",
      "osm_id": 3629375864,
      "osm_type": "node",
      "prefecture_id": "jp_hyogo",
      "type": "station",
      "subtype": "private",
      "name": "六甲",
      "name_kana": "",
      "name_translations": {
        "en": "Rokkō"
      },
      "operator": "阪急電鉄",
      "network": "阪急電鉄",
      "ref": null,
      "latitude": 34.719614,
      "longitude": 135.2341591
    },
    {
      "id": "jp_hyogo_station_3629375866",
      "osm_id": 3629375866,
      "osm_type": "node",
      "prefecture_id": "jp_hyogo",
      "type": "station",
      "subtype": "private",
      "name": "春日野道",
      "name_kana": "",
      "name_translations": {
        "en": "Kasuganomichi"
      },
      "operator": null,
      "network": null,
      "ref": null,
      "latitude": 34.7030816,
      "longitude": 135.2054685
    },
    {
      "id": "jp_hyogo_station_3629375867",
      "osm_id": 3629375867,
      "osm_type": "node",
      "prefecture_id": "jp_hyogo",
      "type": "station",
      "subtype": "private",
      "name": "王子公園",
      "name_kana": "",
      "name_translations": {
        "en": "Ojikoen"
      },
      "operator": "阪急電鉄",
      "network": null,
      "ref": null,
      "latitude": 34.7102106,
      "longitude": 135.2184074
    },
    {
      "id": "jp_hyogo_station_3629375868",
      "osm_id": 3629375868,
      "osm_type": "node",
      "prefecture_id": "jp_hyogo",
      "type": "station",
      "subtype": "private",
      "name": "神戸三宮",
      "name_kana": "",
      "name_translations": {
        "en": "Kōbe Sannomiya"
      },
      "operator": "阪急電鉄",
      "network": "阪急神戸線;阪急神戸高速線",
      "ref": "HK-16",
      "latitude": 34.6931389,
      "longitude": 135.1928979
    },
    {
      "id": "jp_hyogo_station_3632635131",
      "osm_id": 3632635131,
      "osm_type": "node",
      "prefecture_id": "jp_hyogo",
      "type": "station",
      "subtype": "private",
      "name": "尼崎",
      "name_kana": "あまがさき",
      "name_translations": {
        "en": "Amagasaki"
      },
      "operator": "阪神電気鉄道",
      "network": "阪神電気鉄道本線;阪神電気鉄道なんば線",
      "ref": "HS09",
      "latitude": 34.7185885,
      "longitude": 135.4173249
    },
    {
      "id": "jp_hyogo_station_3632635132",
      "osm_id": 3632635132,
      "osm_type": "node",
      "prefecture_id": "jp_hyogo",
      "type": "station",
      "subtype": "private",
      "name": "杭瀬",
      "name_kana": "",
      "name_translations": {
        "en": "Kuise"
      },
      "operator": null,
      "network": "阪神電気鉄道本線",
      "ref": "HS07",
      "latitude": 34.718316,
      "longitude": 135.4388162
    },
    {
      "id": "jp_hyogo_station_3632717537",
      "osm_id": 3632717537,
      "osm_type": "node",
      "prefecture_id": "jp_hyogo",
      "type": "station",
      "subtype": "private",
      "name": "大物",
      "name_kana": "だいもつ",
      "name_translations": {
        "en": "Daimotsu"
      },
      "operator": "阪神電気鉄道",
      "network": "阪神電気鉄道本線;阪神電気鉄道なんば線",
      "ref": null,
      "latitude": 34.7164614,
      "longitude": 135.4259953
    },
    {
      "id": "jp_hyogo_station_3632717539",
      "osm_id": 3632717539,
      "osm_type": "node",
      "prefecture_id": "jp_hyogo",
      "type": "station",
      "subtype": "private",
      "name": "甲子園",
      "name_kana": "",
      "name_translations": {
        "en": "Koshien"
      },
      "operator": "阪神電気鉄道",
      "network": "阪神電気鉄道本線",
      "ref": "HS14",
      "latitude": 34.7240751,
      "longitude": 135.3629
    },
    {
      "id": "jp_hyogo_bus_terminal_3672724944",
      "osm_id": 3672724944,
      "osm_type": "node",
      "prefecture_id": "jp_hyogo",
      "type": "bus_terminal",
      "subtype": null,
      "name": "山陽高砂駅",
      "name_kana": "",
      "name_translations": null,
      "operator": "高砂市コミュニティーバス",
      "network": "じょうとんバス",
      "ref": "2",
      "latitude": 34.7521636,
      "longitude": 134.8029301
    },
    {
      "id": "jp_hyogo_station_3721652685",
      "osm_id": 3721652685,
      "osm_type": "node",
      "prefecture_id": "jp_hyogo",
      "type": "station",
      "subtype": "subway",
      "name": "名谷",
      "name_kana": "",
      "name_translations": {
        "en": "Myōdani"
      },
      "operator": null,
      "network": null,
      "ref": "S12",
      "latitude": 34.6793087,
      "longitude": 135.094304
    },
    {
      "id": "jp_hyogo_station_3721936227",
      "osm_id": 3721936227,
      "osm_type": "node",
      "prefecture_id": "jp_hyogo",
      "type": "station",
      "subtype": "subway",
      "name": "西神中央",
      "name_kana": "",
      "name_translations": {
        "en": "Seishin Chuo"
      },
      "operator": null,
      "network": null,
      "ref": null,
      "latitude": 34.7194162,
      "longitude": 135.0174576
    },
    {
      "id": "jp_hyogo_station_3771528222",
      "osm_id": 3771528222,
      "osm_type": "node",
      "prefecture_id": "jp_hyogo",
      "type": "station",
      "subtype": "private",
      "name": "溝口",
      "name_kana": "みぞぐち",
      "name_translations": {
        "en": "Mizoguchi"
      },
      "operator": null,
      "network": "播但線",
      "ref": null,
      "latitude": 34.9281492,
      "longitude": 134.7425876
    },
    {
      "id": "jp_hyogo_bus_terminal_3790019268",
      "osm_id": 3790019268,
      "osm_type": "node",
      "prefecture_id": "jp_hyogo",
      "type": "bus_terminal",
      "subtype": null,
      "name": "垂水駅",
      "name_kana": "",
      "name_translations": null,
      "operator": null,
      "network": null,
      "ref": null,
      "latitude": 34.6297125,
      "longitude": 135.0526854
    },
    {
      "id": "jp_hyogo_station_3791136194",
      "osm_id": 3791136194,
      "osm_type": "node",
      "prefecture_id": "jp_hyogo",
      "type": "station",
      "subtype": "private",
      "name": "上郡",
      "name_kana": "",
      "name_translations": {
        "en": "Kamigōri"
      },
      "operator": null,
      "network": null,
      "ref": null,
      "latitude": 34.8660983,
      "longitude": 134.3533789
    },
    {
      "id": "jp_hyogo_station_3843268141",
      "osm_id": 3843268141,
      "osm_type": "node",
      "prefecture_id": "jp_hyogo",
      "type": "station",
      "subtype": "private",
      "name": "三田本町",
      "name_kana": "",
      "name_translations": {
        "en": "Sanda Hommachi"
      },
      "operator": "神戸電鉄",
      "network": "神戸電鉄三田線;神戸電鉄公園都市線",
      "ref": "KB28",
      "latitude": 34.8817187,
      "longitude": 135.2296112
    },
    {
      "id": "jp_hyogo_station_3854376787",
      "osm_id": 3854376787,
      "osm_type": "node",
      "prefecture_id": "jp_hyogo",
      "type": "station",
      "subtype": "private",
      "name": "市民広場",
      "name_kana": "",
      "name_translations": {
        "en": "Shimin Hiroba (Convention Center)"
      },
      "operator": "神戸新交通",
      "network": "ポートアイランド線",
      "ref": "P06",
      "latitude": 34.6648095,
      "longitude": 135.212611
    },
    {
      "id": "jp_hyogo_station_3854376789",
      "osm_id": 3854376789,
      "osm_type": "node",
      "prefecture_id": "jp_hyogo",
      "type": "station",
      "subtype": "private",
      "name": "南公園",
      "name_kana": "",
      "name_translations": {
        "en": "Minami Koen"
      },
      "operator": null,
      "network": null,
      "ref": "PL07",
      "latitude": 34.6646582,
      "longitude": 135.2170214
    },
    {
      "id": "jp_hyogo_station_3854376847",
      "osm_id": 3854376847,
      "osm_type": "node",
      "prefecture_id": "jp_hyogo",
      "type": "station",
      "subtype": "private",
      "name": "ポートターミナル",
      "name_kana": "",
      "name_translations": {
        "en": "Port Terminal"
      },
      "operator": "神戸新交通",
      "network": null,
      "ref": "P03",
      "latitude": 34.6813803,
      "longitude": 135.2022901
    },
    {
      "id": "jp_hyogo_station_3854376854",
      "osm_id": 3854376854,
      "osm_type": "node",
      "prefecture_id": "jp_hyogo",
      "type": "station",
      "subtype": "private",
      "name": "貿易センター",
      "name_kana": "",
      "name_translations": {
        "en": "Boeki Center"
      },
      "operator": null,
      "network": null,
      "ref": "P02",
      "latitude": 34.6894187,
      "longitude": 135.1994596
    },
    {
      "id": "jp_hyogo_station_3901148445",
      "osm_id": 3901148445,
      "osm_type": "node",
      "prefecture_id": "jp_hyogo",
      "type": "station",
      "subtype": "private",
      "name": "舞子",
      "name_kana": "",
      "name_translations": {
        "en": "Maiko"
      },
      "operator": null,
      "network": null,
      "ref": null,
      "latitude": 34.6335091,
      "longitude": 135.0338177
    },
    {
      "id": "jp_hyogo_station_3902067722",
      "osm_id": 3902067722,
      "osm_type": "node",
      "prefecture_id": "jp_hyogo",
      "type": "station",
      "subtype": "jr",
      "name": "兵庫",
      "name_kana": "",
      "name_translations": {
        "en": "Hyōgo"
      },
      "operator": "西日本旅客鉄道",
      "network": null,
      "ref": null,
      "latitude": 34.6677915,
      "longitude": 135.1641816
    },
    {
      "id": "jp_hyogo_station_3902067724",
      "osm_id": 3902067724,
      "osm_type": "node",
      "prefecture_id": "jp_hyogo",
      "type": "station",
      "subtype": "private",
      "name": "塩屋",
      "name_kana": "",
      "name_translations": {
        "en": "Shioya"
      },
      "operator": null,
      "network": null,
      "ref": null,
      "latitude": 34.6336988,
      "longitude": 135.0834508
    },
    {
      "id": "jp_hyogo_station_3902067725",
      "osm_id": 3902067725,
      "osm_type": "node",
      "prefecture_id": "jp_hyogo",
      "type": "station",
      "subtype": "private",
      "name": "大蔵谷",
      "name_kana": "",
      "name_translations": {
        "en": "Ōkuradani"
      },
      "operator": "山陽電気鉄道",
      "network": null,
      "ref": null,
      "latitude": 34.6466225,
      "longitude": 135.0080926
    },
    {
      "id": "jp_hyogo_station_3902067726",
      "osm_id": 3902067726,
      "osm_type": "node",
      "prefecture_id": "jp_hyogo",
      "type": "station",
      "subtype": "jr",
      "name": "新長田",
      "name_kana": "",
      "name_translations": {
        "en": "Shin-Nagata"
      },
      "operator": "西日本旅客鉄道",
      "network": null,
      "ref": null,
      "latitude": 34.6578402,
      "longitude": 135.145746
    },
    {
      "id": "jp_hyogo_station_3902067727",
      "osm_id": 3902067727,
      "osm_type": "node",
      "prefecture_id": "jp_hyogo",
      "type": "station",
      "subtype": "private",
      "name": "神戸",
      "name_kana": "",
      "name_translations": {
        "en": "Kobe"
      },
      "operator": null,
      "network": null,
      "ref": null,
      "latitude": 34.6792884,
      "longitude": 135.1782824
    },
    {
      "id": "jp_hyogo_station_3902067728",
      "osm_id": 3902067728,
      "osm_type": "node",
      "prefecture_id": "jp_hyogo",
      "type": "station",
      "subtype": "private",
      "name": "西舞子",
      "name_kana": "",
      "name_translations": {
        "en": "Nishi-Maiko"
      },
      "operator": "山陽電気鉄道",
      "network": null,
      "ref": null,
      "latitude": 34.6388445,
      "longitude": 135.0278568
    },
    {
      "id": "jp_hyogo_station_3902067729",
      "osm_id": 3902067729,
      "osm_type": "node",
      "prefecture_id": "jp_hyogo",
      "type": "station",
      "subtype": "private",
      "name": "須磨",
      "name_kana": "",
      "name_translations": {
        "en": "Suma"
      },
      "operator": null,
      "network": null,
      "ref": null,
      "latitude": 34.642239,
      "longitude": 135.1125557
    },
    {
      "id": "jp_hyogo_station_3902067730",
      "osm_id": 3902067730,
      "osm_type": "node",
      "prefecture_id": "jp_hyogo",
      "type": "station",
      "subtype": "jr",
      "name": "須磨海浜公園",
      "name_kana": "すまかいひんこうえん",
      "name_translations": {
        "en": "Sumakaihinkōen"
      },
      "operator": "西日本旅客鉄道",
      "network": "JR山陽本線",
      "ref": null,
      "latitude": 34.6471532,
      "longitude": 135.1266465
    },
    {
      "id": "jp_hyogo_station_3902067731",
      "osm_id": 3902067731,
      "osm_type": "node",
      "prefecture_id": "jp_hyogo",
      "type": "station",
      "subtype": "jr",
      "name": "鷹取",
      "name_kana": "",
      "name_translations": {
        "en": "Takatori"
      },
      "operator": "西日本旅客鉄道",
      "network": null,
      "ref": null,
      "latitude": 34.651688,
      "longitude": 135.1354427
    },
    {
      "id": "jp_hyogo_station_3903196857",
      "osm_id": 3903196857,
      "osm_type": "node",
      "prefecture_id": "jp_hyogo",
      "type": "station",
      "subtype": "subway",
      "name": "伊川谷",
      "name_kana": "",
      "name_translations": {
        "en": "Ikawadani"
      },
      "operator": null,
      "network": null,
      "ref": null,
      "latitude": 34.6878591,
      "longitude": 135.0413139
    },
    {
      "id": "jp_hyogo_station_3903196858",
      "osm_id": 3903196858,
      "osm_type": "node",
      "prefecture_id": "jp_hyogo",
      "type": "station",
      "subtype": "subway",
      "name": "学園都市",
      "name_kana": "",
      "name_translations": {
        "en": "Gakuentoshi"
      },
      "operator": null,
      "network": null,
      "ref": null,
      "latitude": 34.6815117,
      "longitude": 135.0575136
    },
    {
      "id": "jp_hyogo_station_3903196859",
      "osm_id": 3903196859,
      "osm_type": "node",
      "prefecture_id": "jp_hyogo",
      "type": "station",
      "subtype": "subway",
      "name": "総合運動公園",
      "name_kana": "",
      "name_translations": {
        "en": "Sogo Undo Koen"
      },
      "operator": "神戸市交通局",
      "network": "神戸市営地下鉄",
      "ref": null,
      "latitude": 34.6816415,
      "longitude": 135.0758026
    },
    {
      "id": "jp_hyogo_station_3903196860",
      "osm_id": 3903196860,
      "osm_type": "node",
      "prefecture_id": "jp_hyogo",
      "type": "station",
      "subtype": "subway",
      "name": "西神南",
      "name_kana": "",
      "name_translations": {
        "en": "Seishin-Minami"
      },
      "operator": null,
      "network": null,
      "ref": null,
      "latitude": 34.6995602,
      "longitude": 135.0300386
    },
    {
      "id": "jp_hyogo_station_3905050879",
      "osm_id": 3905050879,
      "osm_type": "node",
      "prefecture_id": "jp_hyogo",
      "type": "station",
      "subtype": "private",
      "name": "住吉",
      "name_kana": "",
      "name_translations": {
        "en": "Sumiyoshi"
      },
      "operator": null,
      "network": null,
      "ref": null,
      "latitude": 34.7195349,
      "longitude": 135.2618791
    },
    {
      "id": "jp_hyogo_station_3905050880",
      "osm_id": 3905050880,
      "osm_type": "node",
      "prefecture_id": "jp_hyogo",
      "type": "station",
      "subtype": "private",
      "name": "六甲道",
      "name_kana": "",
      "name_translations": {
        "en": "Rokkōmichi"
      },
      "operator": null,
      "network": null,
      "ref": null,
      "latitude": 34.714606,
      "longitude": 135.2380894
    },
    {
      "id": "jp_hyogo_station_3905339975",
      "osm_id": 3905339975,
      "osm_type": "node",
      "prefecture_id": "jp_hyogo",
      "type": "station",
      "subtype": "private",
      "name": "さくら夙川",
      "name_kana": "さくらしゅくがわ",
      "name_translations": {
        "en": "Sakurashukugawa"
      },
      "operator": null,
      "network": null,
      "ref": null,
      "latitude": 34.7390395,
      "longitude": 135.3312945
    },
    {
      "id": "jp_hyogo_station_3905340857",
      "osm_id": 3905340857,
      "osm_type": "node",
      "prefecture_id": "jp_hyogo",
      "type": "station",
      "subtype": "private",
      "name": "摂津本山",
      "name_kana": "",
      "name_translations": {
        "en": "Settsu-Motoyama"
      },
      "operator": null,
      "network": null,
      "ref": null,
      "latitude": 34.7266504,
      "longitude": 135.2769776
    },
    {
      "id": "jp_hyogo_station_3905340858",
      "osm_id": 3905340858,
      "osm_type": "node",
      "prefecture_id": "jp_hyogo",
      "type": "station",
      "subtype": "private",
      "name": "甲南山手",
      "name_kana": "",
      "name_translations": {
        "en": "Kōnan-Yamate"
      },
      "operator": null,
      "network": null,
      "ref": null,
      "latitude": 34.7305409,
      "longitude": 135.2923056
    },
    {
      "id": "jp_hyogo_station_3905340859",
      "osm_id": 3905340859,
      "osm_type": "node",
      "prefecture_id": "jp_hyogo",
      "type": "station",
      "subtype": "private",
      "name": "甲子園口",
      "name_kana": "こうしえんぐち",
      "name_translations": {
        "en": "Kōshienguchi"
      },
      "operator": null,
      "network": null,
      "ref": null,
      "latitude": 34.7390274,
      "longitude": 135.3745218
    },
    {
      "id": "jp_hyogo_station_3905340860",
      "osm_id": 3905340860,
      "osm_type": "node",
      "prefecture_id": "jp_hyogo",
      "type": "station",
      "subtype": "jr",
      "name": "芦屋",
      "name_kana": "",
      "name_translations": {
        "en": "Ashiya"
      },
      "operator": "西日本旅客鉄道株式会社",
      "network": null,
      "ref": null,
      "latitude": 34.7342386,
      "longitude": 135.3070122
    },
    {
      "id": "jp_hyogo_station_3905340861",
      "osm_id": 3905340861,
      "osm_type": "node",
      "prefecture_id": "jp_hyogo",
      "type": "station",
      "subtype": "private",
      "name": "西宮",
      "name_kana": "にしのみや",
      "name_translations": {
        "en": "Nishinomiya"
      },
      "operator": null,
      "network": null,
      "ref": null,
      "latitude": 34.7390225,
      "longitude": 135.3481483
    },
    {
      "id": "jp_hyogo_station_3968865506",
      "osm_id": 3968865506,
      "osm_type": "node",
      "prefecture_id": "jp_hyogo",
      "type": "station",
      "subtype": "private",
      "name": "横山",
      "name_kana": "",
      "name_translations": {
        "en": "Yokoyama"
      },
      "operator": "神戸電鉄",
      "network": "神戸電鉄三田線;神戸電鉄公園都市線",
      "ref": "KB27",
      "latitude": 34.8768576,
      "longitude": 135.2200057
    },
    {
      "id": "jp_hyogo_station_3968865678",
      "osm_id": 3968865678,
      "osm_type": "node",
      "prefecture_id": "jp_hyogo",
      "type": "station",
      "subtype": "private",
      "name": "道場南口",
      "name_kana": "",
      "name_translations": {
        "en": "Dōjō Minamiguchi"
      },
      "operator": "神戸電鉄",
      "network": "神戸電鉄三田線",
      "ref": "KB25",
      "latitude": 34.8561003,
      "longitude": 135.2231212
    },
    {
      "id": "jp_hyogo_station_3978693964",
      "osm_id": 3978693964,
      "osm_type": "node",
      "prefecture_id": "jp_hyogo",
      "type": "station",
      "subtype": "private",
      "name": "有馬口",
      "name_kana": "",
      "name_translations": {
        "en": "Arimaguchi"
      },
      "operator": "神戸電鉄",
      "network": "神戸電鉄有馬線;神戸電鉄三田線",
      "ref": "KB15",
      "latitude": 34.7964499,
      "longitude": 135.2207699
    },
    {
      "id": "jp_hyogo_station_3978693980",
      "osm_id": 3978693980,
      "osm_type": "node",
      "prefecture_id": "jp_hyogo",
      "type": "station",
      "subtype": "private",
      "name": "五社",
      "name_kana": "",
      "name_translations": {
        "en": "Gosha"
      },
      "operator": "神戸電鉄",
      "network": "神戸電鉄三田線",
      "ref": "KB21",
      "latitude": 34.8060531,
      "longitude": 135.2161655
    },
    {
      "id": "jp_hyogo_station_3978694003",
      "osm_id": 3978694003,
      "osm_type": "node",
      "prefecture_id": "jp_hyogo",
      "type": "station",
      "subtype": "private",
      "name": "岡場",
      "name_kana": "",
      "name_translations": {
        "en": "Okaba"
      },
      "operator": "神戸電鉄",
      "network": "神戸電鉄三田線",
      "ref": "KB22",
      "latitude": 34.8216947,
      "longitude": 135.222511
    },
    {
      "id": "jp_hyogo_station_3978694163",
      "osm_id": 3978694163,
      "osm_type": "node",
      "prefecture_id": "jp_hyogo",
      "type": "station",
      "subtype": "private",
      "name": "田尾寺",
      "name_kana": "",
      "name_translations": {
        "en": "Taoji"
      },
      "operator": "神戸電鉄",
      "network": "神戸電鉄三田線",
      "ref": "KB23",
      "latitude": 34.8353997,
      "longitude": 135.2259506
    },
    {
      "id": "jp_hyogo_station_3999683420",
      "osm_id": 3999683420,
      "osm_type": "node",
      "prefecture_id": "jp_hyogo",
      "type": "station",
      "subtype": "private",
      "name": "元町",
      "name_kana": "",
      "name_translations": {
        "en": "Motomachi"
      },
      "operator": null,
      "network": null,
      "ref": null,
      "latitude": 34.6895717,
      "longitude": 135.1871543
    },
    {
      "id": "jp_hyogo_station_3999683421",
      "osm_id": 3999683421,
      "osm_type": "node",
      "prefecture_id": "jp_hyogo",
      "type": "station",
      "subtype": "private",
      "name": "灘",
      "name_kana": "",
      "name_translations": {
        "en": "Nada"
      },
      "operator": null,
      "network": null,
      "ref": null,
      "latitude": 34.7058437,
      "longitude": 135.2161807
    },
    {
      "id": "jp_hyogo_station_3999683422",
      "osm_id": 3999683422,
      "osm_type": "node",
      "prefecture_id": "jp_hyogo",
      "type": "station",
      "subtype": "private",
      "name": "三ノ宮",
      "name_kana": "",
      "name_translations": {
        "en": "Sannomiya"
      },
      "operator": null,
      "network": null,
      "ref": null,
      "latitude": 34.6948605,
      "longitude": 135.1950871
    },
    {
      "id": "jp_hyogo_station_4004558686",
      "osm_id": 4004558686,
      "osm_type": "node",
      "prefecture_id": "jp_hyogo",
      "type": "station",
      "subtype": "private",
      "name": "箕谷",
      "name_kana": "",
      "name_translations": {
        "en": "Minotani"
      },
      "operator": null,
      "network": null,
      "ref": null,
      "latitude": 34.7569996,
      "longitude": 135.155777
    },
    {
      "id": "jp_hyogo_station_4004558705",
      "osm_id": 4004558705,
      "osm_type": "node",
      "prefecture_id": "jp_hyogo",
      "type": "station",
      "subtype": "private",
      "name": "山の街",
      "name_kana": "",
      "name_translations": {
        "en": "Yamanomachi"
      },
      "operator": null,
      "network": null,
      "ref": null,
      "latitude": 34.7463668,
      "longitude": 135.1531297
    },
    {
      "id": "jp_hyogo_station_4004558708",
      "osm_id": 4004558708,
      "osm_type": "node",
      "prefecture_id": "jp_hyogo",
      "type": "station",
      "subtype": "private",
      "name": "北鈴蘭台",
      "name_kana": "",
      "name_translations": {
        "en": "Kitasuzurandai"
      },
      "operator": null,
      "network": null,
      "ref": null,
      "latitude": 34.739182,
      "longitude": 135.1519517
    },
    {
      "id": "jp_hyogo_station_4004558724",
      "osm_id": 4004558724,
      "osm_type": "node",
      "prefecture_id": "jp_hyogo",
      "type": "station",
      "subtype": "private",
      "name": "鈴蘭台",
      "name_kana": "",
      "name_translations": {
        "en": "Suzurandai"
      },
      "operator": "神戸電鉄",
      "network": "神戸電鉄有馬線;神戸電鉄粟生線",
      "ref": "KB06",
      "latitude": 34.7238379,
      "longitude": 135.1458758
    },
    {
      "id": "jp_hyogo_station_4044961638",
      "osm_id": 4044961638,
      "osm_type": "node",
      "prefecture_id": "jp_hyogo",
      "type": "station",
      "subtype": "private",
      "name": "花隈",
      "name_kana": "",
      "name_translations": {
        "en": "Hanakuma"
      },
      "operator": "阪急電鉄",
      "network": null,
      "ref": null,
      "latitude": 34.6861019,
      "longitude": 135.181132
    },
    {
      "id": "jp_hyogo_station_4044961649",
      "osm_id": 4044961649,
      "osm_type": "node",
      "prefecture_id": "jp_hyogo",
      "type": "station",
      "subtype": "private",
      "name": "高速神戸",
      "name_kana": "",
      "name_translations": {
        "en": "Kōsoku Kōbe"
      },
      "operator": null,
      "network": null,
      "ref": null,
      "latitude": 34.6799933,
      "longitude": 135.1755908
    },
    {
      "id": "jp_hyogo_station_4044961656",
      "osm_id": 4044961656,
      "osm_type": "node",
      "prefecture_id": "jp_hyogo",
      "type": "station",
      "subtype": "private",
      "name": "西新町",
      "name_kana": "",
      "name_translations": {
        "en": "Nishi-Shimmachi"
      },
      "operator": "山陽電気鉄道",
      "network": "山陽電気鉄道本線",
      "ref": "SY18",
      "latitude": 34.6496284,
      "longitude": 134.9807844
    },
    {
      "id": "jp_hyogo_station_4044961663",
      "osm_id": 4044961663,
      "osm_type": "node",
      "prefecture_id": "jp_hyogo",
      "type": "station",
      "subtype": "private",
      "name": "山陽明石",
      "name_kana": "",
      "name_translations": {
        "en": "Sanyo-Akashi"
      },
      "operator": "山陽電気鉄道",
      "network": null,
      "ref": "SY17",
      "latitude": 34.6486827,
      "longitude": 134.9933087
    },
    {
      "id": "jp_hyogo_station_4044964906",
      "osm_id": 4044964906,
      "osm_type": "node",
      "prefecture_id": "jp_hyogo",
      "type": "station",
      "subtype": "private",
      "name": "医療センター",
      "name_kana": "",
      "name_translations": {
        "en": "Iryo Center (Shimin Byoin Mae)"
      },
      "operator": "神戸新交通",
      "network": "ポートアイランド線",
      "ref": "P07",
      "latitude": 34.6585308,
      "longitude": 135.2164053
    },
    {
      "id": "jp_hyogo_station_4044964907",
      "osm_id": 4044964907,
      "osm_type": "node",
      "prefecture_id": "jp_hyogo",
      "type": "station",
      "subtype": "private",
      "name": "計算科学センター",
      "name_kana": "",
      "name_translations": {
        "en": "Keisan Kagaku Center"
      },
      "operator": "神戸新交通",
      "network": "ポートライナー",
      "ref": "P08",
      "latitude": 34.6547964,
      "longitude": 135.2215133
    },
    {
      "id": "jp_hyogo_station_4044964908",
      "osm_id": 4044964908,
      "osm_type": "node",
      "prefecture_id": "jp_hyogo",
      "type": "station",
      "subtype": "private",
      "name": "北埠頭",
      "name_kana": "",
      "name_translations": {
        "en": "Kita Futo"
      },
      "operator": null,
      "network": null,
      "ref": "PL09",
      "latitude": 34.6736415,
      "longitude": 135.2146321
    },
    {
      "id": "jp_hyogo_station_4044964909",
      "osm_id": 4044964909,
      "osm_type": "node",
      "prefecture_id": "jp_hyogo",
      "type": "station",
      "subtype": "private",
      "name": "神戸空港",
      "name_kana": "こうべくうこう",
      "name_translations": {
        "en": "Kobe Airport"
      },
      "operator": "神戸新交通",
      "network": "ポートライナー",
      "ref": "P09",
      "latitude": 34.6372668,
      "longitude": 135.2291094
    },
    {
      "id": "jp_hyogo_station_4044964913",
      "osm_id": 4044964913,
      "osm_type": "node",
      "prefecture_id": "jp_hyogo",
      "type": "station",
      "subtype": "private",
      "name": "中埠頭",
      "name_kana": "",
      "name_translations": {
        "en": "Naka Futo"
      },
      "operator": null,
      "network": null,
      "ref": "PL08",
      "latitude": 34.6694622,
      "longitude": 135.2171403
    },
    {
      "id": "jp_hyogo_station_4044964915",
      "osm_id": 4044964915,
      "osm_type": "node",
      "prefecture_id": "jp_hyogo",
      "type": "station",
      "subtype": "subway",
      "name": "三宮",
      "name_kana": "",
      "name_translations": {
        "en": "Sannomiya"
      },
      "operator": "神戸市交通局",
      "network": "地下鉄西神・山手線",
      "ref": "S03",
      "latitude": 34.6938976,
      "longitude": 135.1924441
    },
    {
      "id": "jp_hyogo_station_4044964918",
      "osm_id": 4044964918,
      "osm_type": "node",
      "prefecture_id": "jp_hyogo",
      "type": "station",
      "subtype": "subway",
      "name": "三宮・花時計前",
      "name_kana": "",
      "name_translations": {
        "en": "Sannomiya-Hanadokeimae"
      },
      "operator": "神戸市交通局",
      "network": "地下鉄海岸線",
      "ref": "K01",
      "latitude": 34.691763,
      "longitude": 135.1959069
    },
    {
      "id": "jp_hyogo_station_4045703017",
      "osm_id": 4045703017,
      "osm_type": "node",
      "prefecture_id": "jp_hyogo",
      "type": "station",
      "subtype": "private",
      "name": "伊丹",
      "name_kana": "",
      "name_translations": {
        "en": "Itami"
      },
      "operator": "阪急電鉄",
      "network": "伊丹線",
      "ref": null,
      "latitude": 34.7798931,
      "longitude": 135.4138327
    },
    {
      "id": "jp_hyogo_station_4079537209",
      "osm_id": 4079537209,
      "osm_type": "node",
      "prefecture_id": "jp_hyogo",
      "type": "station",
      "subtype": "private",
      "name": "摩耶",
      "name_kana": "",
      "name_translations": {
        "en": "Maya"
      },
      "operator": null,
      "network": null,
      "ref": null,
      "latitude": 34.7086165,
      "longitude": 135.2249935
    },
    {
      "id": "jp_hyogo_station_4079538416",
      "osm_id": 4079538416,
      "osm_type": "node",
      "prefecture_id": "jp_hyogo",
      "type": "station",
      "subtype": "private",
      "name": "東姫路",
      "name_kana": "ひがしひめじ",
      "name_translations": {
        "en": "Higashi-Himeji"
      },
      "operator": null,
      "network": null,
      "ref": null,
      "latitude": 34.8243643,
      "longitude": 134.7106573
    },
    {
      "id": "jp_hyogo_station_4162495931",
      "osm_id": 4162495931,
      "osm_type": "node",
      "prefecture_id": "jp_hyogo",
      "type": "station",
      "subtype": "jr",
      "name": "余部",
      "name_kana": "",
      "name_translations": {
        "en": "Yobe"
      },
      "operator": "西日本旅客鉄道",
      "network": null,
      "ref": null,
      "latitude": 34.8564797,
      "longitude": 134.6426708
    },
    {
      "id": "jp_hyogo_station_4196498618",
      "osm_id": 4196498618,
      "osm_type": "node",
      "prefecture_id": "jp_hyogo",
      "type": "station",
      "subtype": "private",
      "name": "山陽網干",
      "name_kana": "",
      "name_translations": {
        "en": "Sanyo-Aboshi"
      },
      "operator": "山陽電気鉄道",
      "network": "山陽電気鉄道網干線",
      "ref": null,
      "latitude": 34.7871577,
      "longitude": 134.5883518
    },
    {
      "id": "jp_hyogo_station_4307991460",
      "osm_id": 4307991460,
      "osm_type": "node",
      "prefecture_id": "jp_hyogo",
      "type": "station",
      "subtype": "private",
      "name": "魚住",
      "name_kana": "",
      "name_translations": {
        "en": "Uozumi"
      },
      "operator": null,
      "network": null,
      "ref": null,
      "latitude": 34.6964243,
      "longitude": 134.9060342
    },
    {
      "id": "jp_hyogo_station_4334857768",
      "osm_id": 4334857768,
      "osm_type": "node",
      "prefecture_id": "jp_hyogo",
      "type": "station",
      "subtype": "private",
      "name": "平松",
      "name_kana": "",
      "name_translations": {
        "en": "Hiramatsu"
      },
      "operator": "山陽電気鉄道",
      "network": "山陽電気鉄道網干線",
      "ref": null,
      "latitude": 34.7907012,
      "longitude": 134.6008379
    },
    {
      "id": "jp_hyogo_station_4424276494",
      "osm_id": 4424276494,
      "osm_type": "node",
      "prefecture_id": "jp_hyogo",
      "type": "station",
      "subtype": "private",
      "name": "大石",
      "name_kana": "",
      "name_translations": {
        "en": "Oishi"
      },
      "operator": null,
      "network": null,
      "ref": "HS28",
      "latitude": 34.7077018,
      "longitude": 135.2310396
    },
    {
      "id": "jp_hyogo_station_4463275392",
      "osm_id": 4463275392,
      "osm_type": "node",
      "prefecture_id": "jp_hyogo",
      "type": "station",
      "subtype": "private",
      "name": "山下",
      "name_kana": "",
      "name_translations": {
        "en": "Yamashita"
      },
      "operator": "能勢電鉄",
      "network": null,
      "ref": null,
      "latitude": 34.8931851,
      "longitude": 135.4124922
    },
    {
      "id": "jp_hyogo_station_4481776862",
      "osm_id": 4481776862,
      "osm_type": "node",
      "prefecture_id": "jp_hyogo",
      "type": "station",
      "subtype": "private",
      "name": "阪神国道",
      "name_kana": "",
      "name_translations": {
        "en": "Hanshin-Kokudō"
      },
      "operator": "阪急電鉄",
      "network": "阪急今津線",
      "ref": null,
      "latitude": 34.7373734,
      "longitude": 135.3548295
    },
    {
      "id": "jp_hyogo_ferry_terminal_4615855562",
      "osm_id": 4615855562,
      "osm_type": "node",
      "prefecture_id": "jp_hyogo",
      "type": "ferry_terminal",
      "subtype": null,
      "name": "奈座港",
      "name_kana": "",
      "name_translations": null,
      "operator": "坊勢汽船",
      "network": null,
      "ref": null,
      "latitude": 34.6529364,
      "longitude": 134.5105133
    },
    {
      "id": "jp_hyogo_ferry_terminal_4615856111",
      "osm_id": 4615856111,
      "osm_type": "node",
      "prefecture_id": "jp_hyogo",
      "type": "ferry_terminal",
      "subtype": null,
      "name": "真浦港",
      "name_kana": "",
      "name_translations": null,
      "operator": null,
      "network": null,
      "ref": null,
      "latitude": 34.6774585,
      "longitude": 134.5280597
    },
    {
      "id": "jp_hyogo_ferry_terminal_4615856112",
      "osm_id": 4615856112,
      "osm_type": "node",
      "prefecture_id": "jp_hyogo",
      "type": "ferry_terminal",
      "subtype": null,
      "name": "宮港",
      "name_kana": "",
      "name_translations": null,
      "operator": null,
      "network": null,
      "ref": null,
      "latitude": 34.6783395,
      "longitude": 134.5339092
    },
    {
      "id": "jp_hyogo_station_4803550962",
      "osm_id": 4803550962,
      "osm_type": "node",
      "prefecture_id": "jp_hyogo",
      "type": "station",
      "subtype": "private",
      "name": "岡本",
      "name_kana": "",
      "name_translations": {
        "en": "Okamoto"
      },
      "operator": null,
      "network": null,
      "ref": null,
      "latitude": 34.7291795,
      "longitude": 135.2759564
    },
    {
      "id": "jp_hyogo_station_5053068926",
      "osm_id": 5053068926,
      "osm_type": "node",
      "prefecture_id": "jp_hyogo",
      "type": "station",
      "subtype": "private",
      "name": "長田",
      "name_kana": "",
      "name_translations": {
        "en": "Nagata"
      },
      "operator": "神戸電鉄",
      "network": "神戸電鉄有馬線",
      "ref": "KB03",
      "latitude": 34.6816297,
      "longitude": 135.1496371
    },
    {
      "id": "jp_hyogo_station_5053069122",
      "osm_id": 5053069122,
      "osm_type": "node",
      "prefecture_id": "jp_hyogo",
      "type": "station",
      "subtype": "private",
      "name": "丸山",
      "name_kana": "",
      "name_translations": {
        "en": "Maruyama"
      },
      "operator": null,
      "network": null,
      "ref": "KB04",
      "latitude": 34.6857985,
      "longitude": 135.1441559
    },
    {
      "id": "jp_hyogo_station_5053069179",
      "osm_id": 5053069179,
      "osm_type": "node",
      "prefecture_id": "jp_hyogo",
      "type": "station",
      "subtype": "private",
      "name": "鵯越",
      "name_kana": "",
      "name_translations": {
        "en": "Hiyodorigoe"
      },
      "operator": null,
      "network": null,
      "ref": "KB05",
      "latitude": 34.6928686,
      "longitude": 135.1424877
    },
    {
      "id": "jp_hyogo_station_5160355789",
      "osm_id": 5160355789,
      "osm_type": "node",
      "prefecture_id": "jp_hyogo",
      "type": "station",
      "subtype": "private",
      "name": "東加古川",
      "name_kana": "",
      "name_translations": {
        "en": "Higashi Kakogawa"
      },
      "operator": null,
      "network": null,
      "ref": null,
      "latitude": 34.7458299,
      "longitude": 134.8691572
    },
    {
      "id": "jp_hyogo_ferry_terminal_5164285759",
      "osm_id": 5164285759,
      "osm_type": "node",
      "prefecture_id": "jp_hyogo",
      "type": "ferry_terminal",
      "subtype": null,
      "name": "中突堤旅客ターミナル",
      "name_kana": "",
      "name_translations": {
        "en": "Naka Pier Passenser Terminal"
      },
      "operator": null,
      "network": null,
      "ref": null,
      "latitude": 34.6800855,
      "longitude": 135.1885378
    },
    {
      "id": "jp_hyogo_station_5202121059",
      "osm_id": 5202121059,
      "osm_type": "node",
      "prefecture_id": "jp_hyogo",
      "type": "station",
      "subtype": "private",
      "name": "日岡",
      "name_kana": "",
      "name_translations": {
        "en": "Hioka"
      },
      "operator": null,
      "network": null,
      "ref": null,
      "latitude": 34.7786003,
      "longitude": 134.8571737
    },
    {
      "id": "jp_hyogo_station_5214161150",
      "osm_id": 5214161150,
      "osm_type": "node",
      "prefecture_id": "jp_hyogo",
      "type": "station",
      "subtype": "private",
      "name": "魚崎",
      "name_kana": "",
      "name_translations": {
        "en": "Uozaki"
      },
      "operator": "神戸新交通",
      "network": "神戸新交通",
      "ref": null,
      "latitude": 34.7137574,
      "longitude": 135.2686004
    },
    {
      "id": "jp_hyogo_station_5214161165",
      "osm_id": 5214161165,
      "osm_type": "node",
      "prefecture_id": "jp_hyogo",
      "type": "station",
      "subtype": "private",
      "name": "南魚崎",
      "name_kana": "",
      "name_translations": {
        "en": "Minami Uozaki"
      },
      "operator": "神戸新交通",
      "network": "神戸新交通",
      "ref": "R03",
      "latitude": 34.7068275,
      "longitude": 135.2677382
    },
    {
      "id": "jp_hyogo_station_5214161167",
      "osm_id": 5214161167,
      "osm_type": "node",
      "prefecture_id": "jp_hyogo",
      "type": "station",
      "subtype": "private",
      "name": "アイランド北口",
      "name_kana": "",
      "name_translations": {
        "en": "Island Kitaguchi"
      },
      "operator": "神戸新交通",
      "network": "神戸新交通",
      "ref": "R04",
      "latitude": 34.6931885,
      "longitude": 135.2687071
    },
    {
      "id": "jp_hyogo_station_5214161169",
      "osm_id": 5214161169,
      "osm_type": "node",
      "prefecture_id": "jp_hyogo",
      "type": "station",
      "subtype": "private",
      "name": "マリンパーク",
      "name_kana": "",
      "name_translations": {
        "en": "Marine Park"
      },
      "operator": "神戸新交通",
      "network": "神戸新交通",
      "ref": "R06",
      "latitude": 34.6842889,
      "longitude": 135.2701132
    },
    {
      "id": "jp_hyogo_station_5214161172",
      "osm_id": 5214161172,
      "osm_type": "node",
      "prefecture_id": "jp_hyogo",
      "type": "station",
      "subtype": "private",
      "name": "アイランドセンター",
      "name_kana": "",
      "name_translations": {
        "en": "Island Center"
      },
      "operator": "神戸新交通",
      "network": "神戸新交通",
      "ref": "R05",
      "latitude": 34.6892331,
      "longitude": 135.2693072
    },
    {
      "id": "jp_hyogo_station_5325062379",
      "osm_id": 5325062379,
      "osm_type": "node",
      "prefecture_id": "jp_hyogo",
      "type": "station",
      "subtype": "private",
      "name": "網干",
      "name_kana": "",
      "name_translations": {
        "en": "Aboshi"
      },
      "operator": null,
      "network": null,
      "ref": null,
      "latitude": 34.814308,
      "longitude": 134.5844888
    },
    {
      "id": "jp_hyogo_station_5364146900",
      "osm_id": 5364146900,
      "osm_type": "node",
      "prefecture_id": "jp_hyogo",
      "type": "station",
      "subtype": "private",
      "name": "野里",
      "name_kana": "のざと",
      "name_translations": {
        "en": "Nozato"
      },
      "operator": null,
      "network": null,
      "ref": null,
      "latitude": 34.856087,
      "longitude": 134.7112045
    },
    {
      "id": "jp_hyogo_station_5405054258",
      "osm_id": 5405054258,
      "osm_type": "node",
      "prefecture_id": "jp_hyogo",
      "type": "station",
      "subtype": "private",
      "name": "久谷",
      "name_kana": "",
      "name_translations": {
        "en": "Kutani"
      },
      "operator": null,
      "network": null,
      "ref": null,
      "latitude": 35.6275995,
      "longitude": 134.5170027
    },
    {
      "id": "jp_hyogo_station_5424528190",
      "osm_id": 5424528190,
      "osm_type": "node",
      "prefecture_id": "jp_hyogo",
      "type": "station",
      "subtype": "private",
      "name": "広畑",
      "name_kana": "",
      "name_translations": {
        "en": "Hirohata"
      },
      "operator": "山陽電気鉄道",
      "network": "山陽電気鉄道網干線",
      "ref": null,
      "latitude": 34.7978865,
      "longitude": 134.6277087
    },
    {
      "id": "jp_hyogo_station_5539979417",
      "osm_id": 5539979417,
      "osm_type": "node",
      "prefecture_id": "jp_hyogo",
      "type": "station",
      "subtype": "private",
      "name": "板宿",
      "name_kana": "",
      "name_translations": {
        "en": "Itayado"
      },
      "operator": "山陽電気鉄道",
      "network": "山陽電気鉄道本線",
      "ref": null,
      "latitude": 34.6601602,
      "longitude": 135.1332776
    },
    {
      "id": "jp_hyogo_station_5539982233",
      "osm_id": 5539982233,
      "osm_type": "node",
      "prefecture_id": "jp_hyogo",
      "type": "station",
      "subtype": "private",
      "name": "月見山",
      "name_kana": "",
      "name_translations": {
        "en": "Tsukimiyama"
      },
      "operator": "山陽電気鉄道",
      "network": null,
      "ref": null,
      "latitude": 34.6499641,
      "longitude": 135.1218528
    },
    {
      "id": "jp_hyogo_station_5703142264",
      "osm_id": 5703142264,
      "osm_type": "node",
      "prefecture_id": "jp_hyogo",
      "type": "station",
      "subtype": "private",
      "name": "御着",
      "name_kana": "",
      "name_translations": {
        "en": "Gochaku"
      },
      "operator": null,
      "network": null,
      "ref": null,
      "latitude": 34.8170591,
      "longitude": 134.7351238
    },
    {
      "id": "jp_hyogo_bus_terminal_5788854657",
      "osm_id": 5788854657,
      "osm_type": "node",
      "prefecture_id": "jp_hyogo",
      "type": "bus_terminal",
      "subtype": null,
      "name": "神姫バス 西脇案内所",
      "name_kana": "",
      "name_translations": null,
      "operator": null,
      "network": null,
      "ref": null,
      "latitude": 34.9845393,
      "longitude": 134.9683711
    },
    {
      "id": "jp_hyogo_station_5803698781",
      "osm_id": 5803698781,
      "osm_type": "node",
      "prefecture_id": "jp_hyogo",
      "type": "station",
      "subtype": "private",
      "name": "湊川",
      "name_kana": "",
      "name_translations": {
        "en": "Minatogawa"
      },
      "operator": null,
      "network": null,
      "ref": "KB02",
      "latitude": 34.6792856,
      "longitude": 135.166104
    },
    {
      "id": "jp_hyogo_station_5803699061",
      "osm_id": 5803699061,
      "osm_type": "node",
      "prefecture_id": "jp_hyogo",
      "type": "station",
      "subtype": "private",
      "name": "藍那",
      "name_kana": "",
      "name_translations": {
        "en": "Aina"
      },
      "operator": "神戸電鉄",
      "network": "神戸電鉄粟生線",
      "ref": null,
      "latitude": 34.7324824,
      "longitude": 135.118134
    },
    {
      "id": "jp_hyogo_bus_terminal_6038515701",
      "osm_id": 6038515701,
      "osm_type": "node",
      "prefecture_id": "jp_hyogo",
      "type": "bus_terminal",
      "subtype": null,
      "name": "桜森町バスセンター",
      "name_kana": "",
      "name_translations": null,
      "operator": null,
      "network": null,
      "ref": null,
      "latitude": 34.7424773,
      "longitude": 135.1710804
    },
    {
      "id": "jp_hyogo_station_6054922137",
      "osm_id": 6054922137,
      "osm_type": "node",
      "prefecture_id": "jp_hyogo",
      "type": "station",
      "subtype": "private",
      "name": "宝塚",
      "name_kana": "",
      "name_translations": {
        "en": "Takarazuka"
      },
      "operator": null,
      "network": null,
      "ref": null,
      "latitude": 34.8108711,
      "longitude": 135.3399311
    },
    {
      "id": "jp_hyogo_station_6055006691",
      "osm_id": 6055006691,
      "osm_type": "node",
      "prefecture_id": "jp_hyogo",
      "type": "station",
      "subtype": "jr",
      "name": "市島",
      "name_kana": "いちじま",
      "name_translations": {
        "en": "Ichijima"
      },
      "operator": "西日本旅客鉄道",
      "network": null,
      "ref": null,
      "latitude": 35.207859,
      "longitude": 135.1300328
    },
    {
      "id": "jp_hyogo_station_6055024505",
      "osm_id": 6055024505,
      "osm_type": "node",
      "prefecture_id": "jp_hyogo",
      "type": "station",
      "subtype": "private",
      "name": "粟生",
      "name_kana": "",
      "name_translations": {
        "en": "Ao"
      },
      "operator": null,
      "network": null,
      "ref": null,
      "latitude": 34.8572532,
      "longitude": 134.9094873
    },
    {
      "id": "jp_hyogo_station_6057309186",
      "osm_id": 6057309186,
      "osm_type": "node",
      "prefecture_id": "jp_hyogo",
      "type": "station",
      "subtype": "private",
      "name": "逆瀬川",
      "name_kana": "",
      "name_translations": {
        "en": "Sasegawa"
      },
      "operator": null,
      "network": null,
      "ref": null,
      "latitude": 34.7976904,
      "longitude": 135.3504209
    },
    {
      "id": "jp_hyogo_station_6060340456",
      "osm_id": 6060340456,
      "osm_type": "node",
      "prefecture_id": "jp_hyogo",
      "type": "station",
      "subtype": "private",
      "name": "川西能勢口",
      "name_kana": "",
      "name_translations": null,
      "operator": "阪急電鉄;能勢電鉄",
      "network": "阪急電鉄宝塚線;能勢電鉄妙見線",
      "ref": null,
      "latitude": 34.827561,
      "longitude": 135.4142685
    },
    {
      "id": "jp_hyogo_station_6124550318",
      "osm_id": 6124550318,
      "osm_type": "node",
      "prefecture_id": "jp_hyogo",
      "type": "station",
      "subtype": "private",
      "name": "大阪空港",
      "name_kana": "おおさかくうこう",
      "name_translations": {
        "en": "Osaka Airport"
      },
      "operator": "大阪高速鉄道",
      "network": "大阪モノレール線",
      "ref": null,
      "latitude": 34.7913771,
      "longitude": 135.4420026
    },
    {
      "id": "jp_hyogo_bus_terminal_6222486114",
      "osm_id": 6222486114,
      "osm_type": "node",
      "prefecture_id": "jp_hyogo",
      "type": "bus_terminal",
      "subtype": null,
      "name": "神姫バス 前之庄出張所",
      "name_kana": "",
      "name_translations": null,
      "operator": null,
      "network": null,
      "ref": null,
      "latitude": 34.9732015,
      "longitude": 134.6858034
    },
    {
      "id": "jp_hyogo_station_6295276714",
      "osm_id": 6295276714,
      "osm_type": "node",
      "prefecture_id": "jp_hyogo",
      "type": "station",
      "subtype": "private",
      "name": "須磨寺",
      "name_kana": "",
      "name_translations": {
        "en": "Sumadera"
      },
      "operator": "山陽電気鉄道",
      "network": null,
      "ref": null,
      "latitude": 34.646312,
      "longitude": 135.1163312
    },
    {
      "id": "jp_hyogo_bus_terminal_6307475047",
      "osm_id": 6307475047,
      "osm_type": "node",
      "prefecture_id": "jp_hyogo",
      "type": "bus_terminal",
      "subtype": null,
      "name": "筑紫が丘西",
      "name_kana": "",
      "name_translations": null,
      "operator": "みなと観光バス株式会社",
      "network": "21系統",
      "ref": null,
      "latitude": 34.7469643,
      "longitude": 135.1672054
    },
    {
      "id": "jp_hyogo_station_6375709652",
      "osm_id": 6375709652,
      "osm_type": "node",
      "prefecture_id": "jp_hyogo",
      "type": "station",
      "subtype": "private",
      "name": "加古川",
      "name_kana": "",
      "name_translations": {
        "en": "Kakogawa"
      },
      "operator": null,
      "network": null,
      "ref": "JR-A79",
      "latitude": 34.7678031,
      "longitude": 134.8394705
    },
    {
      "id": "jp_hyogo_station_6417343668",
      "osm_id": 6417343668,
      "osm_type": "node",
      "prefecture_id": "jp_hyogo",
      "type": "station",
      "subtype": "private",
      "name": "星",
      "name_kana": "",
      "name_translations": {
        "en": "Hoshi"
      },
      "operator": null,
      "network": null,
      "ref": null,
      "latitude": 34.7336169,
      "longitude": 135.2059648
    },
    {
      "id": "jp_hyogo_station_6417343692",
      "osm_id": 6417343692,
      "osm_type": "node",
      "prefecture_id": "jp_hyogo",
      "type": "station",
      "subtype": "private",
      "name": "虹",
      "name_kana": "",
      "name_translations": {
        "en": "Niji"
      },
      "operator": null,
      "network": null,
      "ref": null,
      "latitude": 34.7274723,
      "longitude": 135.2112709
    },
    {
      "id": "jp_hyogo_station_6624542006",
      "osm_id": 6624542006,
      "osm_type": "node",
      "prefecture_id": "jp_hyogo",
      "type": "station",
      "subtype": "private",
      "name": "相生",
      "name_kana": "",
      "name_translations": {
        "en": "Aioi"
      },
      "operator": null,
      "network": null,
      "ref": null,
      "latitude": 34.8182702,
      "longitude": 134.4739893
    },
    {
      "id": "jp_hyogo_station_6785165713",
      "osm_id": 6785165713,
      "osm_type": "node",
      "prefecture_id": "jp_hyogo",
      "type": "station",
      "subtype": "private",
      "name": "西宮北口",
      "name_kana": "",
      "name_translations": {
        "en": "Nishinomiya-Kitaguchi"
      },
      "operator": null,
      "network": null,
      "ref": null,
      "latitude": 34.7459621,
      "longitude": 135.3568008
    },
    {
      "id": "jp_hyogo_station_6791607264",
      "osm_id": 6791607264,
      "osm_type": "node",
      "prefecture_id": "jp_hyogo",
      "type": "station",
      "subtype": "private",
      "name": "今津",
      "name_kana": "",
      "name_translations": {
        "en": "Imazu"
      },
      "operator": "阪急電鉄",
      "network": "今津線",
      "ref": null,
      "latitude": 34.7320232,
      "longitude": 135.3516272
    },
    {
      "id": "jp_hyogo_station_7097087795",
      "osm_id": 7097087795,
      "osm_type": "node",
      "prefecture_id": "jp_hyogo",
      "type": "station",
      "subtype": "private",
      "name": "西代",
      "name_kana": "",
      "name_translations": {
        "en": "Nishidai"
      },
      "operator": "山陽電気鉄道",
      "network": null,
      "ref": null,
      "latitude": 34.6624401,
      "longitude": 135.1441617
    },