{
  "fetchedAt": "2025-12-11T00:55:13.880Z",
  "prefecture": {
    "id": "aichi",
    "name": "愛知県"
  },
  "cities": [
    {
      "id": "aichi_yatomi",
      "osmId": 569005322,
      "prefectureId": "aichi",
      "name": "弥富市",
      "nameKana": null,
      "nameTranslations": {
        "en": "Yatomi"
      },
      "type": "市",
      "countryCode": "jp",
      "latitude": 35.1102164,
      "longitude": 136.7248069
    },
    {
      "id": "aichi_chita",
      "osmId": 569005328,
      "prefectureId": "aichi",
      "name": "知多市",
      "nameKana": null,
      "nameTranslations": {
        "en": "Chita"
      },
      "type": "市",
      "countryCode": "jp",
      "latitude": 34.970089,
      "longitude": 136.860738
    },
    {
      "id": "aichi_takahama",
      "osmId": 569005331,
      "prefectureId": "aichi",
      "name": "高浜市",
      "nameKana": null,
      "nameTranslations": {
        "en": "Takahama"
      },
      "type": "市",
      "countryCode": "jp",
      "latitude": 34.920796,
      "longitude": 136.988604
    },
    {
      "id": "aichi_hekinan",
      "osmId": 569005334,
      "prefectureId": "aichi",
      "name": "碧南市",
      "nameKana": null,
      "nameTranslations": {
        "en": "Hekinan"
      },
      "type": "市",
      "countryCode": "jp",
      "latitude": 34.86505,
      "longitude": 136.984523
    },
    {
      "id": "aichi_nishio",
      "osmId": 569005341,
      "prefectureId": "aichi",
      "name": "西尾市",
      "nameKana": null,
      "nameTranslations": {
        "en": "Nishio"
      },
      "type": "市",
      "countryCode": "jp",
      "latitude": 34.822498,
      "longitude": 137.069626
    },
    {
      "id": "aichi_anjo",
      "osmId": 569005345,
      "prefectureId": "aichi",
      "name": "安城市",
      "nameKana": null,
      "nameTranslations": {
        "en": "Anjo"
      },
      "type": "市",
      "countryCode": "jp",
      "latitude": 34.947764,
      "longitude": 137.075563
    },
    {
      "id": "aichi_tokoname",
      "osmId": 569005348,
      "prefectureId": "aichi",
      "name": "常滑市",
      "nameKana": null,
      "nameTranslations": {
        "en": "Tokoname"
      },
      "type": "市",
      "countryCode": "jp",
      "latitude": 34.895858,
      "longitude": 136.838323
    },
    {
      "id": "aichi_handa",
      "osmId": 569005352,
      "prefectureId": "aichi",
      "name": "半田市",
      "nameKana": null,
      "nameTranslations": {
        "en": "Handa"
      },
      "type": "市",
      "countryCode": "jp",
      "latitude": 34.8938136,
      "longitude": 136.9369523
    },
    {
      "id": "aichi_tokai",
      "osmId": 569005364,
      "prefectureId": "aichi",
      "name": "東海市",
      "nameKana": null,
      "nameTranslations": {
        "en": "Tokai"
      },
      "type": "市",
      "countryCode": "jp",
      "latitude": 35.0228927,
      "longitude": 136.9023574
    },
    {
      "id": "aichi_nagoya",
      "osmId": 569005393,
      "prefectureId": "aichi",
      "name": "名古屋市",
      "nameKana": null,
      "nameTranslations": {
        "en": "Nagoya"
      },
      "type": "市",
      "countryCode": "jp",
      "latitude": 35.1851045,
      "longitude": 136.8998438
    },
    {
      "id": "aichi_toyoake",
      "osmId": 569005395,
      "prefectureId": "aichi",
      "name": "豊明市",
      "nameKana": null,
      "nameTranslations": {
        "en": "Toyoake"
      },
      "type": "市",
      "countryCode": "jp",
      "latitude": 35.053669,
      "longitude": 137.0129415
    },
    {
      "id": "aichi_kariya",
      "osmId": 569005398,
      "prefectureId": "aichi",
      "name": "刈谷市",
      "nameKana": null,
      "nameTranslations": {
        "en": "Kariya"
      },
      "type": "市",
      "countryCode": "jp",
      "latitude": 34.974678,
      "longitude": 137.002791
    },
    {
      "id": "aichi_chiryu",
      "osmId": 569005403,
      "prefectureId": "aichi",
      "name": "知立市",
      "nameKana": null,
      "nameTranslations": {
        "en": "Chiryu"
      },
      "type": "市",
      "countryCode": "jp",
      "latitude": 35.0014831,
      "longitude": 137.0516484
    },
    {
      "id": "aichi_obu",
      "osmId": 569005404,
      "prefectureId": "aichi",
      "name": "大府市",
      "nameKana": "おおぶし",
      "nameTranslations": {
        "en": "Obu"
      },
      "type": "市",
      "countryCode": "jp",
      "latitude": 35.0165825,
      "longitude": 136.954545
    },
    {
      "id": "aichi_miyoshi",
      "osmId": 569005420,
      "prefectureId": "aichi",
      "name": "みよし市",
      "nameKana": null,
      "nameTranslations": {
        "en": "Miyoshi"
      },
      "type": "市",
      "countryCode": "jp",
      "latitude": 35.0993323,
      "longitude": 137.099531
    },
    {
      "id": "aichi_nagakute",
      "osmId": 569005430,
      "prefectureId": "aichi",
      "name": "長久手市",
      "nameKana": null,
      "nameTranslations": {
        "en": "Nagakute"
      },
      "type": "市",
      "countryCode": "jp",
      "latitude": 35.1838064,
      "longitude": 137.0487181
    },
    {
      "id": "aichi_nisshin",
      "osmId": 569005431,
      "prefectureId": "aichi",
      "name": "日進市",
      "nameKana": "にっしんし",
      "nameTranslations": {
        "en": "Nisshin"
      },
      "type": "市",
      "countryCode": "jp",
      "latitude": 35.1319241,
      "longitude": 137.0393314
    },
    {
      "id": "aichi_toyohashi",
      "osmId": 569005441,
      "prefectureId": "aichi",
      "name": "豊橋市",
      "nameKana": null,
      "nameTranslations": {
        "en": "Toyohashi"
      },
      "type": "市",
      "countryCode": "jp",
      "latitude": 34.769123,
      "longitude": 137.391461
    },
    {
      "id": "aichi_tahara",
      "osmId": 569005450,
      "prefectureId": "aichi",
      "name": "田原市",
      "nameKana": null,
      "nameTranslations": {
        "en": "Tahara"
      },
      "type": "市",
      "countryCode": "jp",
      "latitude": 34.6690304,
      "longitude": 137.2637129
    },
    {
      "id": "aichi_okazaki",
      "osmId": 569005455,
      "prefectureId": "aichi",
      "name": "岡崎市",
      "nameKana": null,
      "nameTranslations": {
        "en": "Okazaki"
      },
      "type": "市",
      "countryCode": "jp",
      "latitude": 34.9548784,
      "longitude": 137.1728226
    },
    {
      "id": "aichi_gamagori",
      "osmId": 569005458,
      "prefectureId": "aichi",
      "name": "蒲郡市",
      "nameKana": null,
      "nameTranslations": {
        "en": "Gamagori"
      },
      "type": "市",
      "countryCode": "jp",
      "latitude": 34.833929,
      "longitude": 137.225163
    },
    {
      "id": "aichi_toyokawa",
      "osmId": 569005460,
      "prefectureId": "aichi",
      "name": "豊川市",
      "nameKana": "とよかわし",
      "nameTranslations": {
        "en": "Toyokawa"
      },
      "type": "市",
      "countryCode": "jp",
      "latitude": 34.827644,
      "longitude": 137.378586
    },
    {
      "id": "aichi_toyota",
      "osmId": 569005466,
      "prefectureId": "aichi",
      "name": "豊田市",
      "nameKana": null,
      "nameTranslations": {
        "en": "Toyota"
      },
      "type": "市",
      "countryCode": "jp",
      "latitude": 35.0834524,
      "longitude": 137.156737
    },
    {
      "id": "aichi_shinshiro",
      "osmId": 569005469,
      "prefectureId": "aichi",
      "name": "新城市",
      "nameKana": "しんしろし",
      "nameTranslations": {
        "en": "Shinshiro"
      },
      "type": "市",
      "countryCode": "jp",
      "latitude": 34.8988809,
      "longitude": 137.4977484
    },
    {
      "id": "aichi_tsushima",
      "osmId": 569005479,
      "prefectureId": "aichi",
      "name": "津島市",
      "nameKana": null,
      "nameTranslations": {
        "en": "Tsushima"
      },
      "type": "市",
      "countryCode": "jp",
      "latitude": 35.1667843,
      "longitude": 136.7582134
    },
    {
      "id": "aichi_aisai",
      "osmId": 569005482,
      "prefectureId": "aichi",
      "name": "愛西市",
      "nameKana": null,
      "nameTranslations": {
        "en": "Aisai"
      },
      "type": "市",
      "countryCode": "jp",
      "latitude": 35.1531094,
      "longitude": 136.7280448
    },
    {
      "id": "aichi_inazawa",
      "osmId": 569005495,
      "prefectureId": "aichi",
      "name": "稲沢市",
      "nameKana": null,
      "nameTranslations": {
        "en": "Inazawa"
      },
      "type": "市",
      "countryCode": "jp",
      "latitude": 35.240484,
      "longitude": 136.758964
    },
    {
      "id": "aichi_kiyosu",
      "osmId": 569005505,
      "prefectureId": "aichi",
      "name": "清須市",
      "nameKana": null,
      "nameTranslations": {
        "en": "Kiyosu"
      },
      "type": "市",
      "countryCode": "jp",
      "latitude": 35.2002235,
      "longitude": 136.8531268
    },
    {
      "id": "aichi_ichinomiya",
      "osmId": 569005518,
      "prefectureId": "aichi",
      "name": "一宮市",
      "nameKana": null,
      "nameTranslations": {
        "en": "Ichinomiya"
      },
      "type": "市",
      "countryCode": "jp",
      "latitude": 35.304878,
      "longitude": 136.806915
    },
    {
      "id": "aichi_kitanagoya",
      "osmId": 569005520,
      "prefectureId": "aichi",
      "name": "北名古屋市",
      "nameKana": null,
      "nameTranslations": {
        "en": "Kitanagoya"
      },
      "type": "市",
      "countryCode": "jp",
      "latitude": 35.2456658,
      "longitude": 136.8664203
    },
    {
      "id": "aichi_owariasahi",
      "osmId": 569005539,
      "prefectureId": "aichi",
      "name": "尾張旭市",
      "nameKana": null,
      "nameTranslations": {
        "en": "Owariasahi"
      },
      "type": "市",
      "countryCode": "jp",
      "latitude": 35.2165236,
      "longitude": 137.0352191
    },
    {
      "id": "aichi_kasugai",
      "osmId": 569005542,
      "prefectureId": "aichi",
      "name": "春日井市",
      "nameKana": null,
      "nameTranslations": {
        "en": "Kasugai"
      },
      "type": "市",
      "countryCode": "jp",
      "latitude": 35.2476278,
      "longitude": 136.9721611
    },
    {
      "id": "aichi_komaki",
      "osmId": 569005544,
      "prefectureId": "aichi",
      "name": "小牧市",
      "nameKana": null,
      "nameTranslations": {
        "en": "Komaki"
      },
      "type": "市",
      "countryCode": "jp",
      "latitude": 35.3066073,
      "longitude": 136.934098
    },
    {
      "id": "aichi_konan",
      "osmId": 569005547,
      "prefectureId": "aichi",
      "name": "江南市",
      "nameKana": "こうなんし",
      "nameTranslations": {
        "en": "Konan"
      },
      "type": "市",
      "countryCode": "jp",
      "latitude": 35.344508,
      "longitude": 136.866742
    },
    {
      "id": "aichi_inuyama",
      "osmId": 569005557,
      "prefectureId": "aichi",
      "name": "犬山市",
      "nameKana": null,
      "nameTranslations": {
        "en": "Inuyama"
      },
      "type": "市",
      "countryCode": "jp",
      "latitude": 35.3609734,
      "longitude": 136.9845491
    },
    {
      "id": "aichi_seto",
      "osmId": 569005558,
      "prefectureId": "aichi",
      "name": "瀬戸市",
      "nameKana": null,
      "nameTranslations": {
        "en": "Seto"
      },
      "type": "市",
      "countryCode": "jp",
      "latitude": 35.2238601,
      "longitude": 137.0840005
    },
    {
      "id": "aichi_ama",
      "osmId": 713369193,
      "prefectureId": "aichi",
      "name": "あま市",
      "nameKana": null,
      "nameTranslations": {
        "en": "Ama"
      },
      "type": "市",
      "countryCode": "jp",
      "latitude": 35.191379,
      "longitude": 136.793513
    },
    {
      "id": "aichi_iwakura",
      "osmId": 3325055416,
      "prefectureId": "aichi",
      "name": "岩倉市",
      "nameKana": null,
      "nameTranslations": {
        "en": "Iwakura"
      },
      "type": "市",
      "countryCode": "jp",
      "latitude": 35.274632,
      "longitude": 136.870713
    }
  ],
  "machi": [
    {
      "id": "aichi_unknown_higashinagura",
      "osmId": 664309215,
      "name": "東納庫",
      "nameKana": "ひがしなぐら",
      "nameTranslations": {
        "en": "Higashinagura"
      },
      "latitude": 35.1444539,
      "longitude": 137.5504988,
      "lines": null,
      "prefectureId": "aichi",
      "cityId": null,
      "countryCode": "jp",
      "prefectureName": "愛知県",
      "prefectureNameTranslations": null,
      "cityName": null,
      "cityNameTranslations": null,
      "placeType": "quarter"
    },
    {
      "id": "aichi_unknown_yatsuhashi",
      "osmId": 664309217,
      "name": "八橋",
      "nameKana": "やつはし",
      "nameTranslations": {
        "en": "Yatsuhashi"
      },
      "latitude": 35.1273376,
      "longitude": 137.5933179,
      "lines": null,
      "prefectureId": "aichi",
      "cityId": null,
      "countryCode": "jp",
      "prefectureName": "愛知県",
      "prefectureNameTranslations": null,
      "cityName": null,
      "cityNameTranslations": null,
      "placeType": "quarter"
    },
    {
      "id": "aichi_unknown_富栄",
      "osmId": 664310280,
      "name": "富栄",
      "nameKana": null,
      "nameTranslations": null,
      "latitude": 34.9470739,
      "longitude": 137.5961575,
      "lines": null,
      "prefectureId": "aichi",
      "cityId": null,
      "countryCode": "jp",
      "prefectureName": "愛知県",
      "prefectureNameTranslations": null,
      "cityName": null,
      "cityNameTranslations": null,
      "placeType": "quarter"
    },
    {
      "id": "aichi_unknown_大野",
      "osmId": 664310283,
      "name": "大野",
      "nameKana": null,
      "nameTranslations": null,
      "latitude": 34.9519162,
      "longitude": 137.6101053,
      "lines": null,
      "prefectureId": "aichi",
      "cityId": null,
      "countryCode": "jp",
      "prefectureName": "愛知県",
      "prefectureNameTranslations": null,
      "cityName": null,
      "cityNameTranslations": null,
      "placeType": "quarter"
    },
    {
      "id": "aichi_unknown_井代",
      "osmId": 664310284,
      "name": "井代",
      "nameKana": null,
      "nameTranslations": null,
      "latitude": 34.9603477,
      "longitude": 137.6132723,
      "lines": null,
      "prefectureId": "aichi",
      "cityId": null,
      "countryCode": "jp",
      "prefectureName": "愛知県",
      "prefectureNameTranslations": null,
      "cityName": null,
      "cityNameTranslations": null,
      "placeType": "quarter"
    },
    {
      "id": "aichi_unknown_能登瀬",
      "osmId": 664310285,
      "name": "能登瀬",
      "nameKana": null,
      "nameTranslations": null,
      "latitude": 34.9829089,
      "longitude": 137.6198572,
      "lines": null,
      "prefectureId": "aichi",
      "cityId": null,
      "countryCode": "jp",
      "prefectureName": "愛知県",
      "prefectureNameTranslations": null,
      "cityName": null,
      "cityNameTranslations": null,
      "placeType": "quarter"
    },
    {
      "id": "aichi_unknown_名越",
      "osmId": 664310286,
      "name": "名越",
      "nameKana": null,
      "nameTranslations": null,
      "latitude": 34.9873958,
      "longitude": 137.6268549,
      "lines": null,
      "prefectureId": "aichi",
      "cityId": null,
      "countryCode": "jp",
      "prefectureName": "愛知県",
      "prefectureNameTranslations": null,
      "cityName": null,
      "cityNameTranslations": null,
      "placeType": "quarter"
    },
    {
      "id": "aichi_unknown_豊岡",
      "osmId": 664310287,
      "name": "豊岡",
      "nameKana": null,
      "nameTranslations": null,
      "latitude": 34.9904081,
      "longitude": 137.6310076,
      "lines": null,
      "prefectureId": "aichi",
      "cityId": null,
      "countryCode": "jp",
      "prefectureName": "愛知県",
      "prefectureNameTranslations": null,
      "cityName": null,
      "cityNameTranslations": null,
      "placeType": "quarter"
    },
    {
      "id": "aichi_unknown_睦平",
      "osmId": 664310755,
      "name": "睦平",
      "nameKana": null,
      "nameTranslations": null,
      "latitude": 34.9509199,
      "longitude": 137.6233048,
      "lines": null,
      "prefectureId": "aichi",
      "cityId": null,
      "countryCode": "jp",
      "prefectureName": "愛知県",
      "prefectureNameTranslations": null,
      "cityName": null,
      "cityNameTranslations": null,
      "placeType": "quarter"
    },
    {
      "id": "aichi_unknown_細川",
      "osmId": 664314373,
      "name": "細川",
      "nameKana": null,
      "nameTranslations": null,
      "latitude": 34.9608954,
      "longitude": 137.6367005,
      "lines": null,
      "prefectureId": "aichi",
      "cityId": null,
      "countryCode": "jp",
      "prefectureName": "愛知県",
      "prefectureNameTranslations": null,
      "cityName": null,
      "cityNameTranslations": null,
      "placeType": "quarter"
    },
    {
      "id": "aichi_unknown_巣山",
      "osmId": 664314374,
      "name": "巣山",
      "nameKana": null,
      "nameTranslations": null,
      "latitude": 34.9582298,
      "longitude": 137.6550112,
      "lines": null,
      "prefectureId": "aichi",
      "cityId": null,
      "countryCode": "jp",
      "prefectureName": "愛知県",
      "prefectureNameTranslations": null,
      "cityName": null,
      "cityNameTranslations": null,
      "placeType": "quarter"
    },
    {
      "id": "aichi_unknown_七郷一色",
      "osmId": 664314376,
      "name": "七郷一色",
      "nameKana": null,
      "nameTranslations": null,
      "latitude": 34.9619125,
      "longitude": 137.6758666,
      "lines": null,
      "prefectureId": "aichi",
      "cityId": null,
      "countryCode": "jp",
      "prefectureName": "愛知県",
      "prefectureNameTranslations": null,
      "cityName": null,
      "cityNameTranslations": null,
      "placeType": "quarter"
    },
    {
      "id": "aichi_unknown_上吉田",
      "osmId": 664315109,
      "name": "上吉田",
      "nameKana": null,
      "nameTranslations": null,
      "latitude": 34.8916098,
      "longitude": 137.6065126,
      "lines": null,
      "prefectureId": "aichi",
      "cityId": null,
      "countryCode": "jp",
      "prefectureName": "愛知県",
      "prefectureNameTranslations": null,
      "cityName": null,
      "cityNameTranslations": null,
      "placeType": "quarter"
    },
    {
      "id": "aichi_unknown_竹ノ輪",
      "osmId": 664315110,
      "name": "竹ノ輪",
      "nameKana": null,
      "nameTranslations": null,
      "latitude": 34.8935735,
      "longitude": 137.5830152,
      "lines": null,
      "prefectureId": "aichi",
      "cityId": null,
      "countryCode": "jp",
      "prefectureName": "愛知県",
      "prefectureNameTranslations": null,
      "cityName": null,
      "cityNameTranslations": null,
      "placeType": "quarter"
    },
    {
      "id": "aichi_unknown_下吉田",
      "osmId": 664315111,
      "name": "下吉田",
      "nameKana": null,
      "nameTranslations": null,
      "latitude": 34.9225868,
      "longitude": 137.6108574,
      "lines": null,
      "prefectureId": "aichi",
      "cityId": null,
      "countryCode": "jp",
      "prefectureName": "愛知県",
      "prefectureNameTranslations": null,
      "cityName": null,
      "cityNameTranslations": null,
      "placeType": "quarter"
    },
    {
      "id": "aichi_unknown_竹広",
      "osmId": 664319018,
      "name": "竹広",
      "nameKana": null,
      "nameTranslations": null,
      "latitude": 34.9177501,
      "longitude": 137.5303913,
      "lines": null,
      "prefectureId": "aichi",
      "cityId": null,
      "countryCode": "jp",
      "prefectureName": "愛知県",
      "prefectureNameTranslations": null,
      "cityName": null,
      "cityNameTranslations": null,
      "placeType": "quarter"
    },
    {
      "id": "aichi_unknown_八束穂",
      "osmId": 664319019,
      "name": "八束穂",
      "nameKana": null,
      "nameTranslations": null,
      "latitude": 34.9201491,
      "longitude": 137.5377398,
      "lines": null,
      "prefectureId": "aichi",
      "cityId": null,
      "countryCode": "jp",
      "prefectureName": "愛知県",
      "prefectureNameTranslations": null,
      "cityName": null,
      "cityNameTranslations": null,
      "placeType": "quarter"
    },
    {
      "id": "aichi_unknown_緑が丘",
      "osmId": 664319020,
      "name": "緑が丘",
      "nameKana": null,
      "nameTranslations": null,
      "latitude": 34.9276805,
      "longitude": 137.5469934,
      "lines": null,
      "prefectureId": "aichi",
      "cityId": null,
      "countryCode": "jp",
      "prefectureName": "愛知県",
      "prefectureNameTranslations": null,
      "cityName": null,
      "cityNameTranslations": null,
      "placeType": "quarter"
    },
    {
      "id": "aichi_unknown_浅谷",
      "osmId": 664319021,
      "name": "浅谷",
      "nameKana": null,
      "nameTranslations": null,
      "latitude": 34.9373866,
      "longitude": 137.5323645,
      "lines": null,
      "prefectureId": "aichi",
      "cityId": null,
      "countryCode": "jp",
      "prefectureName": "愛知県",
      "prefectureNameTranslations": null,
      "cityName": null,
      "cityNameTranslations": null,
      "placeType": "quarter"
    },
    {
      "id": "aichi_unknown_出沢",
      "osmId": 664319022,
      "name": "出沢",
      "nameKana": null,
      "nameTranslations": null,
      "latitude": 34.941291,
      "longitude": 137.541346,
      "lines": null,
      "prefectureId": "aichi",
      "cityId": null,
      "countryCode": "jp",
      "prefectureName": "愛知県",
      "prefectureNameTranslations": null,
      "cityName": null,
      "cityNameTranslations": null,
      "placeType": "quarter"
    },
    {
      "id": "aichi_unknown_有海",
      "osmId": 664319023,
      "name": "有海",
      "nameKana": null,
      "nameTranslations": null,
      "latitude": 34.9181406,
      "longitude": 137.5514841,
      "lines": null,
      "prefectureId": "aichi",
      "cityId": null,
      "countryCode": "jp",
      "prefectureName": "愛知県",
      "prefectureNameTranslations": null,
      "cityName": null,
      "cityNameTranslations": null,
      "placeType": "quarter"
    },
    {
      "id": "aichi_unknown_乗本",
      "osmId": 664319024,
      "name": "乗本",
      "nameKana": null,
      "nameTranslations": null,
      "latitude": 34.9223807,
      "longitude": 137.5686986,
      "lines": null,
      "prefectureId": "aichi",
      "cityId": null,
      "countryCode": "jp",
      "prefectureName": "愛知県",
      "prefectureNameTranslations": null,
      "cityName": null,
      "cityNameTranslations": null,
      "placeType": "quarter"
    },
    {
      "id": "aichi_unknown_長篠",
      "osmId": 664319025,
      "name": "長篠",
      "nameKana": null,
      "nameTranslations": null,
      "latitude": 34.9271227,
      "longitude": 137.5616223,
      "lines": null,
      "prefectureId": "aichi",
      "cityId": null,
      "countryCode": "jp",
      "prefectureName": "愛知県",
      "prefectureNameTranslations": null,
      "cityName": null,
      "cityNameTranslations": null,
      "placeType": "quarter"
    },
    {
      "id": "aichi_unknown_横川",
      "osmId": 664319026,
      "name": "横川",
      "nameKana": null,
      "nameTranslations": null,
      "latitude": 34.9431874,
      "longitude": 137.5495109,
      "lines": null,
      "prefectureId": "aichi",
      "cityId": null,
      "countryCode": "jp",
      "prefectureName": "愛知県",
      "prefectureNameTranslations": null,
      "cityName": null,
      "cityNameTranslations": null,
      "placeType": "quarter"
    },
    {
      "id": "aichi_unknown_庭野",
      "osmId": 664320194,
      "name": "庭野",
      "nameKana": null,
      "nameTranslations": null,
      "latitude": 34.8907685,
      "longitude": 137.5046247,
      "lines": null,
      "prefectureId": "aichi",
      "cityId": null,
      "countryCode": "jp",
      "prefectureName": "愛知県",
      "prefectureNameTranslations": null,
      "cityName": null,
      "cityNameTranslations": null,
      "placeType": "quarter"
    },
    {
      "id": "aichi_unknown_黒田",
      "osmId": 664320195,
      "name": "黒田",
      "nameKana": null,
      "nameTranslations": null,
      "latitude": 34.8704419,
      "longitude": 137.5076626,
      "lines": null,
      "prefectureId": "aichi",
      "cityId": null,
      "countryCode": "jp",
      "prefectureName": "愛知県",
      "prefectureNameTranslations": null,
      "cityName": null,
      "cityNameTranslations": null,
      "placeType": "quarter"
    },
    {
      "id": "aichi_unknown_吉川",
      "osmId": 664320197,
      "name": "吉川",
      "nameKana": null,
      "nameTranslations": null,
      "latitude": 34.8899901,
      "longitude": 137.5463784,
      "lines": null,
      "prefectureId": "aichi",
      "cityId": null,
      "countryCode": "jp",
      "prefectureName": "愛知県",
      "prefectureNameTranslations": null,
      "cityName": null,
      "cityNameTranslations": null,
      "placeType": "quarter"
    },
    {
      "id": "aichi_unknown_富沢",
      "osmId": 664320199,
      "name": "富沢",
      "nameKana": null,
      "nameTranslations": null,
      "latitude": 34.9071423,
      "longitude": 137.5128837,
      "lines": null,
      "prefectureId": "aichi",
      "cityId": null,
      "countryCode": "jp",
      "prefectureName": "愛知県",
      "prefectureNameTranslations": null,
      "cityName": null,
      "cityNameTranslations": null,
      "placeType": "quarter"
    },
    {
      "id": "aichi_unknown_川路",
      "osmId": 664320200,
      "name": "川路",
      "nameKana": null,
      "nameTranslations": null,
      "latitude": 34.910411,
      "longitude": 137.5240753,
      "lines": null,
      "prefectureId": "aichi",
      "cityId": null,
      "countryCode": "jp",
      "prefectureName": "愛知県",
      "prefectureNameTranslations": null,
      "cityName": null,
      "cityNameTranslations": null,
      "placeType": "quarter"
    },
    {
      "id": "aichi_unknown_日吉",
      "osmId": 664320201,
      "name": "日吉",
      "nameKana": null,
      "nameTranslations": null,
      "latitude": 34.9002698,
      "longitude": 137.5282312,
      "lines": null,
      "prefectureId": "aichi",
      "cityId": null,
      "countryCode": "jp",
      "prefectureName": "愛知県",
      "prefectureNameTranslations": null,
      "cityName": null,
      "cityNameTranslations": null,
      "placeType": "quarter"
    },
    {
      "id": "aichi_unknown_富岡",
      "osmId": 664320659,
      "name": "富岡",
      "nameKana": null,
      "nameTranslations": null,
      "latitude": 34.8510699,
      "longitude": 137.5080739,
      "lines": null,
      "prefectureId": "aichi",
      "cityId": null,
      "countryCode": "jp",
      "prefectureName": "愛知県",
      "prefectureNameTranslations": null,
      "cityName": null,
      "cityNameTranslations": null,
      "placeType": "quarter"
    },
    {
      "id": "aichi_unknown_川田",
      "osmId": 664322317,
      "name": "川田",
      "nameKana": null,
      "nameTranslations": null,
      "latitude": 34.8855429,
      "longitude": 137.4576253,
      "lines": null,
      "prefectureId": "aichi",
      "cityId": null,
      "countryCode": "jp",
      "prefectureName": "愛知県",
      "prefectureNameTranslations": null,
      "cityName": null,
      "cityNameTranslations": null,
      "placeType": "quarter"
    },
    {
      "id": "aichi_unknown_八名井",
      "osmId": 664322318,
      "name": "八名井",
      "nameKana": null,
      "nameTranslations": null,
      "latitude": 34.8675595,
      "longitude": 137.4626518,
      "lines": null,
      "prefectureId": "aichi",
      "cityId": null,
      "countryCode": "jp",
      "prefectureName": "愛知県",
      "prefectureNameTranslations": null,
      "cityName": null,
      "cityNameTranslations": null,
      "placeType": "quarter"
    },
    {
      "id": "aichi_unknown_豊島",
      "osmId": 664322319,
      "name": "豊島",
      "nameKana": null,
      "nameTranslations": null,
      "latitude": 34.8782126,
      "longitude": 137.4637687,
      "lines": null,
      "prefectureId": "aichi",
      "cityId": null,
      "countryCode": "jp",
      "prefectureName": "愛知県",
      "prefectureNameTranslations": null,
      "cityName": null,
      "cityNameTranslations": null,
      "placeType": "quarter"
    },
    {
      "id": "aichi_unknown_市場",
      "osmId": 664322320,
      "name": "市場",
      "nameKana": null,
      "nameTranslations": null,
      "latitude": 34.8868028,
      "longitude": 137.4670499,
      "lines": null,
      "prefectureId": "aichi",
      "cityId": null,
      "countryCode": "jp",
      "prefectureName": "愛知県",
      "prefectureNameTranslations": null,
      "cityName": null,
      "cityNameTranslations": null,
      "placeType": "quarter"
    },
    {
      "id": "aichi_unknown_野田",
      "osmId": 664322321,
      "name": "野田",
      "nameKana": null,
      "nameTranslations": null,
      "latitude": 34.8842258,
      "longitude": 137.4761951,
      "lines": null,
      "prefectureId": "aichi",
      "cityId": null,
      "countryCode": "jp",
      "prefectureName": "愛知県",
      "prefectureNameTranslations": null,
      "cityName": null,
      "cityNameTranslations": null,
      "placeType": "quarter"
    },
    {
      "id": "aichi_unknown_一鍬田",
      "osmId": 664322322,
      "name": "一鍬田",
      "nameKana": null,
      "nameTranslations": null,
      "latitude": 34.8723135,
      "longitude": 137.4847819,
      "lines": null,
      "prefectureId": "aichi",
      "cityId": null,
      "countryCode": "jp",
      "prefectureName": "愛知県",
      "prefectureNameTranslations": null,
      "cityName": null,
      "cityNameTranslations": null,
      "placeType": "quarter"
    },
    {
      "id": "aichi_unknown_稲木",
      "osmId": 664322323,
      "name": "稲木",
      "nameKana": null,
      "nameTranslations": null,
      "latitude": 34.8940179,
      "longitude": 137.4675385,
      "lines": null,
      "prefectureId": "aichi",
      "cityId": null,
      "countryCode": "jp",
      "prefectureName": "愛知県",
      "prefectureNameTranslations": null,
      "cityName": null,
      "cityNameTranslations": null,
      "placeType": "quarter"
    },
    {
      "id": "aichi_unknown_石田",
      "osmId": 664322324,
      "name": "石田",
      "nameKana": null,
      "nameTranslations": null,
      "latitude": 34.8936591,
      "longitude": 137.4905552,
      "lines": null,
      "prefectureId": "aichi",
      "cityId": null,
      "countryCode": "jp",
      "prefectureName": "愛知県",
      "prefectureNameTranslations": null,
      "cityName": null,
      "cityNameTranslations": null,
      "placeType": "quarter"
    },
    {
      "id": "aichi_unknown_豊栄",
      "osmId": 664330759,
      "name": "豊栄",
      "nameKana": null,
      "nameTranslations": null,
      "latitude": 34.9055166,
      "longitude": 137.4732934,
      "lines": null,
      "prefectureId": "aichi",
      "cityId": null,
      "countryCode": "jp",
      "prefectureName": "愛知県",
      "prefectureNameTranslations": null,
      "cityName": null,
      "cityNameTranslations": null,
      "placeType": "quarter"
    },
    {
      "id": "aichi_unknown_杉山",
      "osmId": 664330760,
      "name": "杉山",
      "nameKana": null,
      "nameTranslations": null,
      "latitude": 34.8972828,
      "longitude": 137.4846228,
      "lines": null,
      "prefectureId": "aichi",
      "cityId": null,
      "countryCode": "jp",
      "prefectureName": "愛知県",
      "prefectureNameTranslations": null,
      "cityName": null,
      "cityNameTranslations": null,
      "placeType": "quarter"
    },
    {
      "id": "aichi_unknown_徳定",
      "osmId": 664330761,
      "name": "徳定",
      "nameKana": null,
      "nameTranslations": null,
      "latitude": 34.9095989,
      "longitude": 137.4862747,
      "lines": null,
      "prefectureId": "aichi",
      "cityId": null,
      "countryCode": "jp",
      "prefectureName": "愛知県",
      "prefectureNameTranslations": null,
      "cityName": null,
      "cityNameTranslations": null,
      "placeType": "quarter"
    },
    {
      "id": "aichi_unknown_橋向",
      "osmId": 664332004,
      "name": "橋向",
      "nameKana": null,
      "nameTranslations": null,
      "latitude": 34.897716,
      "longitude": 137.4909559,
      "lines": null,
      "prefectureId": "aichi",
      "cityId": null,
      "countryCode": "jp",
      "prefectureName": "愛知県",
      "prefectureNameTranslations": null,
      "cityName": null,
      "cityNameTranslations": null,
      "placeType": "quarter"
    },
    {
      "id": "aichi_unknown_八幡",
      "osmId": 664332005,
      "name": "八幡",
      "nameKana": null,
      "nameTranslations": null,
      "latitude": 34.898167,
      "longitude": 137.4924545,
      "lines": null,
      "prefectureId": "aichi",
      "cityId": null,
      "countryCode": "jp",
      "prefectureName": "愛知県",
      "prefectureNameTranslations": null,
      "cityName": null,
      "cityNameTranslations": null,
      "placeType": "quarter"
    },
    {
      "id": "aichi_unknown_向野",
      "osmId": 664332006,
      "name": "向野",
      "nameKana": null,
      "nameTranslations": null,
      "latitude": 34.8984347,
      "longitude": 137.5036655,
      "lines": null,
      "prefectureId": "aichi",
      "cityId": null,
      "countryCode": "jp",
      "prefectureName": "愛知県",
      "prefectureNameTranslations": null,
      "cityName": null,
      "cityNameTranslations": null,
      "placeType": "quarter"
    },
    {
      "id": "aichi_unknown_片山",
      "osmId": 664332007,
      "name": "片山",
      "nameKana": null,
      "nameTranslations": null,
      "latitude": 34.9077625,
      "longitude": 137.4925738,
      "lines": null,
      "prefectureId": "aichi",
      "cityId": null,
      "countryCode": "jp",
      "prefectureName": "愛知県",
      "prefectureNameTranslations": null,
      "cityName": null,
      "cityNameTranslations": null,
      "placeType": "quarter"
    },
    {
      "id": "aichi_unknown_城北",
      "osmId": 664332008,
      "name": "城北",
      "nameKana": null,
      "nameTranslations": null,
      "latitude": 34.9058635,
      "longitude": 137.4962493,
      "lines": null,
      "prefectureId": "aichi",
      "cityId": null,
      "countryCode": "jp",
      "prefectureName": "愛知県",
      "prefectureNameTranslations": null,
      "cityName": null,
      "cityNameTranslations": null,
      "placeType": "quarter"
    },
    {
      "id": "aichi_unknown_屋敷",
      "osmId": 664332009,
      "name": "屋敷",
      "nameKana": null,
      "nameTranslations": null,
      "latitude": 34.9038157,
      "longitude": 137.5026916,
      "lines": null,
      "prefectureId": "aichi",
      "cityId": null,
      "countryCode": "jp",
      "prefectureName": "愛知県",
      "prefectureNameTranslations": null,
      "cityName": null,
      "cityNameTranslations": null,
      "placeType": "quarter"
    },
    {
      "id": "aichi_unknown_平井",
      "osmId": 664332010,
      "name": "平井",
      "nameKana": null,
      "nameTranslations": null,
      "latitude": 34.9069503,
      "longitude": 137.5032443,
      "lines": null,
      "prefectureId": "aichi",
      "cityId": null,
      "countryCode": "jp",
      "prefectureName": "愛知県",
      "prefectureNameTranslations": null,
      "cityName": null,
      "cityNameTranslations": null,
      "placeType": "quarter"
    },
    {
      "id": "aichi_unknown_上平井",
      "osmId": 664332011,
      "name": "上平井",
      "nameKana": null,
      "nameTranslations": null,
      "latitude": 34.9127285,
      "longitude": 137.4991842,
      "lines": null,
      "prefectureId": "aichi",
      "cityId": null,
      "countryCode": "jp",
      "prefectureName": "愛知県",
      "prefectureNameTranslations": null,
      "cityName": null,
      "cityNameTranslations": null,
      "placeType": "quarter"
    },
    {
      "id": "aichi_unknown_矢部",
      "osmId": 664332012,
      "name": "矢部",
      "nameKana": null,
      "nameTranslations": null,
      "latitude": 34.9185678,
      "longitude": 137.5039664,
      "lines": null,
      "prefectureId": "aichi",
      "cityId": null,
      "countryCode": "jp",
      "prefectureName": "愛知県",
      "prefectureNameTranslations": null,
      "cityName": null,
      "cityNameTranslations": null,
      "placeType": "quarter"
    },
    {
      "id": "aichi_unknown_富永",
      "osmId": 664332212,
      "name": "富永",
      "nameKana": null,
      "nameTranslations": null,
      "latitude": 34.9155007,
      "longitude": 137.5148255,
      "lines": null,
      "prefectureId": "aichi",
      "cityId": null,
      "countryCode": "jp",
      "prefectureName": "愛知県",
      "prefectureNameTranslations": null,
      "cityName": null,
      "cityNameTranslations": null,
      "placeType": "quarter"
    },
    {
      "id": "aichi_unknown_大宮",
      "osmId": 664332213,
      "name": "大宮",
      "nameKana": null,
      "nameTranslations": null,
      "latitude": 34.9253156,
      "longitude": 137.5227817,
      "lines": null,
      "prefectureId": "aichi",
      "cityId": null,
      "countryCode": "jp",
      "prefectureName": "愛知県",
      "prefectureNameTranslations": null,
      "cityName": null,
      "cityNameTranslations": null,
      "placeType": "quarter"
    },
    {
      "id": "aichi_unknown_牛倉",
      "osmId": 664332214,
      "name": "牛倉",
      "nameKana": null,
      "nameTranslations": null,
      "latitude": 34.9324556,
      "longitude": 137.5147897,
      "lines": null,
      "prefectureId": "aichi",
      "cityId": null,
      "countryCode": "jp",
      "prefectureName": "愛知県",
      "prefectureNameTranslations": null,
      "cityName": null,
      "cityNameTranslations": null,
      "placeType": "quarter"
    },
    {
      "id": "aichi_unknown_須長",
      "osmId": 664332215,
      "name": "須長",
      "nameKana": null,
      "nameTranslations": null,
      "latitude": 34.9387429,
      "longitude": 137.5335333,
      "lines": null,
      "prefectureId": "aichi",
      "cityId": null,
      "countryCode": "jp",
      "prefectureName": "愛知県",
      "prefectureNameTranslations": null,
      "cityName": null,
      "cityNameTranslations": null,
      "placeType": "quarter"
    },
    {
      "id": "aichi_unknown_富保",
      "osmId": 664333155,
      "name": "富保",
      "nameKana": null,
      "nameTranslations": null,
      "latitude": 34.9522323,
      "longitude": 137.5698996,
      "lines": null,
      "prefectureId": "aichi",
      "cityId": null,
      "countryCode": "jp",
      "prefectureName": "愛知県",
      "prefectureNameTranslations": null,
      "cityName": null,
      "cityNameTranslations": null,
      "placeType": "quarter"
    },
    {
      "id": "aichi_unknown_門谷",
      "osmId": 664333156,
      "name": "門谷",
      "nameKana": null,
      "nameTranslations": null,
      "latitude": 34.9675817,
      "longitude": 137.5769901,
      "lines": null,
      "prefectureId": "aichi",
      "cityId": null,
      "countryCode": "jp",
      "prefectureName": "愛知県",
      "prefectureNameTranslations": null,
      "cityName": null,
      "cityNameTranslations": null,
      "placeType": "quarter"
    },
    {
      "id": "aichi_unknown_玖老勢",
      "osmId": 664333916,
      "name": "玖老勢",
      "nameKana": null,
      "nameTranslations": null,
      "latitude": 34.9868573,
      "longitude": 137.5608701,
      "lines": null,
      "prefectureId": "aichi",
      "cityId": null,
      "countryCode": "jp",
      "prefectureName": "愛知県",
      "prefectureNameTranslations": null,
      "cityName": null,
      "cityNameTranslations": null,
      "placeType": "quarter"
    },
    {
      "id": "aichi_unknown_布里",
      "osmId": 664334571,
      "name": "布里",
      "nameKana": null,
      "nameTranslations": null,
      "latitude": 34.987844,
      "longitude": 137.5221485,
      "lines": null,
      "prefectureId": "aichi",
      "cityId": null,
      "countryCode": "jp",
      "prefectureName": "愛知県",
      "prefectureNameTranslations": null,
      "cityName": null,
      "cityNameTranslations": null,
      "placeType": "quarter"
    },
    {
      "id": "aichi_unknown_一色",
      "osmId": 664334572,
      "name": "一色",
      "nameKana": null,
      "nameTranslations": null,
      "latitude": 34.9973675,
      "longitude": 137.5156602,
      "lines": null,
      "prefectureId": "aichi",
      "cityId": null,
      "countryCode": "jp",
      "prefectureName": "愛知県",
      "prefectureNameTranslations": null,
      "cityName": null,
      "cityNameTranslations": null,
      "placeType": "quarter"
    },
    {
      "id": "aichi_unknown_只持",
      "osmId": 664334573,
      "name": "只持",
      "nameKana": null,
      "nameTranslations": null,
      "latitude": 34.995079,
      "longitude": 137.5210672,
      "lines": null,
      "prefectureId": "aichi",
      "cityId": null,
      "countryCode": "jp",
      "prefectureName": "愛知県",
      "prefectureNameTranslations": null,
      "cityName": null,
      "cityNameTranslations": null,
      "placeType": "quarter"
    },
    {
      "id": "aichi_unknown_中島",
      "osmId": 664334574,
      "name": "中島",
      "nameKana": null,
      "nameTranslations": null,
      "latitude": 35.0206177,
      "longitude": 137.5298084,
      "lines": null,
      "prefectureId": "aichi",
      "cityId": null,
      "countryCode": "jp",
      "prefectureName": "愛知県",
      "prefectureNameTranslations": null,
      "cityName": null,
      "cityNameTranslations": null,
      "placeType": "quarter"
    },
    {
      "id": "aichi_unknown_副川",
      "osmId": 664334575,
      "name": "副川",
      "nameKana": null,
      "nameTranslations": null,
      "latitude": 35.0089565,
      "longitude": 137.5598169,
      "lines": null,
      "prefectureId": "aichi",
      "cityId": null,
      "countryCode": "jp",
      "prefectureName": "愛知県",
      "prefectureNameTranslations": null,
      "cityName": null,
      "cityNameTranslations": null,
      "placeType": "quarter"
    },
    {
      "id": "aichi_unknown_海老",
      "osmId": 664334577,
      "name": "海老",
      "nameKana": null,
      "nameTranslations": null,
      "latitude": 35.0314655,
      "longitude": 137.5527878,
      "lines": null,
      "prefectureId": "aichi",
      "cityId": null,
      "countryCode": "jp",
      "prefectureName": "愛知県",
      "prefectureNameTranslations": null,
      "cityName": null,
      "cityNameTranslations": null,
      "placeType": "quarter"
    },
    {
      "id": "aichi_unknown_作手守義",
      "osmId": 664349773,
      "name": "作手守義",
      "nameKana": null,
      "nameTranslations": null,
      "latitude": 35.0485963,
      "longitude": 137.4899027,
      "lines": null,
      "prefectureId": "aichi",
      "cityId": null,
      "countryCode": "jp",
      "prefectureName": "愛知県",
      "prefectureNameTranslations": null,
      "cityName": null,
      "cityNameTranslations": null,
      "placeType": "quarter"
    },
    {
      "id": "aichi_unknown_mitsuhashi",
      "osmId": 664349777,
      "name": "三都橋",
      "nameKana": "みつはし",
      "nameTranslations": {
        "en": "Mitsuhashi"
      },
      "latitude": 35.0623276,
      "longitude": 137.5206552,
      "lines": null,
      "prefectureId": "aichi",
      "cityId": null,
      "countryCode": "jp",
      "prefectureName": "愛知県",
      "prefectureNameTranslations": null,
      "cityName": null,
      "cityNameTranslations": null,
      "placeType": "quarter"
    },
    {
      "id": "aichi_unknown_田峯",
      "osmId": 664349781,
      "name": "田峯",
      "nameKana": null,
      "nameTranslations": null,
      "latitude": 35.0510528,
      "longitude": 137.5290961,
      "lines": null,
      "prefectureId": "aichi",
      "cityId": null,
      "countryCode": "jp",
      "prefectureName": "愛知県",
      "prefectureNameTranslations": null,
      "cityName": null,
      "cityNameTranslations": null,
      "placeType": "quarter"
    },
    {
      "id": "aichi_unknown_tanai",
      "osmId": 664349784,
      "name": "田内",
      "nameKana": "たない",
      "nameTranslations": {
        "en": "Tanai"
      },
      "latitude": 35.0665811,
      "longitude": 137.5471682,
      "lines": null,
      "prefectureId": "aichi",
      "cityId": null,
      "countryCode": "jp",
      "prefectureName": "愛知県",
      "prefectureNameTranslations": null,
      "cityName": null,
      "cityNameTranslations": null,
      "placeType": "quarter"
    },
    {
      "id": "aichi_unknown_四谷",
      "osmId": 664349787,
      "name": "四谷",
      "nameKana": null,
      "nameTranslations": null,
      "latitude": 35.0481242,
      "longitude": 137.5627317,
      "lines": null,
      "prefectureId": "aichi",
      "cityId": null,
      "countryCode": "jp",
      "prefectureName": "愛知県",
      "prefectureNameTranslations": null,
      "cityName": null,
      "cityNameTranslations": null,
      "placeType": "quarter"
    },
    {
      "id": "aichi_unknown_kiyosaki",
      "osmId": 664349794,
      "name": "清崎",
      "nameKana": "きよさき",
      "nameTranslations": {
        "en": "Kiyosaki"
      },
      "latitude": 35.0720143,
      "longitude": 137.5665976,
      "lines": null,
      "prefectureId": "aichi",
      "cityId": null,
      "countryCode": "jp",
      "prefectureName": "愛知県",
      "prefectureNameTranslations": null,
      "cityName": null,
      "cityNameTranslations": null,
      "placeType": "quarter"
    },
    {
      "id": "aichi_unknown_onagura",
      "osmId": 664377235,
      "name": "大名倉",
      "nameKana": "おおなぐら",
      "nameTranslations": {
        "en": "Onagura"
      },
      "latitude": 35.1092866,
      "longitude": 137.5442742,
      "lines": null,
      "prefectureId": "aichi",
      "cityId": null,
      "countryCode": "jp",
      "prefectureName": "愛知県",
      "prefectureNameTranslations": null,
      "cityName": null,
      "cityNameTranslations": null,
      "placeType": "quarter"
    },
    {
      "id": "aichi_unknown_aro",
      "osmId": 664377236,
      "name": "荒尾",
      "nameKana": "あろう",
      "nameTranslations": {
        "en": "Aro"
      },
      "latitude": 35.083647,
      "longitude": 137.5874367,
      "lines": null,
      "prefectureId": "aichi",
      "cityId": null,
      "countryCode": "jp",
      "prefectureName": "愛知県",
      "prefectureNameTranslations": null,
      "cityName": null,
      "cityNameTranslations": null,
      "placeType": "quarter"
    },
    {
      "id": "aichi_unknown_matsudo",
      "osmId": 664377237,
      "name": "松戸",
      "nameKana": "まつど",
      "nameTranslations": {
        "en": "Matsudo"
      },
      "latitude": 35.0940897,
      "longitude": 137.5493862,
      "lines": null,
      "prefectureId": "aichi",
      "cityId": null,
      "countryCode": "jp",
      "prefectureName": "愛知県",
      "prefectureNameTranslations": null,
      "cityName": null,
      "cityNameTranslations": null,
      "placeType": "quarter"
    },
    {
      "id": "aichi_unknown_waichi",
      "osmId": 664377238,
      "name": "和市",
      "nameKana": "わいち",
      "nameTranslations": {
        "en": "Waichi"
      },
      "latitude": 35.0913854,
      "longitude": 137.5913722,
      "lines": null,
      "prefectureId": "aichi",
      "cityId": null,
      "countryCode": "jp",
      "prefectureName": "愛知県",
      "prefectureNameTranslations": null,
      "cityName": null,
      "cityNameTranslations": null,
      "placeType": "quarter"
    },
    {
      "id": "aichi_unknown_komatsu",
      "osmId": 664377239,
      "name": "小松",
      "nameKana": "こまつ",
      "nameTranslations": {
        "en": "Komatsu"
      },
      "latitude": 35.1093922,
      "longitude": 137.5830378,
      "lines": null,
      "prefectureId": "aichi",
      "cityId": null,
      "countryCode": "jp",
      "prefectureName": "愛知県",
      "prefectureNameTranslations": null,
      "cityName": null,
      "cityNameTranslations": null,
      "placeType": "quarter"
    },
    {
      "id": "aichi_unknown_nagae",
      "osmId": 664377240,
      "name": "長江",
      "nameKana": "ながえ",
      "nameTranslations": {
        "en": "Nagae"
      },
      "latitude": 35.1121368,
      "longitude": 137.5978335,
      "lines": null,
      "prefectureId": "aichi",
      "cityId": null,
      "countryCode": "jp",
      "prefectureName": "愛知県",
      "prefectureNameTranslations": null,
      "cityName": null,
      "cityNameTranslations": null,
      "placeType": "quarter"
    },
    {
      "id": "aichi_unknown_kada",
      "osmId": 664377241,
      "name": "神田",
      "nameKana": "かだ",
      "nameTranslations": {
        "en": "Kada"
      },
      "latitude": 35.072375,
      "longitude": 137.6151596,
      "lines": null,
      "prefectureId": "aichi",
      "cityId": null,
      "countryCode": "jp",
      "prefectureName": "愛知県",
      "prefectureNameTranslations": null,
      "cityName": null,
      "cityNameTranslations": null,
      "placeType": "quarter"
    },
    {
      "id": "aichi_unknown_kawamuki",
      "osmId": 664377245,
      "name": "川向",
      "nameKana": "かわむき",
      "nameTranslations": {
        "en": "Kawamuki"
      },
      "latitude": 35.1164781,
      "longitude": 137.5580611,
      "lines": null,
      "prefectureId": "aichi",
      "cityId": null,
      "countryCode": "jp",
      "prefectureName": "愛知県",
      "prefectureNameTranslations": null,
      "cityName": null,
      "cityNameTranslations": null,
      "placeType": "quarter"
    },
    {
      "id": "aichi_unknown_hongo",
      "osmId": 666484360,
      "name": "本郷",
      "nameKana": "ほんごう",
      "nameTranslations": {
        "en": "Hongo"
      },
      "latitude": 35.0700696,
      "longitude": 137.7013708,
      "lines": null,
      "prefectureId": "aichi",
      "cityId": null,
      "countryCode": "jp",
      "prefectureName": "愛知県",
      "prefectureNameTranslations": null,
      "cityName": null,
      "cityNameTranslations": null,
      "placeType": "quarter"
    },
    {
      "id": "aichi_unknown_nakashitara",
      "osmId": 666484373,
      "name": "中設楽",
      "nameKana": "なかしたら",
      "nameTranslations": {
        "en": "Nakashitara"
      },
      "latitude": 35.0864793,
      "longitude": 137.6763715,
      "lines": null,
      "prefectureId": "aichi",
      "cityId": null,
      "countryCode": "jp",
      "prefectureName": "愛知県",
      "prefectureNameTranslations": null,
      "cityName": null,
      "cityNameTranslations": null,
      "placeType": "quarter"
    },
    {
      "id": "aichi_unknown_shimoda",
      "osmId": 666484374,
      "name": "下田",
      "nameKana": "しもだ",
      "nameTranslations": {
        "en": "Shimoda"
      },
      "latitude": 35.0882795,
      "longitude": 137.7127894,
      "lines": null,
      "prefectureId": "aichi",
      "cityId": null,
      "countryCode": "jp",
      "prefectureName": "愛知県",
      "prefectureNameTranslations": null,
      "cityName": null,
      "cityNameTranslations": null,
      "placeType": "quarter"
    },
    {
      "id": "aichi_unknown_miwa",
      "osmId": 666485274,
      "name": "三輪",
      "nameKana": "みわ",
      "nameTranslations": {
        "en": "Miwa"
      },
      "latitude": 35.041793,
      "longitude": 137.7101357,
      "lines": null,
      "prefectureId": "aichi",
      "cityId": null,
      "countryCode": "jp",
      "prefectureName": "愛知県",
      "prefectureNameTranslations": null,
      "cityName": null,
      "cityNameTranslations": null,
      "placeType": "quarter"
    },
    {
      "id": "aichi_unknown_nane",
      "osmId": 666485275,
      "name": "奈根",
      "nameKana": "なね",
      "nameTranslations": {
        "en": "Nane"
      },
      "latitude": 35.059372,
      "longitude": 137.7034563,
      "lines": null,
      "prefectureId": "aichi",
      "cityId": null,
      "countryCode": "jp",
      "prefectureName": "愛知県",
      "prefectureNameTranslations": null,
      "cityName": null,
      "cityNameTranslations": null,
      "placeType": "quarter"
    },
    {
      "id": "aichi_unknown_kawakado",
      "osmId": 666486676,
      "name": "川角",
      "nameKana": "かわかど",
      "nameTranslations": {
        "en": "Kawakado"
      },
      "latitude": 35.071429,
      "longitude": 137.7332346,
      "lines": null,
      "prefectureId": "aichi",
      "cityId": null,
      "countryCode": "jp",
      "prefectureName": "愛知県",
      "prefectureNameTranslations": null,
      "cityName": null,
      "cityNameTranslations": null,
      "placeType": "quarter"
    },
    {
      "id": "aichi_unknown_nishisonome",
      "osmId": 666486677,
      "name": "西薗目",
      "nameKana": "にしそのめ",
      "nameTranslations": {
        "en": "Nishisonome"
      },
      "latitude": 35.0817832,
      "longitude": 137.7343982,
      "lines": null,
      "prefectureId": "aichi",
      "cityId": null,
      "countryCode": "jp",
      "prefectureName": "愛知県",
      "prefectureNameTranslations": null,
      "cityName": null,
      "cityNameTranslations": null,
      "placeType": "quarter"
    },
    {
      "id": "aichi_unknown_higashisonome",
      "osmId": 666486678,
      "name": "東薗目",
      "nameKana": "ひがしそのめ",
      "nameTranslations": {
        "en": "Higashisonome"
      },
      "latitude": 35.088179,
      "longitude": 137.7511727,
      "lines": null,
      "prefectureId": "aichi",
      "cityId": null,
      "countryCode": "jp",
      "prefectureName": "愛知県",
      "prefectureNameTranslations": null,
      "cityName": null,
      "cityNameTranslations": null,
      "placeType": "quarter"
    },
    {
      "id": "aichi_unknown_川合",
      "osmId": 666488709,
      "name": "川合",
      "nameKana": null,
      "nameTranslations": null,
      "latitude": 35.0127908,
      "longitude": 137.6746227,
      "lines": null,
      "prefectureId": "aichi",
      "cityId": null,
      "countryCode": "jp",
      "prefectureName": "愛知県",
      "prefectureNameTranslations": null,
      "cityName": null,
      "cityNameTranslations": null,
      "placeType": "quarter"
    },
    {
      "id": "aichi_unknown_池場",
      "osmId": 666488744,
      "name": "池場",
      "nameKana": null,
      "nameTranslations": null,
      "latitude": 35.0256946,
      "longitude": 137.6951723,
      "lines": null,
      "prefectureId": "aichi",
      "cityId": null,
      "countryCode": "jp",
      "prefectureName": "愛知県",
      "prefectureNameTranslations": null,
      "cityName": null,
      "cityNameTranslations": null,
      "placeType": "quarter"
    },
    {
      "id": "aichi_unknown_名号",
      "osmId": 666504858,
      "name": "名号",
      "nameKana": null,
      "nameTranslations": null,
      "latitude": 34.9959362,
      "longitude": 137.6617369,
      "lines": null,
      "prefectureId": "aichi",
      "cityId": null,
      "countryCode": "jp",
      "prefectureName": "愛知県",
      "prefectureNameTranslations": null,
      "cityName": null,
      "cityNameTranslations": null,
      "placeType": "quarter"
    },
    {
      "id": "aichi_unknown_連合",
      "osmId": 666527772,
      "name": "連合",
      "nameKana": null,
      "nameTranslations": null,
      "latitude": 35.0434355,
      "longitude": 137.5493462,
      "lines": null,
      "prefectureId": "aichi",
      "cityId": null,
      "countryCode": "jp",
      "prefectureName": "愛知県",
      "prefectureNameTranslations": null,
      "cityName": null,
      "cityNameTranslations": null,
      "placeType": "quarter"
    },
    {
      "id": "aichi_unknown_kawai",
      "osmId": 666527774,
      "name": "川合",
      "nameKana": "かわい",
      "nameTranslations": {
        "en": "Kawai"
      },
      "latitude": 35.0381835,
      "longitude": 137.6064812,
      "lines": null,
      "prefectureId": "aichi",
      "cityId": null,
      "countryCode": "jp",
      "prefectureName": "愛知県",
      "prefectureNameTranslations": null,
      "cityName": null,
      "cityNameTranslations": null,
      "placeType": "quarter"
    },
    {
      "id": "aichi_unknown_hirayama",
      "osmId": 666536093,
      "name": "平山",
      "nameKana": "ひらやま",
      "nameTranslations": {
        "en": "Hirayama"
      },
      "latitude": 35.0877885,
      "longitude": 137.6124487,
      "lines": null,
      "prefectureId": "aichi",
      "cityId": null,
      "countryCode": "jp",
      "prefectureName": "愛知県",
      "prefectureNameTranslations": null,
      "cityName": null,
      "cityNameTranslations": null,
      "placeType": "quarter"
    },
    {
      "id": "aichi_unknown_作手保永",
      "osmId": 666547702,
      "name": "作手保永",
      "nameKana": null,
      "nameTranslations": null,
      "latitude": 34.9235576,
      "longitude": 137.4392629,
      "lines": null,
      "prefectureId": "aichi",
      "cityId": null,
      "countryCode": "jp",
      "prefectureName": "愛知県",
      "prefectureNameTranslations": null,
      "cityName": null,
      "cityNameTranslations": null,
      "placeType": "quarter"
    },
    {
      "id": "aichi_unknown_作手杉平",
      "osmId": 666563554,
      "name": "作手杉平",
      "nameKana": null,
      "nameTranslations": null,
      "latitude": 34.9369195,
      "longitude": 137.4587233,
      "lines": null,
      "prefectureId": "aichi",
      "cityId": null,
      "countryCode": "jp",
      "prefectureName": "愛知県",
      "prefectureNameTranslations": null,
      "cityName": null,
      "cityNameTranslations": null,
      "placeType": "quarter"
    },
    {
      "id": "aichi_unknown_作手田代",
      "osmId": 666563555,
      "name": "作手田代",
      "nameKana": null,
      "nameTranslations": null,
      "latitude": 34.9430456,
      "longitude": 137.4748018,
      "lines": null,
      "prefectureId": "aichi",
      "cityId": null,
      "countryCode": "jp",
      "prefectureName": "愛知県",
      "prefectureNameTranslations": null,
      "cityName": null,
      "cityNameTranslations": null,
      "placeType": "quarter"
    },
    {
      "id": "aichi_unknown_作手高松",
      "osmId": 666563556,
      "name": "作手高松",
      "nameKana": null,
      "nameTranslations": null,
      "latitude": 34.9615603,
      "longitude": 137.4618937,
      "lines": null,
      "prefectureId": "aichi",
      "cityId": null,
      "countryCode": "jp",
      "prefectureName": "愛知県",
      "prefectureNameTranslations": null,
      "cityName": null,
      "cityNameTranslations": null,
      "placeType": "quarter"
    },
    {
      "id": "aichi_unknown_作手鴨ヶ谷",
      "osmId": 666570953,
      "name": "作手鴨ヶ谷",
      "nameKana": null,
      "nameTranslations": null,
      "latitude": 34.9740123,
      "longitude": 137.4470467,
      "lines": null,
      "prefectureId": "aichi",
      "cityId": null,
      "countryCode": "jp",
      "prefectureName": "愛知県",
      "prefectureNameTranslations": null,
      "cityName": null,
      "cityNameTranslations": null,
      "placeType": "quarter"
    },
    {
      "id": "aichi_unknown_作手岩波",
      "osmId": 666570957,
      "name": "作手岩波",
      "nameKana": null,
      "nameTranslations": null,
      "latitude": 34.9883423,
      "longitude": 137.452772,
      "lines": null,
      "prefectureId": "aichi",
      "cityId": null,
      "countryCode": "jp",
      "prefectureName": "愛知県",
      "prefectureNameTranslations": null,
      "cityName": null,
      "cityNameTranslations": null,
      "placeType": "quarter"
    },
    {
      "id": "aichi_unknown_作手大和田",
      "osmId": 666570958,
      "name": "作手大和田",
      "nameKana": null,
      "nameTranslations": null,
      "latitude": 34.9794104,
      "longitude": 137.4718303,
      "lines": null,
      "prefectureId": "aichi",
      "cityId": null,
      "countryCode": "jp",
      "prefectureName": "愛知県",
      "prefectureNameTranslations": null,
      "cityName": null,
      "cityNameTranslations": null,
      "placeType": "quarter"
    },
    {
      "id": "aichi_unknown_塩瀬",
      "osmId": 666575733,
      "name": "塩瀬",
      "nameKana": null,
      "nameTranslations": null,
      "latitude": 34.9835099,
      "longitude": 137.4986546,
      "lines": null,
      "prefectureId": "aichi",
      "cityId": null,
      "countryCode": "jp",
      "prefectureName": "愛知県",
      "prefectureNameTranslations": null,
      "cityName": null,
      "cityNameTranslations": null,
      "placeType": "quarter"
    },
    {
      "id": "aichi_unknown_作手清岳",
      "osmId": 666579987,
      "name": "作手清岳",
      "nameKana": null,
      "nameTranslations": null,
      "latitude": 34.9654398,
      "longitude": 137.41469,
      "lines": null,
      "prefectureId": "aichi",
      "cityId": null,
      "countryCode": "jp",
      "prefectureName": "愛知県",
      "prefectureNameTranslations": null,
      "cityName": null,
      "cityNameTranslations": null,
      "placeType": "quarter"
    },
    {
      "id": "aichi_unknown_作手白鳥",
      "osmId": 666580007,
      "name": "作手白鳥",
      "nameKana": null,
      "nameTranslations": null,
      "latitude": 34.9527034,
      "longitude": 137.4228258,
      "lines": null,
      "prefectureId": "aichi",
      "cityId": null,
      "countryCode": "jp",
      "prefectureName": "愛知県",
      "prefectureNameTranslations": null,
      "cityName": null,
      "cityNameTranslations": null,
      "placeType": "quarter"
    },
    {
      "id": "aichi_unknown_作手中河内",
      "osmId": 666628986,
      "name": "作手中河内",
      "nameKana": null,
      "nameTranslations": null,
      "latitude": 35.0007459,
      "longitude": 137.4166767,
      "lines": null,
      "prefectureId": "aichi",
      "cityId": null,
      "countryCode": "jp",
      "prefectureName": "愛知県",
      "prefectureNameTranslations": null,
      "cityName": null,
      "cityNameTranslations": null,
      "placeType": "quarter"
    },
    {
      "id": "aichi_unknown_作手高里",
      "osmId": 666628987,
      "name": "作手高里",
      "nameKana": null,
      "nameTranslations": null,
      "latitude": 34.9840056,
      "longitude": 137.4213326,
      "lines": null,
      "prefectureId": "aichi",
      "cityId": null,
      "countryCode": "jp",
      "prefectureName": "愛知県",
      "prefectureNameTranslations": null,
      "cityName": null,
      "cityNameTranslations": null,
      "placeType": "quarter"
    },
    {
      "id": "aichi_unknown_作手田原",
      "osmId": 666628988,
      "name": "作手田原",
      "nameKana": null,
      "nameTranslations": null,
      "latitude": 34.9965082,
      "longitude": 137.4360762,
      "lines": null,
      "prefectureId": "aichi",
      "cityId": null,
      "countryCode": "jp",
      "prefectureName": "愛知県",
      "prefectureNameTranslations": null,
      "cityName": null,
      "cityNameTranslations": null,
      "placeType": "quarter"
    },
    {
      "id": "aichi_unknown_作手黒瀬",
      "osmId": 666636308,
      "name": "作手黒瀬",
      "nameKana": null,
      "nameTranslations": null,
      "latitude": 35.0144956,
      "longitude": 137.4385096,
      "lines": null,
      "prefectureId": "aichi",
      "cityId": null,
      "countryCode": "jp",
      "prefectureName": "愛知県",
      "prefectureNameTranslations": null,
      "cityName": null,
      "cityNameTranslations": null,
      "placeType": "quarter"
    },
    {
      "id": "aichi_unknown_作手善夫",
      "osmId": 666636310,
      "name": "作手善夫",
      "nameKana": null,
      "nameTranslations": null,
      "latitude": 35.0241477,
      "longitude": 137.4464754,
      "lines": null,
      "prefectureId": "aichi",
      "cityId": null,
      "countryCode": "jp",
      "prefectureName": "愛知県",
      "prefectureNameTranslations": null,
      "cityName": null,
      "cityNameTranslations": null,
      "placeType": "quarter"
    },
    {
      "id": "aichi_unknown_作手菅沼",
      "osmId": 666636312,
      "name": "作手菅沼",
      "nameKana": null,
      "nameTranslations": null,
      "latitude": 35.0351992,
      "longitude": 137.4558917,
      "lines": null,
      "prefectureId": "aichi",
      "cityId": null,
      "countryCode": "jp",
      "prefectureName": "愛知県",
      "prefectureNameTranslations": null,
      "cityName": null,
      "cityNameTranslations": null,
      "placeType": "quarter"
    },
    {
      "id": "aichi_unknown_作手木和田",
      "osmId": 666640440,
      "name": "作手木和田",
      "nameKana": null,
      "nameTranslations": null,
      "latitude": 35.0227545,
      "longitude": 137.4804546,
      "lines": null,
      "prefectureId": "aichi",
      "cityId": null,
      "countryCode": "jp",
      "prefectureName": "愛知県",
      "prefectureNameTranslations": null,
      "cityName": null,
      "cityNameTranslations": null,
      "placeType": "quarter"
    },
    {
      "id": "aichi_unknown_愛郷",
      "osmId": 666640442,
      "name": "愛郷",
      "nameKana": null,
      "nameTranslations": null,
      "latitude": 35.0117423,
      "longitude": 137.4934475,
      "lines": null,
      "prefectureId": "aichi",
      "cityId": null,
      "countryCode": "jp",
      "prefectureName": "愛知県",
      "prefectureNameTranslations": null,
      "cityName": null,
      "cityNameTranslations": null,
      "placeType": "quarter"
    },
    {
      "id": "aichi_unknown_toyokuni",
      "osmId": 666644966,
      "name": "豊邦",
      "nameKana": "とよくに",
      "nameTranslations": {
        "en": "Toyokuni"
      },
      "latitude": 35.0759652,
      "longitude": 137.4646923,
      "lines": null,
      "prefectureId": "aichi",
      "cityId": null,
      "countryCode": "jp",
      "prefectureName": "愛知県",
      "prefectureNameTranslations": null,
      "cityName": null,
      "cityNameTranslations": null,
      "placeType": "quarter"
    },
    {
      "id": "aichi_unknown_nishinagura",
      "osmId": 666662345,
      "name": "西納庫",
      "nameKana": "にしなぐら",
      "nameTranslations": {
        "en": "Nishinagura"
      },
      "latitude": 35.1686382,
      "longitude": 137.5411757,
      "lines": null,
      "prefectureId": "aichi",
      "cityId": null,
      "countryCode": "jp",
      "prefectureName": "愛知県",
      "prefectureNameTranslations": null,
      "cityName": null,
      "cityNameTranslations": null,
      "placeType": "quarter"
    },
    {
      "id": "aichi_unknown_tsugu",
      "osmId": 666666808,
      "name": "津具",
      "nameKana": "つぐ",
      "nameTranslations": {
        "en": "Tsugu"
      },
      "latitude": 35.1782361,
      "longitude": 137.6254699,
      "lines": null,
      "prefectureId": "aichi",
      "cityId": null,
      "countryCode": "jp",
      "prefectureName": "愛知県",
      "prefectureNameTranslations": null,
      "cityName": null,
      "cityNameTranslations": null,
      "placeType": "quarter"
    },
    {
      "id": "aichi_unknown_sakauba",
      "osmId": 666675324,
      "name": "坂宇場",
      "nameKana": "さかうば",
      "nameTranslations": {
        "en": "Sakauba"
      },
      "latitude": 35.2003329,
      "longitude": 137.6793994,
      "lines": null,
      "prefectureId": "aichi",
      "cityId": null,
      "countryCode": "jp",
      "prefectureName": "愛知県",
      "prefectureNameTranslations": null,
      "cityName": null,
      "cityNameTranslations": null,
      "placeType": "quarter"
    },
    {
      "id": "aichi_unknown_kamikurogawa",
      "osmId": 666698533,
      "name": "上黒川",
      "nameKana": "かみくろがわ",
      "nameTranslations": {
        "en": "Kamikurogawa"
      },
      "latitude": 35.1481251,
      "longitude": 137.6955318,
      "lines": null,
      "prefectureId": "aichi",
      "cityId": null,
      "countryCode": "jp",
      "prefectureName": "愛知県",
      "prefectureNameTranslations": null,
      "cityName": null,
      "cityNameTranslations": null,
      "placeType": "quarter"
    },
    {
      "id": "aichi_unknown_shimokurogawa",
      "osmId": 666698534,
      "name": "下黒川",
      "nameKana": "しもくろがわ",
      "nameTranslations": {
        "en": "Shimokurogawa"
      },
      "latitude": 35.1698475,
      "longitude": 137.7115775,
      "lines": null,
      "prefectureId": "aichi",
      "cityId": null,
      "countryCode": "jp",
      "prefectureName": "愛知県",
      "prefectureNameTranslations": null,
      "cityName": null,
      "cityNameTranslations": null,
      "placeType": "quarter"
    },
    {
      "id": "aichi_unknown_東松山",
      "osmId": 796665703,
      "name": "東松山町",
      "nameKana": null,
      "nameTranslations": null,
      "latitude": 34.7575968,
      "longitude": 137.3907563,
      "lines": null,
      "prefectureId": "aichi",
      "cityId": null,
      "countryCode": "jp",
      "prefectureName": "愛知県",
      "prefectureNameTranslations": null,
      "cityName": null,
      "cityNameTranslations": null,
      "placeType": "quarter"
    },
    {
      "id": "aichi_unknown_北外山",
      "osmId": 868940259,
      "name": "北外山",
      "nameKana": "きたとやま",
      "nameTranslations": null,
      "latitude": 35.2777263,
      "longitude": 136.9325769,
      "lines": null,
      "prefectureId": "aichi",
      "cityId": null,
      "countryCode": "jp",
      "prefectureName": "愛知県",
      "prefectureNameTranslations": null,
      "cityName": null,
      "cityNameTranslations": null,
      "placeType": "quarter"
    },
    {
      "id": "aichi_unknown_南外山",
      "osmId": 868957902,
      "name": "南外山",
      "nameKana": "みなみとやま",
      "nameTranslations": null,
      "latitude": 35.2691823,
      "longitude": 136.9258967,
      "lines": null,
      "prefectureId": "aichi",
      "cityId": null,
      "countryCode": "jp",
      "prefectureName": "愛知県",
      "prefectureNameTranslations": null,
      "cityName": null,
      "cityNameTranslations": null,
      "placeType": "quarter"
    },
    {
      "id": "aichi_unknown_西松山",
      "osmId": 966588019,
      "name": "西松山町",
      "nameKana": null,
      "nameTranslations": null,
      "latitude": 34.7580678,
      "longitude": 137.3872534,
      "lines": null,
      "prefectureId": "aichi",
      "cityId": null,
      "countryCode": "jp",
      "prefectureName": "愛知県",
      "prefectureNameTranslations": null,
      "cityName": null,
      "cityNameTranslations": null,
      "placeType": "quarter"
    },
    {
      "id": "aichi_unknown_名和",
      "osmId": 1423988224,
      "name": "名和町",
      "nameKana": null,
      "nameTranslations": null,
      "latitude": 35.048076,
      "longitude": 136.916019,
      "lines": null,
      "prefectureId": "aichi",
      "cityId": null,
      "countryCode": "jp",
      "prefectureName": "愛知県",
      "prefectureNameTranslations": null,
      "cityName": null,
      "cityNameTranslations": null,
      "placeType": "quarter"
    },
    {
      "id": "aichi_unknown_北山",
      "osmId": 1916861100,
      "name": "北山町",
      "nameKana": null,
      "nameTranslations": null,
      "latitude": 34.7357254,
      "longitude": 137.3911122,
      "lines": null,
      "prefectureId": "aichi",
      "cityId": null,
      "countryCode": "jp",
      "prefectureName": "愛知県",
      "prefectureNameTranslations": null,
      "cityName": null,
      "cityNameTranslations": null,
      "placeType": "quarter"
    },
    {
      "id": "aichi_unknown_小松",
      "osmId": 1916861103,
      "name": "小松町",
      "nameKana": null,
      "nameTranslations": null,
      "latitude": 34.7411206,
      "longitude": 137.3916323,
      "lines": null,
      "prefectureId": "aichi",
      "cityId": null,
      "countryCode": "jp",
      "prefectureName": "愛知県",
      "prefectureNameTranslations": null,
      "cityName": null,
      "cityNameTranslations": null,
      "placeType": "quarter"
    },
    {
      "id": "aichi_unknown_高師石塚",
      "osmId": 1916861106,
      "name": "高師石塚町",
      "nameKana": null,
      "nameTranslations": null,
      "latitude": 34.7442707,
      "longitude": 137.3896015,
      "lines": null,
      "prefectureId": "aichi",
      "cityId": null,
      "countryCode": "jp",
      "prefectureName": "愛知県",
      "prefectureNameTranslations": null,
      "cityName": null,
      "cityNameTranslations": null,
      "placeType": "quarter"
    },
    {
      "id": "aichi_unknown_町畑",
      "osmId": 1947169701,
      "name": "町畑町",
      "nameKana": null,
      "nameTranslations": null,
      "latitude": 34.7402185,
      "longitude": 137.3881411,
      "lines": null,
      "prefectureId": "aichi",
      "cityId": null,
      "countryCode": "jp",
      "prefectureName": "愛知県",
      "prefectureNameTranslations": null,
      "cityName": null,
      "cityNameTranslations": null,
      "placeType": "quarter"
    },
    {
      "id": "aichi_unknown_mancho",
      "osmId": 2154318070,
      "name": "万町",
      "nameKana": "まんちょう",
      "nameTranslations": {
        "en": "Mancho"
      },
      "latitude": 35.14683,
      "longitude": 136.8587928,
      "lines": null,
      "prefectureId": "aichi",
      "cityId": null,
      "countryCode": "jp",
      "prefectureName": "愛知県",
      "prefectureNameTranslations": null,
      "cityName": null,
      "cityNameTranslations": null,
      "placeType": "quarter"
    },
    {
      "id": "aichi_unknown_sanbongi",
      "osmId": 2154318071,
      "name": "三本木",
      "nameKana": "さんぼんぎ",
      "nameTranslations": {
        "en": "Sanbongi"
      },
      "latitude": 35.1686688,
      "longitude": 136.8200243,
      "lines": null,
      "prefectureId": "aichi",
      "cityId": null,
      "countryCode": "jp",
      "prefectureName": "愛知県",
      "prefectureNameTranslations": null,
      "cityName": null,
      "cityNameTranslations": null,
      "placeType": "quarter"
    },
    {
      "id": "aichi_unknown_sanbonmatsucho",
      "osmId": 2154318072,
      "name": "三本松町",
      "nameKana": "さんぼんまつちょう",
      "nameTranslations": {
        "en": "Sanbonmatsucho"
      },
      "latitude": 35.1282614,
      "longitude": 136.9148273,
      "lines": null,
      "prefectureId": "aichi",
      "cityId": null,
      "countryCode": "jp",
      "prefectureName": "愛知県",
      "prefectureNameTranslations": null,
      "cityName": null,
      "cityNameTranslations": null,
      "placeType": "quarter"
    },
    {
      "id": "aichi_unknown_sanbancho",
      "osmId": 2154318074,
      "name": "三番町",
      "nameKana": "さんばんちょう",
      "nameTranslations": {
        "en": "Sanbancho"
      },
      "latitude": 35.1157992,
      "longitude": 136.8936056,
      "lines": null,
      "prefectureId": "aichi",
      "cityId": null,
      "countryCode": "jp",
      "prefectureName": "愛知県",
      "prefectureNameTranslations": null,
      "cityName": null,
      "cityNameTranslations": null,
      "placeType": "quarter"
    },
    {
      "id": "aichi_unknown_nakajima",
      "osmId": 2154318079,
      "name": "中島",
      "nameKana": "なかじま",
      "nameTranslations": {
        "en": "Nakajima"
      },
      "latitude": 35.1738967,
      "longitude": 136.8168598,
      "lines": null,
      "prefectureId": "aichi",
      "cityId": null,
      "countryCode": "jp",
      "prefectureName": "愛知県",
      "prefectureNameTranslations": null,
      "cityName": null,
      "cityNameTranslations": null,
      "placeType": "quarter"
    },
    {
      "id": "aichi_unknown_nakatacho",
      "osmId": 2154318084,
      "name": "中田町",
      "nameKana": "なかたちょう",
      "nameTranslations": {
        "en": "Nakatacho"
      },
      "latitude": 35.135665,
      "longitude": 136.9073863,
      "lines": null,
      "prefectureId": "aichi",
      "cityId": null,
      "countryCode": "jp",
      "prefectureName": "愛知県",
      "prefectureNameTranslations": null,
      "cityName": null,
      "cityNameTranslations": null,
      "placeType": "quarter"
    },
    {
      "id": "aichi_unknown_nakahanacho",
      "osmId": 2154318085,
      "name": "中花町",
      "nameKana": "なかはなちょう",
      "nameTranslations": {
        "en": "Nakahanacho"
      },
      "latitude": 35.1306891,
      "longitude": 136.8464979,
      "lines": null,
      "prefectureId": "aichi",
      "cityId": null,
      "countryCode": "jp",
      "prefectureName": "愛知県",
      "prefectureNameTranslations": null,
      "cityName": null,
      "cityNameTranslations": null,
      "placeType": "quarter"
    },
    {
      "id": "aichi_unknown_nakasucho",
      "osmId": 2154318091,
      "name": "中須町",
      "nameKana": "なかすちょう",
      "nameTranslations": {
        "en": "Nakasucho"
      },
      "latitude": 35.1380858,
      "longitude": 136.8385839,
      "lines": null,
      "prefectureId": "aichi",
      "cityId": null,
      "countryCode": "jp",
      "prefectureName": "愛知県",
      "prefectureNameTranslations": null,
      "cityName": null,
      "cityNameTranslations": null,
      "placeType": "quarter"
    },
    {
      "id": "aichi_unknown_kokonoecho",
      "osmId": 2154318092,
      "name": "九重町",
      "nameKana": "ここのえちょう",
      "nameTranslations": {
        "en": "Kokonoecho"
      },
      "latitude": 35.1566955,
      "longitude": 136.8751827,
      "lines": null,
      "prefectureId": "aichi",
      "cityId": null,
      "countryCode": "jp",
      "prefectureName": "愛知県",
      "prefectureNameTranslations": null,
      "cityName": null,
      "cityNameTranslations": null,
      "placeType": "quarter"
    },
    {
      "id": "aichi_unknown_gohonmatsucho",
      "osmId": 2154318099,
      "name": "五本松町",
      "nameKana": "ごほんまつちょう",
      "nameTranslations": {
        "en": "Gohonmatsucho"
      },
      "latitude": 35.1348301,
      "longitude": 136.9026737,
      "lines": null,
      "prefectureId": "aichi",
      "cityId": null,
      "countryCode": "jp",
      "prefectureName": "愛知県",
      "prefectureNameTranslations": null,
      "cityName": null,
      "cityNameTranslations": null,
      "placeType": "quarter"
    },
    {
      "id": "aichi_unknown_gobancho",
      "osmId": 2154318100,
      "name": "五番町",
      "nameKana": "ごばんちょう",
      "nameTranslations": {
        "en": "Gobancho"
      },
      "latitude": 35.1157772,
      "longitude": 136.8909299,
      "lines": null,
      "prefectureId": "aichi",
      "cityId": null,
      "countryCode": "jp",
      "prefectureName": "愛知県",
      "prefectureNameTranslations": null,
      "cityName": null,
      "cityNameTranslations": null,
      "placeType": "quarter"
    },
    {
      "id": "aichi_unknown_ibukacho",
      "osmId": 2154318101,
      "name": "井深町",
      "nameKana": "いぶかちょう",
      "nameTranslations": {
        "en": "Ibukacho"
      },
      "latitude": 35.1783842,
      "longitude": 136.8750845,
      "lines": null,
      "prefectureId": "aichi",
      "cityId": null,
      "countryCode": "jp",
      "prefectureName": "愛知県",
      "prefectureNameTranslations": null,
      "cityName": null,
      "cityNameTranslations": null,
      "placeType": "quarter"
    },
    {
      "id": "aichi_unknown_sakuracho",
      "osmId": 2154318110,
      "name": "作倉町",
      "nameKana": "さくらちょう",
      "nameTranslations": {
        "en": "Sakuracho"
      },
      "latitude": 35.1027174,
      "longitude": 136.8912482,
      "lines": null,
      "prefectureId": "aichi",
      "cityId": null,
      "countryCode": "jp",
      "prefectureName": "愛知県",
      "prefectureNameTranslations": null,
      "cityName": null,
      "cityNameTranslations": null,
      "placeType": "quarter"
    },
    {
      "id": "aichi_unknown_yatsuya",
      "osmId": 2154318117,
      "name": "八ツ屋",
      "nameKana": "やつや",
      "nameTranslations": {
        "en": "Yatsuya"
      },
      "latitude": 35.1703718,
      "longitude": 136.8318856,
      "lines": null,
      "prefectureId": "aichi",
      "cityId": null,
      "countryCode": "jp",
      "prefectureName": "愛知県",
      "prefectureNameTranslations": null,
      "cityName": null,
      "cityNameTranslations": null,
      "placeType": "quarter"
    },
    {
      "id": "aichi_unknown_hattacho",
      "osmId": 2154318121,
      "name": "八田町",
      "nameKana": "はったちょう",
      "nameTranslations": {
        "en": "Hattacho"
      },
      "latitude": 35.1479855,
      "longitude": 136.8538466,
      "lines": null,
      "prefectureId": "aichi",
      "cityId": null,
      "countryCode": "jp",
      "prefectureName": "愛知県",
      "prefectureNameTranslations": null,
      "cityName": null,
      "cityNameTranslations": null,
      "placeType": "quarter"
    },
    {
      "id": "aichi_unknown_kitamajima",
      "osmId": 2154318141,
      "name": "北間島",
      "nameKana": "きたまじま",
      "nameTranslations": {
        "en": "Kitamajima"
      },
      "latitude": 35.1759659,
      "longitude": 136.8296175,
      "lines": null,
      "prefectureId": "aichi",
      "cityId": null,
      "countryCode": "jp",
      "prefectureName": "愛知県",
      "prefectureNameTranslations": null,
      "cityName": null,
      "cityNameTranslations": null,
      "placeType": "quarter"
    },
    {
      "id": "aichi_unknown_juocho",
      "osmId": 2154318145,
      "name": "十王町",
      "nameKana": "じゅうおうちょう",
      "nameTranslations": {
        "en": "Juocho"
      },
      "latitude": 35.1789831,
      "longitude": 136.8673567,
      "lines": null,
      "prefectureId": "aichi",
      "cityId": null,
      "countryCode": "jp",
      "prefectureName": "愛知県",
      "prefectureNameTranslations": null,
      "cityName": null,
      "cityNameTranslations": null,
      "placeType": "quarter"
    },
    {
      "id": "aichi_unknown_chiyodacho",
      "osmId": 2154318146,
      "name": "千代田町",
      "nameKana": "ちよだちょう",
      "nameTranslations": {
        "en": "Chiyodacho"
      },
      "latitude": 35.1361977,
      "longitude": 136.8912385,
      "lines": null,
      "prefectureId": "aichi",
      "cityId": null,
      "countryCode": "jp",
      "prefectureName": "愛知県",
      "prefectureNameTranslations": null,
      "cityName": null,
      "cityNameTranslations": null,
      "placeType": "quarter"
    },
    {
      "id": "aichi_unknown_chiharacho",
      "osmId": 2154318147,
      "name": "千原町",
      "nameKana": "ちはらちょう",
      "nameTranslations": {
        "en": "Chiharacho"
      },
      "latitude": 35.1806711,
      "longitude": 136.8739187,
      "lines": null,
      "prefectureId": "aichi",
      "cityId": null,
      "countryCode": "jp",
      "prefectureName": "愛知県",
      "prefectureNameTranslations": null,
      "cityName": null,
      "cityNameTranslations": null,
      "placeType": "quarter"
    },
    {
      "id": "aichi_unknown_minami_ichibancho",
      "osmId": 2154318154,
      "name": "南一番町",
      "nameKana": "みなみいちばんちょう",
      "nameTranslations": {
        "en": "Minami-Ichibancho"
      },
      "latitude": 35.1174731,
      "longitude": 136.8960787,
      "lines": null,
      "prefectureId": "aichi",
      "cityId": null,
      "countryCode": "jp",
      "prefectureName": "愛知県",
      "prefectureNameTranslations": null,
      "cityName": null,
      "cityNameTranslations": null,
      "placeType": "quarter"
    },
    {
      "id": "aichi_unknown_minami_yagumacho",
      "osmId": 2154318155,
      "name": "南八熊町",
      "nameKana": "みなみやぐまちょう",
      "nameTranslations": {
        "en": "Minami-Yagumacho"
      },
      "latitude": 35.1397715,
      "longitude": 136.8924555,
      "lines": null,
      "prefectureId": "aichi",
      "cityId": null,
      "countryCode": "jp",
      "prefectureName": "愛知県",
      "prefectureNameTranslations": null,
      "cityName": null,
      "cityNameTranslations": null,
      "placeType": "quarter"
    },
    {
      "id": "aichi_unknown_zenhokucho",
      "osmId": 2154318205,
      "name": "善北町",
      "nameKana": "ぜんほくちょう",
      "nameTranslations": {
        "en": "Zenhokucho"
      },
      "latitude": 35.1034319,
      "longitude": 136.854933,
      "lines": null,
      "prefectureId": "aichi",
      "cityId": null,
      "countryCode": "jp",
      "prefectureName": "愛知県",
      "prefectureNameTranslations": null,
      "cityName": null,
      "cityNameTranslations": null,
      "placeType": "quarter"
    },
    {
      "id": "aichi_unknown_zennancho",
      "osmId": 2154318207,
      "name": "善南町",
      "nameKana": "ぜんなんちょう",
      "nameTranslations": {
        "en": "Zennancho"
      },
      "latitude": 35.0977719,
      "longitude": 136.851933,
      "lines": null,
      "prefectureId": "aichi",
      "cityId": null,
      "countryCode": "jp",
      "prefectureName": "愛知県",
      "prefectureNameTranslations": null,
      "cityName": null,
      "cityNameTranslations": null,
      "placeType": "quarter"
    },
    {
      "id": "aichi_unknown_zenshin_honmachi",
      "osmId": 2154318209,
      "name": "善進本町",
      "nameKana": "ぜんしんほんまち",
      "nameTranslations": {
        "en": "Zenshin-honmachi"
      },
      "latitude": 35.1008166,
      "longitude": 136.8561726,
      "lines": null,
      "prefectureId": "aichi",
      "cityId": null,
      "countryCode": "jp",
      "prefectureName": "愛知県",
      "prefectureNameTranslations": null,
      "cityName": null,
      "cityNameTranslations": null,
      "placeType": "quarter"
    },
    {
      "id": "aichi_unknown_tsuchinocho",
      "osmId": 2154318216,
      "name": "土野町",
      "nameKana": "つちのちょう",
      "nameTranslations": {
        "en": "Tsuchinocho"
      },
      "latitude": 35.1450253,
      "longitude": 136.8410087,
      "lines": null,
      "prefectureId": "aichi",
      "cityId": null,
      "countryCode": "jp",
      "prefectureName": "愛知県",
      "prefectureNameTranslations": null,
      "cityName": null,
      "cityNameTranslations": null,
      "placeType": "quarter"
    },
    {
      "id": "aichi_unknown_horinouchi",
      "osmId": 2154318217,
      "name": "堀之内",
      "nameKana": "ほりのうち",
      "nameTranslations": {
        "en": "Horinouchi"
      },
      "latitude": 35.1753482,
      "longitude": 136.8240112,
      "lines": null,
      "prefectureId": "aichi",
      "cityId": null,
      "countryCode": "jp",
      "prefectureName": "愛知県",
      "prefectureNameTranslations": null,
      "cityName": null,
      "cityNameTranslations": null,
      "placeType": "quarter"
    },
    {
      "id": "aichi_unknown_shioikecho",
      "osmId": 2154318218,
      "name": "塩池町",
      "nameKana": "しおいけちょう",
      "nameTranslations": {
        "en": "Shioikecho"
      },
      "latitude": 35.1846732,
      "longitude": 136.8667571,
      "lines": null,
      "prefectureId": "aichi",
      "cityId": null,
      "countryCode": "jp",
      "prefectureName": "愛知県",
      "prefectureNameTranslations": null,
      "cityName": null,
      "cityNameTranslations": null,
      "placeType": "quarter"
    },
    {
      "id": "aichi_unknown_sotodoicho",
      "osmId": 2154318219,
      "name": "外土居町",
      "nameKana": "そとどいちょう",
      "nameTranslations": {
        "en": "Sotodoicho"
      },
      "latitude": 35.1370837,
      "longitude": 136.9062067,
      "lines": null,
      "prefectureId": "aichi",
      "cityId": null,
      "countryCode": "jp",
      "prefectureName": "愛知県",
      "prefectureNameTranslations": null,
      "cityName": null,
      "cityNameTranslations": null,
      "placeType": "quarter"
    },
    {
      "id": "aichi_unknown_yosamucho",
      "osmId": 2154318220,
      "name": "夜寒町",
      "nameKana": "よさむちょう",
      "nameTranslations": {
        "en": "Yosamucho"
      },
      "latitude": 35.1331157,
      "longitude": 136.9048406,
      "lines": null,
      "prefectureId": "aichi",
      "cityId": null,
      "countryCode": "jp",
      "prefectureName": "愛知県",
      "prefectureNameTranslations": null,
      "cityName": null,
      "cityNameTranslations": null,
      "placeType": "quarter"
    },
    {
      "id": "aichi_unknown_daichi",
      "osmId": 2154318221,
      "name": "大地",
      "nameKana": "だいち",
      "nameTranslations": {
        "en": "Daichi"
      },
      "latitude": 35.1604258,
      "longitude": 136.8330253,
      "lines": null,
      "prefectureId": "aichi",
      "cityId": null,
      "countryCode": "jp",
      "prefectureName": "愛知県",
      "prefectureNameTranslations": null,
      "cityName": null,
      "cityNameTranslations": null,
      "placeType": "quarter"
    },
    {
      "id": "aichi_unknown_dainichicho",
      "osmId": 2154318229,
      "name": "大日町",
      "nameKana": "だいにちちょう",
      "nameTranslations": {
        "en": "Dainichicho"
      },
      "latitude": 35.18078,
      "longitude": 136.8694219,
      "lines": null,
      "prefectureId": "aichi",
      "cityId": null,
      "countryCode": "jp",
      "prefectureName": "愛知県",
      "prefectureNameTranslations": null,
      "cityName": null,
      "cityNameTranslations": null,
      "placeType": "quarter"
    },
    {
      "id": "aichi_unknown_osekocho",
      "osmId": 2154318230,
      "name": "大瀬子町",
      "nameKana": "おおせこちょう",
      "nameTranslations": {
        "en": "Osekocho"
      },
      "latitude": 35.1201318,
      "longitude": 136.904982,
      "lines": null,
      "prefectureId": "aichi",
      "cityId": null,
      "countryCode": "jp",
      "prefectureName": "愛知県",
      "prefectureNameTranslations": null,
      "cityName": null,
      "cityNameTranslations": null,
      "placeType": "quarter"
    },
    {
      "id": "aichi_unknown_tenmokucho",
      "osmId": 2154318234,
      "name": "天目町",
      "nameKana": "てんもくちょう",
      "nameTranslations": {
        "en": "Tenmokucho"
      },
      "latitude": 35.0980805,
      "longitude": 136.8022794,
      "lines": null,
      "prefectureId": "aichi",
      "cityId": null,
      "countryCode": "jp",
      "prefectureName": "愛知県",
      "prefectureNameTranslations": null,
      "cityName": null,
      "cityNameTranslations": null,
      "placeType": "quarter"
    },
    {
      "id": "aichi_unknown_sakomaecho",
      "osmId": 2154318239,
      "name": "佐古前町",
      "nameKana": "さこまえちょう",
      "nameTranslations": {
        "en": "Sakomaecho"
      },
      "latitude": 35.1789287,
      "longitude": 136.8714871,
      "lines": null,
      "prefectureId": "aichi",
      "cityId": null,
      "countryCode": "jp",
      "prefectureName": "愛知県",
      "prefectureNameTranslations": null,
      "cityName": null,
      "cityNameTranslations": null,
      "placeType": "quarter"
    },
    {
      "id": "aichi_unknown_teramaecho",
      "osmId": 2154318251,
      "name": "寺前町",
      "nameKana": "てらまえちょう",
      "nameTranslations": {
        "en": "Teramaecho"
      },
      "latitude": 35.1126596,
      "longitude": 136.8008471,
      "lines": null,
      "prefectureId": "aichi",
      "cityId": null,
      "countryCode": "jp",
      "prefectureName": "愛知県",
      "prefectureNameTranslations": null,
      "cityName": null,
      "cityNameTranslations": null,
      "placeType": "quarter"
    },
    {
      "id": "aichi_unknown_otocho",
      "osmId": 2154318273,
      "name": "尾頭町",
      "nameKana": "おとうちょう",
      "nameTranslations": {
        "en": "Otocho"
      },
      "latitude": 35.1357587,
      "longitude": 136.9000262,
      "lines": null,
      "prefectureId": "aichi",
      "cityId": null,
      "countryCode": "jp",
      "prefectureName": "愛知県",
      "prefectureNameTranslations": null,
      "cityName": null,
      "cityNameTranslations": null,
      "placeType": "quarter"
    },
    {
      "id": "aichi_unknown_shimaicho",
      "osmId": 2154318278,
      "name": "島井町",
      "nameKana": "しまいちょう",
      "nameTranslations": {
        "en": "Shimaicho"
      },
      "latitude": 35.1550725,
      "longitude": 136.8180452,
      "lines": null,
      "prefectureId": "aichi",
      "cityId": null,
      "countryCode": "jp",
      "prefectureName": "愛知県",
      "prefectureNameTranslations": null,
      "cityName": null,
      "cityNameTranslations": null,
      "placeType": "quarter"
    },
    {
      "id": "aichi_unknown_kawanamicho",
      "osmId": 2154318279,
      "name": "川並町",
      "nameKana": "かわなみちょう",
      "nameTranslations": {
        "en": "Kawanamicho"
      },
      "latitude": 35.1358895,
      "longitude": 136.895537,
      "lines": null,
      "prefectureId": "aichi",
      "cityId": null,
      "countryCode": "jp",
      "prefectureName": "愛知県",
      "prefectureNameTranslations": null,
      "cityName": null,
      "cityNameTranslations": null,
      "placeType": "quarter"
    },
    {
      "id": "aichi_unknown_kawamaecho",
      "osmId": 2154318280,
      "name": "川前町",
      "nameKana": "かわまえちょう",
      "nameTranslations": {
        "en": "Kawamaecho"
      },
      "latitude": 35.1462522,
      "longitude": 136.8380186,
      "lines": null,
      "prefectureId": "aichi",
      "cityId": null,
      "countryCode": "jp",
      "prefectureName": "愛知県",
      "prefectureNameTranslations": null,
      "cityName": null,
      "cityNameTranslations": null,
      "placeType": "quarter"
    },
    {
      "id": "aichi_unknown_kawamaecho_quarter",
      "osmId": 2154318281,
      "name": "川前町",
      "nameKana": "かわまえちょう",
      "nameTranslations": {
        "en": "Kawamaecho"
      },
      "latitude": 35.1466596,
      "longitude": 136.8406089,
      "lines": null,
      "prefectureId": "aichi",
      "cityId": null,
      "countryCode": "jp",
      "prefectureName": "愛知県",
      "prefectureNameTranslations": null,
      "cityName": null,
      "cityNameTranslations": null,
      "placeType": "quarter"
    },
    {
      "id": "aichi_unknown_hatanocho",
      "osmId": 2154318285,
      "name": "幡野町",
      "nameKana": "はたのちょう",
      "nameTranslations": {
        "en": "Hatanocho"
      },
      "latitude": 35.1390593,
      "longitude": 136.8880529,
      "lines": null,
      "prefectureId": "aichi",
      "cityId": null,
      "countryCode": "jp",
      "prefectureName": "愛知県",
      "prefectureNameTranslations": null,
      "cityName": null,
      "cityNameTranslations": null,
      "placeType": "quarter"
    },
    {
      "id": "aichi_unknown_hatanocho_quarter",
      "osmId": 2154318286,
      "name": "幡野町",
      "nameKana": "はたのちょう",
      "nameTranslations": {
        "en": "Hatanocho"
      },
      "latitude": 35.1406368,
      "longitude": 136.8877358,
      "lines": null,
      "prefectureId": "aichi",
      "cityId": null,
      "countryCode": "jp",
      "prefectureName": "愛知県",
      "prefectureNameTranslations": null,
      "cityName": null,
      "cityNameTranslations": null,
      "placeType": "quarter"
    },
    {
      "id": "aichi_unknown_hirosumicho",
      "osmId": 2154318287,
      "name": "広住町",
      "nameKana": "ひろすみちょう",
      "nameTranslations": {
        "en": "Hirosumicho"
      },
      "latitude": 35.1560997,
      "longitude": 136.8846232,
      "lines": null,
      "prefectureId": "aichi",
      "cityId": null,
      "countryCode": "jp",
      "prefectureName": "愛知県",
      "prefectureNameTranslations": null,
      "cityName": null,
      "cityNameTranslations": null,
      "placeType": "quarter"
    },
    {
      "id": "aichi_unknown_aichicho",
      "osmId": 2154318292,
      "name": "愛知町",
      "nameKana": "あいちちょう",
      "nameTranslations": {
        "en": "Aichicho"
      },
      "latitude": 35.153727,
      "longitude": 136.8758655,
      "lines": null,
      "prefectureId": "aichi",
      "cityId": null,
      "countryCode": "jp",
      "prefectureName": "愛知県",
      "prefectureNameTranslations": null,
      "cityName": null,
      "cityNameTranslations": null,
      "placeType": "quarter"
    },
    {
      "id": "aichi_unknown_shintomicho",
      "osmId": 2154318310,
      "name": "新富町",
      "nameKana": "しんとみちょう",
      "nameTranslations": {
        "en": "Shintomicho"
      },
      "latitude": 35.1877922,
      "longitude": 136.8647995,
      "lines": null,
      "prefectureId": "aichi",
      "cityId": null,
      "countryCode": "jp",
      "prefectureName": "愛知県",
      "prefectureNameTranslations": null,
      "cityName": null,
      "cityNameTranslations": null,
      "placeType": "quarter"
    },
    {
      "id": "aichi_unknown_hatayacho",
      "osmId": 2154318321,
      "name": "旗屋町",
      "nameKana": "はたやちょう",
      "nameTranslations": {
        "en": "Hatayacho"
      },
      "latitude": 35.1290705,
      "longitude": 136.9063716,
      "lines": null,
      "prefectureId": "aichi",
      "cityId": null,
      "countryCode": "jp",
      "prefectureName": "愛知県",
      "prefectureNameTranslations": null,
      "cityName": null,
      "cityNameTranslations": null,
      "placeType": "quarter"
    },
    {
      "id": "aichi_unknown_hibitsucho",
      "osmId": 2154318322,
      "name": "日比津町",
      "nameKana": "ひびつちょう",
      "nameTranslations": {
        "en": "Hibitsucho"
      },
      "latitude": 35.1814062,
      "longitude": 136.8586295,
      "lines": null,
      "prefectureId": "aichi",
      "cityId": null,
      "countryCode": "jp",
      "prefectureName": "愛知県",
      "prefectureNameTranslations": null,
      "cityName": null,
      "cityNameTranslations": null,
      "placeType": "quarter"
    },
    {
      "id": "aichi_unknown_akenocho",
      "osmId": 2154318325,
      "name": "明野町",
      "nameKana": "あけのちょう",
      "nameTranslations": {
        "en": "Akenocho"
      },
      "latitude": 35.138432,
      "longitude": 136.8909912,
      "lines": null,
      "prefectureId": "aichi",
      "cityId": null,
      "countryCode": "jp",
      "prefectureName": "愛知県",
      "prefectureNameTranslations": null,
      "cityName": null,
      "cityNameTranslations": null,
      "placeType": "quarter"
    },
    {
      "id": "aichi_unknown_tsukishimacho",
      "osmId": 2154318334,
      "name": "月島町",
      "nameKana": "つきしまちょう",
      "nameTranslations": {
        "en": "Tsukishimacho"
      },
      "latitude": 35.1560109,
      "longitude": 136.8819657,
      "lines": null,
      "prefectureId": "aichi",
      "cityId": null,
      "countryCode": "jp",
      "prefectureName": "愛知県",
      "prefectureNameTranslations": null,
      "cityName": null,
      "cityNameTranslations": null,
      "placeType": "quarter"
    },
    {
      "id": "aichi_unknown_honmaedacho",
      "osmId": 2154318340,
      "name": "本前田町",
      "nameKana": "ほんまえだちょう",
      "nameTranslations": {
        "en": "Honmaedacho"
      },
      "latitude": 35.1433632,
      "longitude": 136.836888,
      "lines": null,
      "prefectureId": "aichi",
      "cityId": null,
      "countryCode": "jp",
      "prefectureName": "愛知県",
      "prefectureNameTranslations": null,
      "cityName": null,
      "cityNameTranslations": null,
      "placeType": "quarter"
    },
    {
      "id": "aichi_unknown_higashi_kanosatocho",
      "osmId": 2154318341,
      "name": "東かの里町",
      "nameKana": "ひがしかのさとちょう",
      "nameTranslations": {
        "en": "Higashi-Kanosatocho"
      },
      "latitude": 35.1325109,
      "longitude": 136.8169884,
      "lines": null,
      "prefectureId": "aichi",
      "cityId": null,
      "countryCode": "jp",
      "prefectureName": "愛知県",
      "prefectureNameTranslations": null,
      "cityName": null,
      "cityNameTranslations": null,
      "placeType": "quarter"
    },
    {
      "id": "aichi_unknown_higashijo",
      "osmId": 2154318352,
      "name": "東條",
      "nameKana": "ひがしじょう",
      "nameTranslations": {
        "en": "Higashijo"
      },
      "latitude": 35.1718273,
      "longitude": 136.8290845,
      "lines": null,
      "prefectureId": "aichi",
      "cityId": null,
      "countryCode": "jp",
      "prefectureName": "愛知県",
      "prefectureNameTranslations": null,
      "cityName": null,
      "cityNameTranslations": null,
      "placeType": "quarter"
    },
    {
      "id": "aichi_unknown_higashi_kanita",
      "osmId": 2154318360,
      "name": "東蟹田",
      "nameKana": "ひがしかにた",
      "nameTranslations": {
        "en": "Higashi-Kanita"
      },
      "latitude": 35.1222776,
      "longitude": 136.8204998,
      "lines": null,
      "prefectureId": "aichi",
      "cityId": null,
      "countryCode": "jp",
      "prefectureName": "愛知県",
      "prefectureNameTranslations": null,
      "cityName": null,
      "cityNameTranslations": null,
      "placeType": "quarter"
    },
    {
      "id": "aichi_unknown_yanagiboricho",
      "osmId": 2154318362,
      "name": "柳堀町",
      "nameKana": "やなぎぼりちょう",
      "nameTranslations": {
        "en": "Yanagiboricho"
      },