{
  "fetchedAt": "2025-12-11T00:56:28.943Z",
  "prefecture": {
    "id": "fukuoka",
    "name": "福岡県"
  },
  "cities": [
    {
      "id": "fukuoka_kasuga",
      "osmId": 672057014,
      "prefectureId": "fukuoka",
      "name": "春日市",
      "nameKana": "かすがし",
      "nameTranslations": {
        "en": "Kasuga"
      },
      "type": "市",
      "countryCode": "jp",
      "latitude": 33.5326401,
      "longitude": 130.4699924
    },
    {
      "id": "fukuoka_fukutsu",
      "osmId": 1245513960,
      "prefectureId": "fukuoka",
      "name": "福津市",
      "nameKana": "ふくつし",
      "nameTranslations": {
        "en": "Fukutsu"
      },
      "type": "市",
      "countryCode": "jp",
      "latitude": 33.7668264,
      "longitude": 130.4913329
    },
    {
      "id": "fukuoka_nogata",
      "osmId": 1553133028,
      "prefectureId": "fukuoka",
      "name": "直方市",
      "nameKana": "のおがたし",
      "nameTranslations": {
        "en": "Nogata"
      },
      "type": "市",
      "countryCode": "jp",
      "latitude": 33.743936,
      "longitude": 130.7297462
    },
    {
      "id": "fukuoka_kama",
      "osmId": 1553160270,
      "prefectureId": "fukuoka",
      "name": "嘉麻市",
      "nameKana": "かまし",
      "nameTranslations": {
        "en": "Kama"
      },
      "type": "市",
      "countryCode": "jp",
      "latitude": 33.5632103,
      "longitude": 130.7118029
    },
    {
      "id": "fukuoka_iizuka",
      "osmId": 1553257495,
      "prefectureId": "fukuoka",
      "name": "飯塚市",
      "nameKana": "いいづかし",
      "nameTranslations": {
        "en": "Iizuka"
      },
      "type": "市",
      "countryCode": "jp",
      "latitude": 33.646594,
      "longitude": 130.6911579
    },
    {
      "id": "fukuoka_asakura",
      "osmId": 1555134676,
      "prefectureId": "fukuoka",
      "name": "朝倉市",
      "nameKana": "あさくらし",
      "nameTranslations": {
        "en": "Asakura"
      },
      "type": "市",
      "countryCode": "jp",
      "latitude": 33.4234248,
      "longitude": 130.6657037
    },
    {
      "id": "fukuoka_ogori",
      "osmId": 1562153855,
      "prefectureId": "fukuoka",
      "name": "小郡市",
      "nameKana": "おごおりし",
      "nameTranslations": {
        "en": "Ogori"
      },
      "type": "市",
      "countryCode": "jp",
      "latitude": 33.3963946,
      "longitude": 130.5554371
    },
    {
      "id": "fukuoka_yukuhashi",
      "osmId": 1584359428,
      "prefectureId": "fukuoka",
      "name": "行橋市",
      "nameKana": "ゆくはしし",
      "nameTranslations": {
        "en": "Yukuhashi"
      },
      "type": "市",
      "countryCode": "jp",
      "latitude": 33.7292049,
      "longitude": 130.9831626
    },
    {
      "id": "fukuoka_buzen",
      "osmId": 1721461715,
      "prefectureId": "fukuoka",
      "name": "豊前市",
      "nameKana": "ぶぜんし",
      "nameTranslations": {
        "en": "Buzen"
      },
      "type": "市",
      "countryCode": "jp",
      "latitude": 33.6114994,
      "longitude": 131.1304409
    },
    {
      "id": "fukuoka_tagawa",
      "osmId": 1783490716,
      "prefectureId": "fukuoka",
      "name": "田川市",
      "nameKana": "たがわし",
      "nameTranslations": {
        "en": "Tagawa"
      },
      "type": "市",
      "countryCode": "jp",
      "latitude": 33.6387807,
      "longitude": 130.8063352
    },
    {
      "id": "fukuoka_ukiha",
      "osmId": 1794425365,
      "prefectureId": "fukuoka",
      "name": "うきは市",
      "nameKana": "うきはし",
      "nameTranslations": {
        "en": "Ukiha"
      },
      "type": "市",
      "countryCode": "jp",
      "latitude": 33.3473997,
      "longitude": 130.7552293
    },
    {
      "id": "fukuoka_miyama",
      "osmId": 1796590539,
      "prefectureId": "fukuoka",
      "name": "みやま市",
      "nameKana": "みやまし",
      "nameTranslations": {
        "en": "Miyama"
      },
      "type": "市",
      "countryCode": "jp",
      "latitude": 33.1523675,
      "longitude": 130.4746267
    },
    {
      "id": "fukuoka_omuta",
      "osmId": 1800434750,
      "prefectureId": "fukuoka",
      "name": "大牟田市",
      "nameKana": "おおむたし",
      "nameTranslations": {
        "en": "Omuta"
      },
      "type": "市",
      "countryCode": "jp",
      "latitude": 33.047013,
      "longitude": 130.464155
    },
    {
      "id": "fukuoka_okawa",
      "osmId": 1803546659,
      "prefectureId": "fukuoka",
      "name": "大川市",
      "nameKana": "おおかわし",
      "nameTranslations": {
        "en": "Okawa"
      },
      "type": "市",
      "countryCode": "jp",
      "latitude": 33.2061857,
      "longitude": 130.3835746
    },
    {
      "id": "fukuoka_yanagawa",
      "osmId": 1806843505,
      "prefectureId": "fukuoka",
      "name": "柳川市",
      "nameKana": "やながわし",
      "nameTranslations": {
        "en": "Yanagawa"
      },
      "type": "市",
      "countryCode": "jp",
      "latitude": 33.1630969,
      "longitude": 130.4058091
    },
    {
      "id": "fukuoka_nakama",
      "osmId": 1807098329,
      "prefectureId": "fukuoka",
      "name": "中間市",
      "nameKana": "なかまし",
      "nameTranslations": {
        "en": "Nakama"
      },
      "type": "市",
      "countryCode": "jp",
      "latitude": 33.8164202,
      "longitude": 130.7090761
    },
    {
      "id": "fukuoka_miyawaka",
      "osmId": 1808618328,
      "prefectureId": "fukuoka",
      "name": "宮若市",
      "nameKana": "みやわかし",
      "nameTranslations": {
        "en": "Miyawaka"
      },
      "type": "市",
      "countryCode": "jp",
      "latitude": 33.7235894,
      "longitude": 130.6667511
    },
    {
      "id": "fukuoka_munakata",
      "osmId": 1815476345,
      "prefectureId": "fukuoka",
      "name": "宗像市",
      "nameKana": "むなかたし",
      "nameTranslations": {
        "en": "Munakata"
      },
      "type": "市",
      "countryCode": "jp",
      "latitude": 33.8055642,
      "longitude": 130.5406875
    },
    {
      "id": "fukuoka_koga",
      "osmId": 1818752967,
      "prefectureId": "fukuoka",
      "name": "古賀市",
      "nameKana": "こがし",
      "nameTranslations": {
        "en": "Koga"
      },
      "type": "市",
      "countryCode": "jp",
      "latitude": 33.728578,
      "longitude": 130.4701731
    },
    {
      "id": "fukuoka_dazaifu",
      "osmId": 1825968337,
      "prefectureId": "fukuoka",
      "name": "太宰府市",
      "nameKana": "だざいふし",
      "nameTranslations": {
        "en": "Dazaifu"
      },
      "type": "市",
      "countryCode": "jp",
      "latitude": 33.5129189,
      "longitude": 130.5242217
    },
    {
      "id": "fukuoka_onojo",
      "osmId": 1829275426,
      "prefectureId": "fukuoka",
      "name": "大野城市",
      "nameKana": "おおのじょうし",
      "nameTranslations": {
        "en": "Onojo"
      },
      "type": "市",
      "countryCode": "jp",
      "latitude": 33.536239,
      "longitude": 130.478658
    },
    {
      "id": "fukuoka_chikushino",
      "osmId": 1858184821,
      "prefectureId": "fukuoka",
      "name": "筑紫野市",
      "nameKana": "ちくしのし",
      "nameTranslations": {
        "en": "Chikushino"
      },
      "type": "市",
      "countryCode": "jp",
      "latitude": 33.4874888,
      "longitude": 130.5258812
    },
    {
      "id": "fukuoka_fukuoka",
      "osmId": 1932338735,
      "prefectureId": "fukuoka",
      "name": "福岡市",
      "nameKana": "ふくおかし",
      "nameTranslations": {
        "en": "Fukuoka"
      },
      "type": "市",
      "countryCode": "jp",
      "latitude": 33.5898988,
      "longitude": 130.4017509
    },
    {
      "id": "fukuoka_itoshima",
      "osmId": 2155692247,
      "prefectureId": "fukuoka",
      "name": "糸島市",
      "nameKana": "いとしまし",
      "nameTranslations": {
        "en": "Itoshima"
      },
      "type": "市",
      "countryCode": "jp",
      "latitude": 33.5571816,
      "longitude": 130.196231
    },
    {
      "id": "fukuoka_kurume",
      "osmId": 3056729963,
      "prefectureId": "fukuoka",
      "name": "久留米市",
      "nameKana": "くるめし",
      "nameTranslations": {
        "en": "Kurume"
      },
      "type": "市",
      "countryCode": "jp",
      "latitude": 33.3196545,
      "longitude": 130.5080625
    },
    {
      "id": "fukuoka_yame",
      "osmId": 3056842393,
      "prefectureId": "fukuoka",
      "name": "八女市",
      "nameKana": "やめし",
      "nameTranslations": {
        "en": "Yame"
      },
      "type": "市",
      "countryCode": "jp",
      "latitude": 33.2116721,
      "longitude": 130.5579706
    },
    {
      "id": "fukuoka_kitakyushu",
      "osmId": 5410283420,
      "prefectureId": "fukuoka",
      "name": "北九州市",
      "nameKana": "きたきゅうしゅうし",
      "nameTranslations": {
        "en": "Kitakyushu"
      },
      "type": "市",
      "countryCode": "jp",
      "latitude": 33.8829996,
      "longitude": 130.8749015
    },
    {
      "id": "fukuoka_nakagawa",
      "osmId": 6956292800,
      "prefectureId": "fukuoka",
      "name": "那珂川市",
      "nameKana": "なかがわし",
      "nameTranslations": {
        "en": "Nakagawa"
      },
      "type": "市",
      "countryCode": "jp",
      "latitude": 33.4994449,
      "longitude": 130.4216086
    },
    {
      "id": "fukuoka_chikugo",
      "osmId": 7206262217,
      "prefectureId": "fukuoka",
      "name": "筑後市",
      "nameKana": "ちくごし",
      "nameTranslations": {
        "en": "Chikugo"
      },
      "type": "市",
      "countryCode": "jp",
      "latitude": 33.2123783,
      "longitude": 130.5017727
    }
  ],
  "machi": [
    {
      "id": "fukuoka_fukutsu_wakagidai",
      "osmId": 346580360,
      "name": "若木台",
      "nameKana": null,
      "nameTranslations": {
        "en": "Wakagidai"
      },
      "latitude": 33.7745281,
      "longitude": 130.5170854,
      "lines": null,
      "prefectureId": "fukuoka",
      "cityId": "fukuoka_fukutsu",
      "countryCode": "jp",
      "prefectureName": "福岡県",
      "prefectureNameTranslations": null,
      "cityName": "福津市",
      "cityNameTranslations": null,
      "placeType": "quarter"
    },
    {
      "id": "fukuoka_unknown_akebono",
      "osmId": 346582907,
      "name": "あけぼの",
      "nameKana": null,
      "nameTranslations": {
        "en": "Akebono"
      },
      "latitude": 33.771325,
      "longitude": 130.5115125,
      "lines": null,
      "prefectureId": "fukuoka",
      "cityId": null,
      "countryCode": "jp",
      "prefectureName": "福岡県",
      "prefectureNameTranslations": null,
      "cityName": null,
      "cityNameTranslations": null,
      "placeType": "quarter"
    },
    {
      "id": "fukuoka_unknown_sakuragawa",
      "osmId": 346583076,
      "name": "桜川",
      "nameKana": null,
      "nameTranslations": {
        "en": "Sakuragawa"
      },
      "latitude": 33.7708217,
      "longitude": 130.5074781,
      "lines": null,
      "prefectureId": "fukuoka",
      "cityId": null,
      "countryCode": "jp",
      "prefectureName": "福岡県",
      "prefectureNameTranslations": null,
      "cityName": null,
      "cityNameTranslations": null,
      "placeType": "quarter"
    },
    {
      "id": "fukuoka_fukutsu_higashi_fukuma",
      "osmId": 346590026,
      "name": "東福間",
      "nameKana": null,
      "nameTranslations": {
        "en": "Higashi-Fukuma"
      },
      "latitude": 33.777018,
      "longitude": 130.508365,
      "lines": null,
      "prefectureId": "fukuoka",
      "cityId": "fukuoka_fukutsu",
      "countryCode": "jp",
      "prefectureName": "福岡県",
      "prefectureNameTranslations": null,
      "cityName": "福津市",
      "cityNameTranslations": null,
      "placeType": "quarter"
    },
    {
      "id": "fukuoka_unknown_hinosato",
      "osmId": 390310990,
      "name": "日の里",
      "nameKana": null,
      "nameTranslations": {
        "en": "Hinosato"
      },
      "latitude": 33.7892348,
      "longitude": 130.535576,
      "lines": null,
      "prefectureId": "fukuoka",
      "cityId": null,
      "countryCode": "jp",
      "prefectureName": "福岡県",
      "prefectureNameTranslations": null,
      "cityName": null,
      "cityNameTranslations": null,
      "placeType": "quarter"
    },
    {
      "id": "fukuoka_unknown_tsuyazaki",
      "osmId": 539457053,
      "name": "津屋崎",
      "nameKana": null,
      "nameTranslations": {
        "en": "Tsuyazaki"
      },
      "latitude": 33.7875223,
      "longitude": 130.4673578,
      "lines": null,
      "prefectureId": "fukuoka",
      "cityId": null,
      "countryCode": "jp",
      "prefectureName": "福岡県",
      "prefectureNameTranslations": null,
      "cityName": null,
      "cityNameTranslations": null,
      "placeType": "quarter"
    },
    {
      "id": "fukuoka_unknown_sohara",
      "osmId": 1783264164,
      "name": "祖原",
      "nameKana": "そはら",
      "nameTranslations": {
        "en": "Sohara"
      },
      "latitude": 33.5792207,
      "longitude": 130.3572141,
      "lines": null,
      "prefectureId": "fukuoka",
      "cityId": null,
      "countryCode": "jp",
      "prefectureName": "福岡県",
      "prefectureNameTranslations": null,
      "cityName": null,
      "cityNameTranslations": null,
      "placeType": "quarter"
    },
    {
      "id": "fukuoka_unknown_kashiidanchi",
      "osmId": 1784473843,
      "name": "香椎団地",
      "nameKana": "かしいだんち",
      "nameTranslations": {
        "en": "Kashiidanchi"
      },
      "latitude": 33.6538777,
      "longitude": 130.437076,
      "lines": null,
      "prefectureId": "fukuoka",
      "cityId": null,
      "countryCode": "jp",
      "prefectureName": "福岡県",
      "prefectureNameTranslations": null,
      "cityName": null,
      "cityNameTranslations": null,
      "placeType": "quarter"
    },
    {
      "id": "fukuoka_unknown_nozomigaoka",
      "osmId": 1845420353,
      "name": "希みが丘",
      "nameKana": "のぞみがおか",
      "nameTranslations": {
        "en": "Nozomigaoka"
      },
      "latitude": 33.4369848,
      "longitude": 130.5411775,
      "lines": null,
      "prefectureId": "fukuoka",
      "cityId": null,
      "countryCode": "jp",
      "prefectureName": "福岡県",
      "prefectureNameTranslations": null,
      "cityName": null,
      "cityNameTranslations": null,
      "placeType": "quarter"
    },
    {
      "id": "fukuoka_unknown_onoshima",
      "osmId": 1957891341,
      "name": "大野島",
      "nameKana": "おおのしま",
      "nameTranslations": {
        "en": "Onoshima"
      },
      "latitude": 33.1982609,
      "longitude": 130.3501853,
      "lines": null,
      "prefectureId": "fukuoka",
      "cityId": null,
      "countryCode": "jp",
      "prefectureName": "福岡県",
      "prefectureNameTranslations": null,
      "cityName": null,
      "cityNameTranslations": null,
      "placeType": "quarter"
    },
    {
      "id": "fukuoka_unknown_大字原田",
      "osmId": 1971249144,
      "name": "大字原田",
      "nameKana": null,
      "nameTranslations": null,
      "latitude": 33.4429189,
      "longitude": 130.5334118,
      "lines": null,
      "prefectureId": "fukuoka",
      "cityId": null,
      "countryCode": "jp",
      "prefectureName": "福岡県",
      "prefectureNameTranslations": null,
      "cityName": null,
      "cityNameTranslations": null,
      "placeType": "quarter"
    },
    {
      "id": "fukuoka_unknown_大字甘木",
      "osmId": 2002424248,
      "name": "大字甘木",
      "nameKana": null,
      "nameTranslations": null,
      "latitude": 33.42049,
      "longitude": 130.6543399,
      "lines": null,
      "prefectureId": "fukuoka",
      "cityId": null,
      "countryCode": "jp",
      "prefectureName": "福岡県",
      "prefectureNameTranslations": null,
      "cityName": null,
      "cityNameTranslations": null,
      "placeType": "quarter"
    },
    {
      "id": "fukuoka_unknown_miimachi",
      "osmId": 2002427293,
      "name": "御井町",
      "nameKana": "みいまち",
      "nameTranslations": {
        "en": "Miimachi"
      },
      "latitude": 33.301189,
      "longitude": 130.5517877,
      "lines": null,
      "prefectureId": "fukuoka",
      "cityId": null,
      "countryCode": "jp",
      "prefectureName": "福岡県",
      "prefectureNameTranslations": null,
      "cityName": null,
      "cityNameTranslations": null,
      "placeType": "quarter"
    },
    {
      "id": "fukuoka_unknown_namazuta",
      "osmId": 2160984528,
      "name": "鯰田",
      "nameKana": "なまずた",
      "nameTranslations": {
        "en": "Namazuta"
      },
      "latitude": 33.6705394,
      "longitude": 130.7091296,
      "lines": null,
      "prefectureId": "fukuoka",
      "cityId": null,
      "countryCode": "jp",
      "prefectureName": "福岡県",
      "prefectureNameTranslations": null,
      "cityName": null,
      "cityNameTranslations": null,
      "placeType": "quarter"
    },
    {
      "id": "fukuoka_unknown_oritatemachi",
      "osmId": 2192482289,
      "name": "折立町",
      "nameKana": "おりたてまち",
      "nameTranslations": {
        "en": "Oritatemachi"
      },
      "latitude": 33.5530966,
      "longitude": 130.4375123,
      "lines": null,
      "prefectureId": "fukuoka",
      "cityId": null,
      "countryCode": "jp",
      "prefectureName": "福岡県",
      "prefectureNameTranslations": null,
      "cityName": null,
      "cityNameTranslations": null,
      "placeType": "quarter"
    },
    {
      "id": "fukuoka_unknown_shimonofu",
      "osmId": 2312982548,
      "name": "下府",
      "nameKana": null,
      "nameTranslations": {
        "en": "Shimonofu"
      },
      "latitude": 33.7106299,
      "longitude": 130.4393706,
      "lines": null,
      "prefectureId": "fukuoka",
      "cityId": null,
      "countryCode": "jp",
      "prefectureName": "福岡県",
      "prefectureNameTranslations": null,
      "cityName": null,
      "cityNameTranslations": null,
      "placeType": "quarter"
    },
    {
      "id": "fukuoka_unknown_shiohama",
      "osmId": 2313022416,
      "name": "塩浜",
      "nameKana": "しおはま",
      "nameTranslations": {
        "en": "Shiohama"
      },
      "latitude": 33.6916895,
      "longitude": 130.4245991,
      "lines": null,
      "prefectureId": "fukuoka",
      "cityId": null,
      "countryCode": "jp",
      "prefectureName": "福岡県",
      "prefectureNameTranslations": null,
      "cityName": null,
      "cityNameTranslations": null,
      "placeType": "quarter"
    },
    {
      "id": "fukuoka_unknown_hakataeki_chuogai",
      "osmId": 2319138572,
      "name": "博多駅中央街",
      "nameKana": "はかたえきちゅうおうがい",
      "nameTranslations": {
        "en": "Hakataeki-Chuogai"
      },
      "latitude": 33.5896962,
      "longitude": 130.4213185,
      "lines": null,
      "prefectureId": "fukuoka",
      "cityId": null,
      "countryCode": "jp",
      "prefectureName": "福岡県",
      "prefectureNameTranslations": null,
      "cityName": null,
      "cityNameTranslations": null,
      "placeType": "quarter"
    },
    {
      "id": "fukuoka_unknown_sakurayamate",
      "osmId": 2321387995,
      "name": "桜山手",
      "nameKana": null,
      "nameTranslations": {
        "en": "Sakurayamate"
      },
      "latitude": 33.7050241,
      "longitude": 130.4387935,
      "lines": null,
      "prefectureId": "fukuoka",
      "cityId": null,
      "countryCode": "jp",
      "prefectureName": "福岡県",
      "prefectureNameTranslations": null,
      "cityName": null,
      "cityNameTranslations": null,
      "placeType": "quarter"
    },
    {
      "id": "fukuoka_unknown_wajirogaoka",
      "osmId": 2345882917,
      "name": "和白丘",
      "nameKana": "わじろがおか",
      "nameTranslations": {
        "en": "Wajirogaoka"
      },
      "latitude": 33.6984391,
      "longitude": 130.4364629,
      "lines": null,
      "prefectureId": "fukuoka",
      "cityId": null,
      "countryCode": "jp",
      "prefectureName": "福岡県",
      "prefectureNameTranslations": null,
      "cityName": null,
      "cityNameTranslations": null,
      "placeType": "quarter"
    },
    {
      "id": "fukuoka_unknown_wajirohigashi",
      "osmId": 2345882936,
      "name": "和白東",
      "nameKana": "わじろひがし",
      "nameTranslations": {
        "en": "Wajirohigashi"
      },
      "latitude": 33.6944771,
      "longitude": 130.4420979,
      "lines": null,
      "prefectureId": "fukuoka",
      "cityId": null,
      "countryCode": "jp",
      "prefectureName": "福岡県",
      "prefectureNameTranslations": null,
      "cityName": null,
      "cityNameTranslations": null,
      "placeType": "quarter"
    },
    {
      "id": "fukuoka_unknown_yuusu",
      "osmId": 2345882945,
      "name": "夜臼",
      "nameKana": null,
      "nameTranslations": {
        "en": "Yuusu"
      },
      "latitude": 33.7009791,
      "longitude": 130.4470042,
      "lines": null,
      "prefectureId": "fukuoka",
      "cityId": null,
      "countryCode": "jp",
      "prefectureName": "福岡県",
      "prefectureNameTranslations": null,
      "cityName": null,
      "cityNameTranslations": null,
      "placeType": "quarter"
    },
    {
      "id": "fukuoka_unknown_shingu",
      "osmId": 2345882956,
      "name": "新宮",
      "nameKana": "しんぐう",
      "nameTranslations": {
        "en": "Shingu"
      },
      "latitude": 33.7139551,
      "longitude": 130.4320308,
      "lines": null,
      "prefectureId": "fukuoka",
      "cityId": null,
      "countryCode": "jp",
      "prefectureName": "福岡県",
      "prefectureNameTranslations": null,
      "cityName": null,
      "cityNameTranslations": null,
      "placeType": "quarter"
    },
    {
      "id": "fukuoka_unknown_miwadai",
      "osmId": 2345882968,
      "name": "美和台",
      "nameKana": null,
      "nameTranslations": {
        "en": "Miwadai"
      },
      "latitude": 33.7032547,
      "longitude": 130.4291206,
      "lines": null,
      "prefectureId": "fukuoka",
      "cityId": null,
      "countryCode": "jp",
      "prefectureName": "福岡県",
      "prefectureNameTranslations": null,
      "cityName": null,
      "cityNameTranslations": null,
      "placeType": "quarter"
    },
    {
      "id": "fukuoka_unknown_takamidai",
      "osmId": 2345882977,
      "name": "高美台",
      "nameKana": null,
      "nameTranslations": {
        "en": "Takamidai"
      },
      "latitude": 33.6893588,
      "longitude": 130.4458929,
      "lines": null,
      "prefectureId": "fukuoka",
      "cityId": null,
      "countryCode": "jp",
      "prefectureName": "福岡県",
      "prefectureNameTranslations": null,
      "cityName": null,
      "cityNameTranslations": null,
      "placeType": "quarter"
    },
    {
      "id": "fukuoka_unknown_mitoma",
      "osmId": 2345916309,
      "name": "三苫",
      "nameKana": null,
      "nameTranslations": {
        "en": "Mitoma"
      },
      "latitude": 33.7031316,
      "longitude": 130.421961,
      "lines": null,
      "prefectureId": "fukuoka",
      "cityId": null,
      "countryCode": "jp",
      "prefectureName": "福岡県",
      "prefectureNameTranslations": null,
      "cityName": null,
      "cityNameTranslations": null,
      "placeType": "quarter"
    },
    {
      "id": "fukuoka_unknown_kaminofu",
      "osmId": 2345916313,
      "name": "上府",
      "nameKana": "かみのふ",
      "nameTranslations": {
        "en": "Kaminofu"
      },
      "latitude": 33.7108684,
      "longitude": 130.4593613,
      "lines": null,
      "prefectureId": "fukuoka",
      "cityId": null,
      "countryCode": "jp",
      "prefectureName": "福岡県",
      "prefectureNameTranslations": null,
      "cityName": null,
      "cityNameTranslations": null,
      "placeType": "quarter"
    },
    {
      "id": "fukuoka_unknown_wajiro",
      "osmId": 2345916316,
      "name": "和白",
      "nameKana": "わじろ",
      "nameTranslations": {
        "en": "Wajiro"
      },
      "latitude": 33.6879471,
      "longitude": 130.4316397,
      "lines": null,
      "prefectureId": "fukuoka",
      "cityId": null,
      "countryCode": "jp",
      "prefectureName": "福岡県",
      "prefectureNameTranslations": null,
      "cityName": null,
      "cityNameTranslations": null,
      "placeType": "quarter"
    },
    {
      "id": "fukuoka_unknown_nata",
      "osmId": 2345916320,
      "name": "奈多",
      "nameKana": "なた",
      "nameTranslations": {
        "en": "Nata"
      },
      "latitude": 33.6876883,
      "longitude": 130.4155427,
      "lines": null,
      "prefectureId": "fukuoka",
      "cityId": null,
      "countryCode": "jp",
      "prefectureName": "福岡県",
      "prefectureNameTranslations": null,
      "cityName": null,
      "cityNameTranslations": null,
      "placeType": "quarter"
    },
    {
      "id": "fukuoka_unknown_midorigahama",
      "osmId": 2345916325,
      "name": "緑ケ浜",
      "nameKana": null,
      "nameTranslations": {
        "en": "Midorigahama"
      },
      "latitude": 33.7181029,
      "longitude": 130.4502822,
      "lines": null,
      "prefectureId": "fukuoka",
      "cityId": null,
      "countryCode": "jp",
      "prefectureName": "福岡県",
      "prefectureNameTranslations": null,
      "cityName": null,
      "cityNameTranslations": null,
      "placeType": "quarter"
    },
    {
      "id": "fukuoka_unknown_tachibanaguchi",
      "osmId": 2345941417,
      "name": "立花口",
      "nameKana": "たちばなぐち",
      "nameTranslations": {
        "en": "Tachibanaguchi"
      },
      "latitude": 33.6844378,
      "longitude": 130.4837258,
      "lines": null,
      "prefectureId": "fukuoka",
      "cityId": null,
      "countryCode": "jp",
      "prefectureName": "福岡県",
      "prefectureNameTranslations": null,
      "cityName": null,
      "cityNameTranslations": null,
      "placeType": "quarter"
    },
    {
      "id": "fukuoka_unknown_kashii_teriha",
      "osmId": 2625671598,
      "name": "香椎照葉",
      "nameKana": "かしいてりは",
      "nameTranslations": {
        "en": "Kashii-teriha"
      },
      "latitude": 33.6657296,
      "longitude": 130.4234504,
      "lines": null,
      "prefectureId": "fukuoka",
      "cityId": null,
      "countryCode": "jp",
      "prefectureName": "福岡県",
      "prefectureNameTranslations": null,
      "cityName": null,
      "cityNameTranslations": null,
      "placeType": "quarter"
    },
    {
      "id": "fukuoka_unknown_saitozaki",
      "osmId": 2639001918,
      "name": "西戸崎",
      "nameKana": "さいとざき",
      "nameTranslations": {
        "en": "Saitozaki"
      },
      "latitude": 33.6619932,
      "longitude": 130.3560614,
      "lines": null,
      "prefectureId": "fukuoka",
      "cityId": null,
      "countryCode": "jp",
      "prefectureName": "福岡県",
      "prefectureNameTranslations": null,
      "cityName": null,
      "cityNameTranslations": null,
      "placeType": "quarter"
    },
    {
      "id": "fukuoka_unknown_gannosu",
      "osmId": 2695547469,
      "name": "雁ノ巣",
      "nameKana": "がんのす",
      "nameTranslations": {
        "en": "Gannosu"
      },
      "latitude": 33.6834138,
      "longitude": 130.4031322,
      "lines": null,
      "prefectureId": "fukuoka",
      "cityId": null,
      "countryCode": "jp",
      "prefectureName": "福岡県",
      "prefectureNameTranslations": null,
      "cityName": null,
      "cityNameTranslations": null,
      "placeType": "quarter"
    },
    {
      "id": "fukuoka_unknown_miwadai_shinmachi",
      "osmId": 2695553199,
      "name": "美和台新町",
      "nameKana": "みわだいしんまち",
      "nameTranslations": {
        "en": "Miwadai-shinmachi"
      },
      "latitude": 33.7079422,
      "longitude": 130.4266836,
      "lines": null,
      "prefectureId": "fukuoka",
      "cityId": null,
      "countryCode": "jp",
      "prefectureName": "福岡県",
      "prefectureNameTranslations": null,
      "cityName": null,
      "cityNameTranslations": null,
      "placeType": "quarter"
    },
    {
      "id": "fukuoka_unknown_morinomiya",
      "osmId": 2695571358,
      "name": "杜の宮",
      "nameKana": null,
      "nameTranslations": {
        "en": "Morinomiya"
      },
      "latitude": 33.7129736,
      "longitude": 130.4415237,
      "lines": null,
      "prefectureId": "fukuoka",
      "cityId": null,
      "countryCode": "jp",
      "prefectureName": "福岡県",
      "prefectureNameTranslations": null,
      "cityName": null,
      "cityNameTranslations": null,
      "placeType": "quarter"
    },
    {
      "id": "fukuoka_unknown_minatozaka",
      "osmId": 2695571364,
      "name": "湊坂",
      "nameKana": null,
      "nameTranslations": {
        "en": "Minatozaka"
      },
      "latitude": 33.7077033,
      "longitude": 130.4340559,
      "lines": null,
      "prefectureId": "fukuoka",
      "cityId": null,
      "countryCode": "jp",
      "prefectureName": "福岡県",
      "prefectureNameTranslations": null,
      "cityName": null,
      "cityNameTranslations": null,
      "placeType": "quarter"
    },
    {
      "id": "fukuoka_unknown_chuoekimae",
      "osmId": 2695585712,
      "name": "中央駅前",
      "nameKana": null,
      "nameTranslations": {
        "en": "Chuoekimae"
      },
      "latitude": 33.7108897,
      "longitude": 130.4505726,
      "lines": null,
      "prefectureId": "fukuoka",
      "cityId": null,
      "countryCode": "jp",
      "prefectureName": "福岡県",
      "prefectureNameTranslations": null,
      "cityName": null,
      "cityNameTranslations": null,
      "placeType": "quarter"
    },
    {
      "id": "fukuoka_unknown_mishiro",
      "osmId": 2695601972,
      "name": "三代",
      "nameKana": "みしろ",
      "nameTranslations": {
        "en": "Mishiro"
      },
      "latitude": 33.6985903,
      "longitude": 130.456838,
      "lines": null,
      "prefectureId": "fukuoka",
      "cityId": null,
      "countryCode": "jp",
      "prefectureName": "福岡県",
      "prefectureNameTranslations": null,
      "cityName": null,
      "cityNameTranslations": null,
      "placeType": "quarter"
    },
    {
      "id": "fukuoka_unknown_harugami",
      "osmId": 2695601980,
      "name": "原上",
      "nameKana": "はるがみ",
      "nameTranslations": {
        "en": "Harugami"
      },
      "latitude": 33.6889009,
      "longitude": 130.4585926,
      "lines": null,
      "prefectureId": "fukuoka",
      "cityId": null,
      "countryCode": "jp",
      "prefectureName": "福岡県",
      "prefectureNameTranslations": null,
      "cityName": null,
      "cityNameTranslations": null,
      "placeType": "quarter"
    },
    {
      "id": "fukuoka_unknown_misaki",
      "osmId": 2695601989,
      "name": "美咲",
      "nameKana": null,
      "nameTranslations": {
        "en": "Misaki"
      },
      "latitude": 33.7033547,
      "longitude": 130.4415917,
      "lines": null,
      "prefectureId": "fukuoka",
      "cityId": null,
      "countryCode": "jp",
      "prefectureName": "福岡県",
      "prefectureNameTranslations": null,
      "cityName": null,
      "cityNameTranslations": null,
      "placeType": "quarter"
    },
    {
      "id": "fukuoka_unknown_tenyamachi",
      "osmId": 2782497903,
      "name": "店屋町",
      "nameKana": "てんやまち",
      "nameTranslations": {
        "en": "Tenyamachi"
      },
      "latitude": 33.595953,
      "longitude": 130.4098949,
      "lines": null,
      "prefectureId": "fukuoka",
      "cityId": null,
      "countryCode": "jp",
      "prefectureName": "福岡県",
      "prefectureNameTranslations": null,
      "cityName": null,
      "cityNameTranslations": null,
      "placeType": "quarter"
    },
    {
      "id": "fukuoka_unknown_kashiihamafuto",
      "osmId": 2923920622,
      "name": "香椎浜ふ頭",
      "nameKana": "かしいはまふとう",
      "nameTranslations": {
        "en": "Kashiihamafuto"
      },
      "latitude": 33.6530332,
      "longitude": 130.4178714,
      "lines": null,
      "prefectureId": "fukuoka",
      "cityId": null,
      "countryCode": "jp",
      "prefectureName": "福岡県",
      "prefectureNameTranslations": null,
      "cityName": null,
      "cityNameTranslations": null,
      "placeType": "quarter"
    },
    {
      "id": "fukuoka_unknown_shirohamadanchi",
      "osmId": 2956271195,
      "name": "城浜団地",
      "nameKana": "しろはまだんち",
      "nameTranslations": {
        "en": "Shirohamadanchi"
      },
      "latitude": 33.6497611,
      "longitude": 130.4240896,
      "lines": null,
      "prefectureId": "fukuoka",
      "cityId": null,
      "countryCode": "jp",
      "prefectureName": "福岡県",
      "prefectureNameTranslations": null,
      "cityName": null,
      "cityNameTranslations": null,
      "placeType": "quarter"
    },
    {
      "id": "fukuoka_unknown_kashihama",
      "osmId": 2956271196,
      "name": "香椎浜",
      "nameKana": "かしいはま",
      "nameTranslations": {
        "en": "Kashihama"
      },
      "latitude": 33.6567294,
      "longitude": 130.433654,
      "lines": null,
      "prefectureId": "fukuoka",
      "cityId": null,
      "countryCode": "jp",
      "prefectureName": "福岡県",
      "prefectureNameTranslations": null,
      "cityName": null,
      "cityNameTranslations": null,
      "placeType": "quarter"
    },
    {
      "id": "fukuoka_unknown_kashiidai",
      "osmId": 3082453845,
      "name": "香椎台",
      "nameKana": "かしいだい",
      "nameTranslations": {
        "en": "Kashiidai"
      },
      "latitude": 33.6528397,
      "longitude": 130.4592716,
      "lines": null,
      "prefectureId": "fukuoka",
      "cityId": null,
      "countryCode": "jp",
      "prefectureName": "福岡県",
      "prefectureNameTranslations": null,
      "cityName": null,
      "cityNameTranslations": null,
      "placeType": "quarter"
    },
    {
      "id": "fukuoka_unknown_koyoudai",
      "osmId": 3266888271,
      "name": "光陽台",
      "nameKana": null,
      "nameTranslations": {
        "en": "Koyoudai"
      },
      "latitude": 33.7663102,
      "longitude": 130.4950837,
      "lines": null,
      "prefectureId": "fukuoka",
      "cityId": null,
      "countryCode": "jp",
      "prefectureName": "福岡県",
      "prefectureNameTranslations": null,
      "cityName": null,
      "cityNameTranslations": null,
      "placeType": "quarter"
    },
    {
      "id": "fukuoka_unknown_tenjin",
      "osmId": 3555317380,
      "name": "天神",
      "nameKana": "てんじん",
      "nameTranslations": {
        "en": "Tenjin"
      },
      "latitude": 33.5903225,
      "longitude": 130.3998391,
      "lines": null,
      "prefectureId": "fukuoka",
      "cityId": null,
      "countryCode": "jp",
      "prefectureName": "福岡県",
      "prefectureNameTranslations": null,
      "cityName": null,
      "cityNameTranslations": null,
      "placeType": "quarter"
    },
    {
      "id": "fukuoka_unknown_chuomachi",
      "osmId": 4368911225,
      "name": "中央町",
      "nameKana": "ちゅうおうまち",
      "nameTranslations": {
        "en": "Chuomachi"
      },
      "latitude": 33.3175664,
      "longitude": 130.5048329,
      "lines": null,
      "prefectureId": "fukuoka",
      "cityId": null,
      "countryCode": "jp",
      "prefectureName": "福岡県",
      "prefectureNameTranslations": null,
      "cityName": null,
      "cityNameTranslations": null,
      "placeType": "quarter"
    },
    {
      "id": "fukuoka_unknown_teramachi",
      "osmId": 4370537673,
      "name": "寺町",
      "nameKana": "てらまち",
      "nameTranslations": {
        "en": "Teramachi"
      },
      "latitude": 33.3178285,
      "longitude": 130.5207327,
      "lines": null,
      "prefectureId": "fukuoka",
      "cityId": null,
      "countryCode": "jp",
      "prefectureName": "福岡県",
      "prefectureNameTranslations": null,
      "cityName": null,
      "cityNameTranslations": null,
      "placeType": "quarter"
    },
    {
      "id": "fukuoka_unknown_hiyoshimachi",
      "osmId": 4370537674,
      "name": "日吉町",
      "nameKana": "ひよしまち",
      "nameTranslations": {
        "en": "Hiyoshimachi"
      },
      "latitude": 33.3156863,
      "longitude": 130.5136685,
      "lines": null,
      "prefectureId": "fukuoka",
      "cityId": null,
      "countryCode": "jp",
      "prefectureName": "福岡県",
      "prefectureNameTranslations": null,
      "cityName": null,
      "cityNameTranslations": null,
      "placeType": "quarter"
    },
    {
      "id": "fukuoka_unknown_kushiharamachi",
      "osmId": 4370537675,
      "name": "櫛原町",
      "nameKana": "くしはらまち",
      "nameTranslations": {
        "en": "Kushiharamachi"
      },
      "latitude": 33.3192425,
      "longitude": 130.5150897,
      "lines": null,
      "prefectureId": "fukuoka",
      "cityId": null,
      "countryCode": "jp",
      "prefectureName": "福岡県",
      "prefectureNameTranslations": null,
      "cityName": null,
      "cityNameTranslations": null,
      "placeType": "quarter"
    },
    {
      "id": "fukuoka_unknown_hotarugawamachi",
      "osmId": 4370537676,
      "name": "螢川町",
      "nameKana": "ほたるがわまち",
      "nameTranslations": {
        "en": "Hotarugawamachi"
      },
      "latitude": 33.3172626,
      "longitude": 130.5179754,
      "lines": null,
      "prefectureId": "fukuoka",
      "cityId": null,
      "countryCode": "jp",
      "prefectureName": "福岡県",
      "prefectureNameTranslations": null,
      "cityName": null,
      "cityNameTranslations": null,
      "placeType": "quarter"
    },
    {
      "id": "fukuoka_unknown_torihigashimachi",
      "osmId": 4370670439,
      "name": "通東町",
      "nameKana": "とおりひがしまち",
      "nameTranslations": {
        "en": "Torihigashimachi"
      },
      "latitude": 33.3147282,
      "longitude": 130.52239,
      "lines": null,
      "prefectureId": "fukuoka",
      "cityId": null,
      "countryCode": "jp",
      "prefectureName": "福岡県",
      "prefectureNameTranslations": null,
      "cityName": null,
      "cityNameTranslations": null,
      "placeType": "quarter"
    },
    {
      "id": "fukuoka_unknown_shojimamachi",
      "osmId": 4381816301,
      "name": "荘島町",
      "nameKana": "しょうじままち",
      "nameTranslations": {
        "en": "Shojimamachi"
      },
      "latitude": 33.3147719,
      "longitude": 130.5056497,
      "lines": null,
      "prefectureId": "fukuoka",
      "cityId": null,
      "countryCode": "jp",
      "prefectureName": "福岡県",
      "prefectureNameTranslations": null,
      "cityName": null,
      "cityNameTranslations": null,
      "placeType": "quarter"
    },
    {
      "id": "fukuoka_unknown_mutsumonmachi",
      "osmId": 4405414046,
      "name": "六ツ門町",
      "nameKana": "むつもんまち",
      "nameTranslations": {
        "en": "Mutsumonmachi"
      },
      "latitude": 33.3131174,
      "longitude": 130.513069,
      "lines": null,
      "prefectureId": "fukuoka",
      "cityId": null,
      "countryCode": "jp",
      "prefectureName": "福岡県",
      "prefectureNameTranslations": null,
      "cityName": null,
      "cityNameTranslations": null,
      "placeType": "quarter"
    },
    {
      "id": "fukuoka_unknown_aikawamachi",
      "osmId": 4407594817,
      "name": "合川町",
      "nameKana": "あいかわまち",
      "nameTranslations": {
        "en": "Aikawamachi"
      },
      "latitude": 33.3154893,
      "longitude": 130.5356017,
      "lines": null,
      "prefectureId": "fukuoka",
      "cityId": null,
      "countryCode": "jp",
      "prefectureName": "福岡県",
      "prefectureNameTranslations": null,
      "cityName": null,
      "cityNameTranslations": null,
      "placeType": "quarter"
    },
    {
      "id": "fukuoka_unknown_asazumamachi",
      "osmId": 4407594818,
      "name": "朝妻町",
      "nameKana": "あさづままち",
      "nameTranslations": {
        "en": "Asazumamachi"
      },
      "latitude": 33.3121491,
      "longitude": 130.5468015,
      "lines": null,
      "prefectureId": "fukuoka",
      "cityId": null,
      "countryCode": "jp",
      "prefectureName": "福岡県",
      "prefectureNameTranslations": null,
      "cityName": null,
      "cityNameTranslations": null,
      "placeType": "quarter"
    },
    {
      "id": "fukuoka_unknown_higashiaikawamachi",
      "osmId": 4407594819,
      "name": "東合川町",
      "nameKana": "ひがしあいかわまち",
      "nameTranslations": {
        "en": "Higashiaikawamachi"
      },
      "latitude": 33.3157578,
      "longitude": 130.5471582,
      "lines": null,
      "prefectureId": "fukuoka",
      "cityId": null,
      "countryCode": "jp",
      "prefectureName": "福岡県",
      "prefectureNameTranslations": null,
      "cityName": null,
      "cityNameTranslations": null,
      "placeType": "quarter"
    },
    {
      "id": "fukuoka_unknown_torimachi",
      "osmId": 4407772102,
      "name": "通町",
      "nameKana": "とおりまち",
      "nameTranslations": {
        "en": "Torimachi"
      },
      "latitude": 33.3169687,
      "longitude": 130.5150528,
      "lines": null,
      "prefectureId": "fukuoka",
      "cityId": null,
      "countryCode": "jp",
      "prefectureName": "福岡県",
      "prefectureNameTranslations": null,
      "cityName": null,
      "cityNameTranslations": null,
      "placeType": "quarter"
    },
    {
      "id": "fukuoka_unknown_katsuma",
      "osmId": 4918515041,
      "name": "勝馬",
      "nameKana": "かつま",
      "nameTranslations": {
        "en": "Katsuma"
      },
      "latitude": 33.6838371,
      "longitude": 130.2965578,
      "lines": null,
      "prefectureId": "fukuoka",
      "cityId": null,
      "countryCode": "jp",
      "prefectureName": "福岡県",
      "prefectureNameTranslations": null,
      "cityName": null,
      "cityNameTranslations": null,
      "placeType": "quarter"
    },
    {
      "id": "fukuoka_unknown_hiro",
      "osmId": 4918515042,
      "name": "弘",
      "nameKana": "ひろ",
      "nameTranslations": {
        "en": "Hiro"
      },
      "latitude": 33.6704625,
      "longitude": 130.2938327,
      "lines": null,
      "prefectureId": "fukuoka",
      "cityId": null,
      "countryCode": "jp",
      "prefectureName": "福岡県",
      "prefectureNameTranslations": null,
      "cityName": null,
      "cityNameTranslations": null,
      "placeType": "quarter"
    },
    {
      "id": "fukuoka_unknown_shikashima",
      "osmId": 4918515043,
      "name": "志賀島",
      "nameKana": "しかしま",
      "nameTranslations": {
        "en": "Shikashima"
      },
      "latitude": 33.6645246,
      "longitude": 130.3077587,
      "lines": null,
      "prefectureId": "fukuoka",
      "cityId": null,
      "countryCode": "jp",
      "prefectureName": "福岡県",
      "prefectureNameTranslations": null,
      "cityName": null,
      "cityNameTranslations": null,
      "placeType": "quarter"
    },
    {
      "id": "fukuoka_unknown_志摩姫島",
      "osmId": 5167038054,
      "name": "志摩姫島",
      "nameKana": null,
      "nameTranslations": null,
      "latitude": 33.5687271,
      "longitude": 130.0501013,
      "lines": null,
      "prefectureId": "fukuoka",
      "cityId": null,
      "countryCode": "jp",
      "prefectureName": "福岡県",
      "prefectureNameTranslations": null,
      "cityName": null,
      "cityNameTranslations": null,
      "placeType": "quarter"
    },
    {
      "id": "fukuoka_unknown_地島",
      "osmId": 5172907918,
      "name": "地島",
      "nameKana": null,
      "nameTranslations": null,
      "latitude": 33.9014994,
      "longitude": 130.4999614,
      "lines": null,
      "prefectureId": "fukuoka",
      "cityId": null,
      "countryCode": "jp",
      "prefectureName": "福岡県",
      "prefectureNameTranslations": null,
      "cityName": null,
      "cityNameTranslations": null,
      "placeType": "quarter"
    },
    {
      "id": "fukuoka_unknown_折尾",
      "osmId": 6336736850,
      "name": "折尾",
      "nameKana": null,
      "nameTranslations": null,
      "latitude": 33.868823,
      "longitude": 130.7194236,
      "lines": null,
      "prefectureId": "fukuoka",
      "cityId": null,
      "countryCode": "jp",
      "prefectureName": "福岡県",
      "prefectureNameTranslations": null,
      "cityName": null,
      "cityNameTranslations": null,
      "placeType": "quarter"
    },
    {
      "id": "fukuoka_unknown_nakasu",
      "osmId": 6610603685,
      "name": "中洲",
      "nameKana": "なかす",
      "nameTranslations": {
        "en": "Nakasu"
      },
      "latitude": 33.5934757,
      "longitude": 130.4056216,
      "lines": null,
      "prefectureId": "fukuoka",
      "cityId": null,
      "countryCode": "jp",
      "prefectureName": "福岡県",
      "prefectureNameTranslations": null,
      "cityName": null,
      "cityNameTranslations": null,
      "placeType": "quarter"
    },
    {
      "id": "fukuoka_unknown_nagahama",
      "osmId": 7236142691,
      "name": "長浜",
      "nameKana": "ながはま",
      "nameTranslations": {
        "en": "Nagahama"
      },
      "latitude": 33.208063,
      "longitude": 130.5124387,
      "lines": null,
      "prefectureId": "fukuoka",
      "cityId": null,
      "countryCode": "jp",
      "prefectureName": "福岡県",
      "prefectureNameTranslations": null,
      "cityName": null,
      "cityNameTranslations": null,
      "placeType": "quarter"
    },
    {
      "id": "fukuoka_unknown_kue",
      "osmId": 7236142692,
      "name": "久恵",
      "nameKana": "くえ",
      "nameTranslations": {
        "en": "Kue"
      },
      "latitude": 33.1904038,
      "longitude": 130.5149463,
      "lines": null,
      "prefectureId": "fukuoka",
      "cityId": null,
      "countryCode": "jp",
      "prefectureName": "福岡県",
      "prefectureNameTranslations": null,
      "cityName": null,
      "cityNameTranslations": null,
      "placeType": "quarter"
    },
    {
      "id": "fukuoka_unknown_mizokuchi",
      "osmId": 7236142693,
      "name": "溝口",
      "nameKana": "みぞくち",
      "nameTranslations": {
        "en": "Mizokuchi"
      },
      "latitude": 33.1854259,
      "longitude": 130.5238805,
      "lines": null,
      "prefectureId": "fukuoka",
      "cityId": null,
      "countryCode": "jp",
      "prefectureName": "福岡県",
      "prefectureNameTranslations": null,
      "cityName": null,
      "cityNameTranslations": null,
      "placeType": "quarter"
    },
    {
      "id": "fukuoka_unknown_kitanagata",
      "osmId": 7236142694,
      "name": "北長田",
      "nameKana": "きたながた",
      "nameTranslations": {
        "en": "Kitanagata"
      },
      "latitude": 33.1854394,
      "longitude": 130.5109817,
      "lines": null,
      "prefectureId": "fukuoka",
      "cityId": null,
      "countryCode": "jp",
      "prefectureName": "福岡県",
      "prefectureNameTranslations": null,
      "cityName": null,
      "cityNameTranslations": null,
      "placeType": "quarter"
    },
    {
      "id": "fukuoka_unknown_shinmizo",
      "osmId": 7236142695,
      "name": "新溝",
      "nameKana": "しんみぞ",
      "nameTranslations": {
        "en": "Shinmizo"
      },
      "latitude": 33.1975494,
      "longitude": 130.5195906,
      "lines": null,
      "prefectureId": "fukuoka",
      "cityId": null,
      "countryCode": "jp",
      "prefectureName": "福岡県",
      "prefectureNameTranslations": null,
      "cityName": null,
      "cityNameTranslations": null,
      "placeType": "quarter"
    },
    {
      "id": "fukuoka_unknown_tsushima",
      "osmId": 7236142696,
      "name": "津島",
      "nameKana": "つしま",
      "nameTranslations": {
        "en": "Tsushima"
      },
      "latitude": 33.1798512,
      "longitude": 130.4948507,
      "lines": null,
      "prefectureId": "fukuoka",
      "cityId": null,
      "countryCode": "jp",
      "prefectureName": "福岡県",
      "prefectureNameTranslations": null,
      "cityName": null,
      "cityNameTranslations": null,
      "placeType": "quarter"
    },
    {
      "id": "fukuoka_unknown_shimotsuma",
      "osmId": 7236142697,
      "name": "下妻",
      "nameKana": "しもつま",
      "nameTranslations": {
        "en": "Shimotsuma"
      },
      "latitude": 33.175449,
      "longitude": 130.4712328,
      "lines": null,
      "prefectureId": "fukuoka",
      "cityId": null,
      "countryCode": "jp",
      "prefectureName": "福岡県",
      "prefectureNameTranslations": null,
      "cityName": null,
      "cityNameTranslations": null,
      "placeType": "quarter"
    },
    {
      "id": "fukuoka_unknown_tomiyasu",
      "osmId": 7236142698,
      "name": "富安",
      "nameKana": "とみやす",
      "nameTranslations": {
        "en": "Tomiyasu"
      },
      "latitude": 33.1751368,
      "longitude": 130.4571699,
      "lines": null,
      "prefectureId": "fukuoka",
      "cityId": null,
      "countryCode": "jp",
      "prefectureName": "福岡県",
      "prefectureNameTranslations": null,
      "cityName": null,
      "cityNameTranslations": null,
      "placeType": "quarter"
    },
    {
      "id": "fukuoka_unknown_mamada",
      "osmId": 7236142699,
      "name": "馬間田",
      "nameKana": "ままだ",
      "nameTranslations": {
        "en": "Mamada"
      },
      "latitude": 33.1836598,
      "longitude": 130.4685519,
      "lines": null,
      "prefectureId": "fukuoka",
      "cityId": null,
      "countryCode": "jp",
      "prefectureName": "福岡県",
      "prefectureNameTranslations": null,
      "cityName": null,
      "cityNameTranslations": null,
      "placeType": "quarter"
    },
    {
      "id": "fukuoka_unknown_nakaoriji",
      "osmId": 7236142700,
      "name": "中折地",
      "nameKana": "なかおりじ",
      "nameTranslations": {
        "en": "Nakaoriji"
      },
      "latitude": 33.1879141,
      "longitude": 130.4740726,
      "lines": null,
      "prefectureId": "fukuoka",
      "cityId": null,
      "countryCode": "jp",
      "prefectureName": "福岡県",
      "prefectureNameTranslations": null,
      "cityName": null,
      "cityNameTranslations": null,
      "placeType": "quarter"
    },
    {
      "id": "fukuoka_unknown_nakamuta",
      "osmId": 7236142701,
      "name": "中牟田",
      "nameKana": "なかむた",
      "nameTranslations": {
        "en": "Nakamuta"
      },
      "latitude": 33.1878033,
      "longitude": 130.4632293,
      "lines": null,
      "prefectureId": "fukuoka",
      "cityId": null,
      "countryCode": "jp",
      "prefectureName": "福岡県",
      "prefectureNameTranslations": null,
      "cityName": null,
      "cityNameTranslations": null,
      "placeType": "quarter"
    },
    {
      "id": "fukuoka_unknown_oriji",
      "osmId": 7236142702,
      "name": "折地",
      "nameKana": "おりじ",
      "nameTranslations": {
        "en": "Oriji"
      },
      "latitude": 33.1938581,
      "longitude": 130.4768884,
      "lines": null,
      "prefectureId": "fukuoka",
      "cityId": null,
      "countryCode": "jp",
      "prefectureName": "福岡県",
      "prefectureNameTranslations": null,
      "cityName": null,
      "cityNameTranslations": null,
      "placeType": "quarter"
    },
    {
      "id": "fukuoka_unknown_kojima",
      "osmId": 7236142703,
      "name": "古島",
      "nameKana": "こじま",
      "nameTranslations": {
        "en": "Kojima"
      },
      "latitude": 33.1998575,
      "longitude": 130.4765531,
      "lines": null,
      "prefectureId": "fukuoka",
      "cityId": null,
      "countryCode": "jp",
      "prefectureName": "福岡県",
      "prefectureNameTranslations": null,
      "cityName": null,
      "cityNameTranslations": null,
      "placeType": "quarter"
    },
    {
      "id": "fukuoka_unknown_shimokitajima",
      "osmId": 7236142704,
      "name": "下北島",
      "nameKana": "しもきたじま",
      "nameTranslations": {
        "en": "Shimokitajima"
      },
      "latitude": 33.2008202,
      "longitude": 130.483293,
      "lines": null,
      "prefectureId": "fukuoka",
      "cityId": null,
      "countryCode": "jp",
      "prefectureName": "福岡県",
      "prefectureNameTranslations": null,
      "cityName": null,
      "cityNameTranslations": null,
      "placeType": "quarter"
    },
    {
      "id": "fukuoka_unknown_mizuta",
      "osmId": 7236142705,
      "name": "水田",
      "nameKana": "みずた",
      "nameTranslations": {
        "en": "Mizuta"
      },
      "latitude": 33.1947583,
      "longitude": 130.4832984,
      "lines": null,
      "prefectureId": "fukuoka",
      "cityId": null,
      "countryCode": "jp",
      "prefectureName": "福岡県",
      "prefectureNameTranslations": null,
      "cityName": null,
      "cityNameTranslations": null,
      "placeType": "quarter"
    },
    {
      "id": "fukuoka_unknown_tsunemochi",
      "osmId": 7236142706,
      "name": "常用",
      "nameKana": "つねもち",
      "nameTranslations": {
        "en": "Tsunemochi"
      },
      "latitude": 33.1878097,
      "longitude": 130.4865417,
      "lines": null,
      "prefectureId": "fukuoka",
      "cityId": null,
      "countryCode": "jp",
      "prefectureName": "福岡県",
      "prefectureNameTranslations": null,
      "cityName": null,
      "cityNameTranslations": null,
      "placeType": "quarter"
    },
    {
      "id": "fukuoka_unknown_kamikitajima",
      "osmId": 7236142707,
      "name": "上北島",
      "nameKana": "かみきたじま",
      "nameTranslations": {
        "en": "Kamikitajima"
      },
      "latitude": 33.1968759,
      "longitude": 130.4910868,
      "lines": null,
      "prefectureId": "fukuoka",
      "cityId": null,
      "countryCode": "jp",
      "prefectureName": "福岡県",
      "prefectureNameTranslations": null,
      "cityName": null,
      "cityNameTranslations": null,
      "placeType": "quarter"
    },
    {
      "id": "fukuoka_unknown_nomachi",
      "osmId": 7236142708,
      "name": "野町",
      "nameKana": "のまち",
      "nameTranslations": {
        "en": "Nomachi"
      },
      "latitude": 33.199022,
      "longitude": 130.5009876,
      "lines": null,
      "prefectureId": "fukuoka",
      "cityId": null,
      "countryCode": "jp",
      "prefectureName": "福岡県",
      "prefectureNameTranslations": null,
      "cityName": null,
      "cityNameTranslations": null,
      "placeType": "quarter"
    },
    {
      "id": "fukuoka_unknown_tsuruda",
      "osmId": 7236142709,
      "name": "鶴田",
      "nameKana": "つるだ",
      "nameTranslations": {
        "en": "Tsuruda"
      },
      "latitude": 33.1949976,
      "longitude": 130.5107474,
      "lines": null,
      "prefectureId": "fukuoka",
      "cityId": null,
      "countryCode": "jp",
      "prefectureName": "福岡県",
      "prefectureNameTranslations": null,
      "cityName": null,
      "cityNameTranslations": null,
      "placeType": "quarter"
    },
    {
      "id": "fukuoka_unknown_yamanoi",
      "osmId": 7236142710,
      "name": "山ノ井",
      "nameKana": "やまのい",
      "nameTranslations": {
        "en": "Yamanoi"
      },
      "latitude": 33.2074589,
      "longitude": 130.5044164,
      "lines": null,
      "prefectureId": "fukuoka",
      "cityId": null,
      "countryCode": "jp",
      "prefectureName": "福岡県",
      "prefectureNameTranslations": null,
      "cityName": null,
      "cityNameTranslations": null,
      "placeType": "quarter"
    },
    {
      "id": "fukuoka_unknown_izumi",
      "osmId": 7236142711,
      "name": "和泉",
      "nameKana": "いずみ",
      "nameTranslations": {
        "en": "Izumi"
      },
      "latitude": 33.2070849,
      "longitude": 130.4942266,
      "lines": null,
      "prefectureId": "fukuoka",
      "cityId": null,
      "countryCode": "jp",
      "prefectureName": "福岡県",
      "prefectureNameTranslations": null,
      "cityName": null,
      "cityNameTranslations": null,
      "placeType": "quarter"
    },
    {
      "id": "fukuoka_unknown_nagasaki",
      "osmId": 7236142712,
      "name": "長崎",
      "nameKana": "ながさき",
      "nameTranslations": {
        "en": "Nagasaki"
      },
      "latitude": 33.2069658,
      "longitude": 130.48415,
      "lines": null,
      "prefectureId": "fukuoka",
      "cityId": null,
      "countryCode": "jp",
      "prefectureName": "福岡県",
      "prefectureNameTranslations": null,
      "cityName": null,
      "cityNameTranslations": null,
      "placeType": "quarter"
    },
    {
      "id": "fukuoka_unknown_shojima",
      "osmId": 7236142713,
      "name": "庄島",
      "nameKana": "しょうじま",
      "nameTranslations": {
        "en": "Shojima"
      },
      "latitude": 33.2096912,
      "longitude": 130.4803247,
      "lines": null,
      "prefectureId": "fukuoka",
      "cityId": null,
      "countryCode": "jp",
      "prefectureName": "福岡県",
      "prefectureNameTranslations": null,
      "cityName": null,
      "cityNameTranslations": null,
      "placeType": "quarter"
    },
    {
      "id": "fukuoka_unknown_shimada",
      "osmId": 7236142714,
      "name": "島田",
      "nameKana": "しまだ",
      "nameTranslations": {
        "en": "Shimada"
      },
      "latitude": 33.2047866,
      "longitude": 130.4725267,
      "lines": null,
      "prefectureId": "fukuoka",
      "cityId": null,
      "countryCode": "jp",
      "prefectureName": "福岡県",
      "prefectureNameTranslations": null,
      "cityName": null,
      "cityNameTranslations": null,
      "placeType": "quarter"
    },
    {
      "id": "fukuoka_unknown_seiden",
      "osmId": 7236142715,
      "name": "井田",
      "nameKana": "せいでん",
      "nameTranslations": {
        "en": "Seiden"
      },
      "latitude": 33.1997166,
      "longitude": 130.4581612,
      "lines": null,
      "prefectureId": "fukuoka",
      "cityId": null,
      "countryCode": "jp",
      "prefectureName": "福岡県",
      "prefectureNameTranslations": null,
      "cityName": null,
      "cityNameTranslations": null,
      "placeType": "quarter"
    },
    {
      "id": "fukuoka_unknown_tomihisa",
      "osmId": 7236142716,
      "name": "富久",
      "nameKana": "とみひさ",
      "nameTranslations": {
        "en": "Tomihisa"
      },
      "latitude": 33.2108153,
      "longitude": 130.4709377,
      "lines": null,
      "prefectureId": "fukuoka",
      "cityId": null,
      "countryCode": "jp",
      "prefectureName": "福岡県",
      "prefectureNameTranslations": null,
      "cityName": null,
      "cityNameTranslations": null,
      "placeType": "quarter"
    },
    {
      "id": "fukuoka_unknown_shikasho",
      "osmId": 7236142717,
      "name": "四ケ所",
      "nameKana": "しかしょ",
      "nameTranslations": {
        "en": "Shikasho"
      },
      "latitude": 33.2114402,
      "longitude": 130.4608371,
      "lines": null,
      "prefectureId": "fukuoka",
      "cityId": null,
      "countryCode": "jp",
      "prefectureName": "福岡県",
      "prefectureNameTranslations": null,
      "cityName": null,
      "cityNameTranslations": null,
      "placeType": "quarter"
    },
    {
      "id": "fukuoka_unknown_eguchi",
      "osmId": 7236142718,
      "name": "江口",
      "nameKana": "えぐち",
      "nameTranslations": {
        "en": "Eguchi"
      },
      "latitude": 33.2175567,
      "longitude": 130.4668306,
      "lines": null,
      "prefectureId": "fukuoka",
      "cityId": null,
      "countryCode": "jp",
      "prefectureName": "福岡県",
      "prefectureNameTranslations": null,
      "cityName": null,
      "cityNameTranslations": null,
      "placeType": "quarter"
    },
    {
      "id": "fukuoka_unknown_tomishige",
      "osmId": 7236142719,
      "name": "富重",
      "nameKana": "とみしげ",
      "nameTranslations": {
        "en": "Tomishige"
      },
      "latitude": 33.216022,
      "longitude": 130.4878127,
      "lines": null,
      "prefectureId": "fukuoka",
      "cityId": null,
      "countryCode": "jp",
      "prefectureName": "福岡県",
      "prefectureNameTranslations": null,
      "cityName": null,
      "cityNameTranslations": null,
      "placeType": "quarter"
    },
    {
      "id": "fukuoka_unknown_hainuzuka",
      "osmId": 7236142720,
      "name": "羽犬塚",
      "nameKana": "はいぬづか",
      "nameTranslations": {
        "en": "Hainuzuka"
      },
      "latitude": 33.2180656,
      "longitude": 130.5009726,
      "lines": null,
      "prefectureId": "fukuoka",
      "cityId": null,
      "countryCode": "jp",
      "prefectureName": "福岡県",
      "prefectureNameTranslations": null,
      "cityName": null,
      "cityNameTranslations": null,
      "placeType": "quarter"
    },
    {
      "id": "fukuoka_unknown_tokuhisa",
      "osmId": 7236142721,
      "name": "徳久",
      "nameKana": "とくひさ",
      "nameTranslations": {
        "en": "Tokuhisa"
      },
      "latitude": 33.214491,
      "longitude": 130.5048829,
      "lines": null,
      "prefectureId": "fukuoka",
      "cityId": null,
      "countryCode": "jp",
      "prefectureName": "福岡県",
      "prefectureNameTranslations": null,
      "cityName": null,
      "cityNameTranslations": null,
      "placeType": "quarter"
    },
    {
      "id": "fukuoka_unknown_maezu",
      "osmId": 7236142722,
      "name": "前津",
      "nameKana": "まえづ",
      "nameTranslations": {
        "en": "Maezu"
      },
      "latitude": 33.2239276,
      "longitude": 130.5165562,
      "lines": null,
      "prefectureId": "fukuoka",
      "cityId": null,
      "countryCode": "jp",
      "prefectureName": "福岡県",
      "prefectureNameTranslations": null,
      "cityName": null,
      "cityNameTranslations": null,
      "placeType": "quarter"
    },
    {
      "id": "fukuoka_unknown_hisadomi",
      "osmId": 7236142723,
      "name": "久富",
      "nameKana": "ひさどみ",
      "nameTranslations": {
        "en": "Hisadomi"
      },
      "latitude": 33.2242535,
      "longitude": 130.4874281,
      "lines": null,
      "prefectureId": "fukuoka",
      "cityId": null,
      "countryCode": "jp",
      "prefectureName": "福岡県",
      "prefectureNameTranslations": null,
      "cityName": null,
      "cityNameTranslations": null,
      "placeType": "quarter"
    },
    {
      "id": "fukuoka_unknown_nishimuta",
      "osmId": 7236142724,
      "name": "西牟田",
      "nameKana": "にしむた",
      "nameTranslations": {
        "en": "Nishimuta"
      },
      "latitude": 33.2355333,
      "longitude": 130.4849628,
      "lines": null,
      "prefectureId": "fukuoka",
      "cityId": null,
      "countryCode": "jp",
      "prefectureName": "福岡県",
      "prefectureNameTranslations": null,
      "cityName": null,
      "cityNameTranslations": null,
      "placeType": "quarter"
    },
    {
      "id": "fukuoka_unknown_kurakazu",
      "osmId": 7236142725,
      "name": "蔵数",
      "nameKana": "くらかず",
      "nameTranslations": {
        "en": "Kurakazu"
      },
      "latitude": 33.237696,
      "longitude": 130.4988702,
      "lines": null,
      "prefectureId": "fukuoka",
      "cityId": null,
      "countryCode": "jp",
      "prefectureName": "福岡県",
      "prefectureNameTranslations": null,
      "cityName": null,
      "cityNameTranslations": null,
      "placeType": "quarter"
    },
    {
      "id": "fukuoka_unknown_nishimuta_quarter",
      "osmId": 7236142726,
      "name": "西牟田",
      "nameKana": "にしむた",
      "nameTranslations": {
        "en": "Nishimuta"
      },
      "latitude": 33.242917,
      "longitude": 130.5031881,
      "lines": null,
      "prefectureId": "fukuoka",
      "cityId": null,
      "countryCode": "jp",
      "prefectureName": "福岡県",
      "prefectureNameTranslations": null,
      "cityName": null,
      "cityNameTranslations": null,
      "placeType": "quarter"
    },
    {
      "id": "fukuoka_unknown_wakana",
      "osmId": 7236142727,
      "name": "若菜",
      "nameKana": "わかな",
      "nameTranslations": {
        "en": "Wakana"
      },
      "latitude": 33.2143634,
      "longitude": 130.49029,
      "lines": null,
      "prefectureId": "fukuoka",
      "cityId": null,
      "countryCode": "jp",
      "prefectureName": "福岡県",
      "prefectureNameTranslations": null,
      "cityName": null,
      "cityNameTranslations": null,
      "placeType": "quarter"
    },
    {
      "id": "fukuoka_unknown_takae",
      "osmId": 7236142728,
      "name": "高江",
      "nameKana": "たかえ",
      "nameTranslations": {
        "en": "Takae"
      },
      "latitude": 33.22558,
      "longitude": 130.4789673,
      "lines": null,
      "prefectureId": "fukuoka",
      "cityId": null,
      "countryCode": "jp",
      "prefectureName": "福岡県",
      "prefectureNameTranslations": null,
      "cityName": null,
      "cityNameTranslations": null,
      "placeType": "quarter"
    },
    {
      "id": "fukuoka_unknown_kumano",
      "osmId": 7236142729,
      "name": "熊野",
      "nameKana": "くまの",
      "nameTranslations": {
        "en": "Kumano"
      },
      "latitude": 33.2293879,
      "longitude": 130.5023054,
      "lines": null,
      "prefectureId": "fukuoka",
      "cityId": null,
      "countryCode": "jp",
      "prefectureName": "福岡県",
      "prefectureNameTranslations": null,
      "cityName": null,
      "cityNameTranslations": null,
      "placeType": "quarter"
    },
    {
      "id": "fukuoka_unknown_oshima",
      "osmId": 7236149797,
      "name": "尾島",
      "nameKana": "おしま",
      "nameTranslations": {
        "en": "Oshima"
      },
      "latitude": 33.1883049,
      "longitude": 130.5016801,
      "lines": null,
      "prefectureId": "fukuoka",
      "cityId": null,
      "countryCode": "jp",
      "prefectureName": "福岡県",
      "prefectureNameTranslations": null,
      "cityName": null,
      "cityNameTranslations": null,
      "placeType": "quarter"
    },
    {
      "id": "fukuoka_unknown_shimura",
      "osmId": 7236149798,
      "name": "志",
      "nameKana": "しむら",
      "nameTranslations": {
        "en": "Shimura"
      },
      "latitude": 33.1880836,
      "longitude": 130.4983939,
      "lines": null,
      "prefectureId": "fukuoka",
      "cityId": null,
      "countryCode": "jp",
      "prefectureName": "福岡県",
      "prefectureNameTranslations": null,
      "cityName": null,
      "cityNameTranslations": null,
      "placeType": "quarter"
    },
    {
      "id": "fukuoka_unknown_ichijo",
      "osmId": 7236205248,
      "name": "一条",
      "nameKana": "いちじょう",
      "nameTranslations": {
        "en": "Ichijo"
      },
      "latitude": 33.2471416,
      "longitude": 130.510434,
      "lines": null,
      "prefectureId": "fukuoka",
      "cityId": null,
      "countryCode": "jp",
      "prefectureName": "福岡県",
      "prefectureNameTranslations": null,
      "cityName": null,
      "cityNameTranslations": null,
      "placeType": "quarter"
    },
    {
      "id": "fukuoka_unknown_samuraijima",
      "osmId": 7495810076,
      "name": "侍島",
      "nameKana": "さむらいじま",
      "nameTranslations": {
        "en": "Samuraijima"
      },
      "latitude": 33.2091056,
      "longitude": 130.4499831,
      "lines": null,
      "prefectureId": "fukuoka",
      "cityId": null,
      "countryCode": "jp",
      "prefectureName": "福岡県",
      "prefectureNameTranslations": null,
      "cityName": null,
      "cityNameTranslations": null,
      "placeType": "quarter"
    },
    {
      "id": "fukuoka_unknown_jonanmachi",
      "osmId": 7638183150,
      "name": "城南町",
      "nameKana": "じょうなんまち",
      "nameTranslations": {
        "en": "Jonanmachi"
      },
      "latitude": 33.3209429,
      "longitude": 130.5065878,
      "lines": null,
      "prefectureId": "fukuoka",
      "cityId": null,
      "countryCode": "jp",
      "prefectureName": "福岡県",
      "prefectureNameTranslations": null,
      "cityName": null,
      "cityNameTranslations": null,
      "placeType": "quarter"
    },
    {
      "id": "fukuoka_unknown_kandamachi",
      "osmId": 7678775721,
      "name": "神田町",
      "nameKana": "かんだまち",
      "nameTranslations": {
        "en": "Kandamachi"
      },
      "latitude": 33.0051906,
      "longitude": 130.4541922,
      "lines": null,
      "prefectureId": "fukuoka",
      "cityId": null,
      "countryCode": "jp",
      "prefectureName": "福岡県",
      "prefectureNameTranslations": null,
      "cityName": null,
      "cityNameTranslations": null,
      "placeType": "quarter"
    },
    {
      "id": "fukuoka_unknown_fujitamachi",
      "osmId": 7678775723,
      "name": "藤田町",
      "nameKana": "ふじたまち",
      "nameTranslations": {
        "en": "Fujitamachi"
      },
      "latitude": 33.0041199,
      "longitude": 130.4435706,
      "lines": null,
      "prefectureId": "fukuoka",
      "cityId": null,
      "countryCode": "jp",
      "prefectureName": "福岡県",
      "prefectureNameTranslations": null,
      "cityName": null,
      "cityNameTranslations": null,
      "placeType": "quarter"
    },
    {
      "id": "fukuoka_unknown_funatsumachi",
      "osmId": 7678775724,
      "name": "船津町",
      "nameKana": "ふなつまち",
      "nameTranslations": {
        "en": "Funatsumachi"
      },
      "latitude": 33.010058,
      "longitude": 130.4374552,
      "lines": null,
      "prefectureId": "fukuoka",
      "cityId": null,
      "countryCode": "jp",
      "prefectureName": "福岡県",
      "prefectureNameTranslations": null,
      "cityName": null,
      "cityNameTranslations": null,
      "placeType": "quarter"
    },
    {
      "id": "fukuoka_unknown_yotsuyamamachi",
      "osmId": 7678775754,
      "name": "四山町",
      "nameKana": "よつやままち",
      "nameTranslations": {
        "en": "Yotsuyamamachi"
      },
      "latitude": 33.0057484,
      "longitude": 130.4129505,
      "lines": null,
      "prefectureId": "fukuoka",
      "cityId": null,
      "countryCode": "jp",
      "prefectureName": "福岡県",
      "prefectureNameTranslations": null,
      "cityName": null,
      "cityNameTranslations": null,
      "placeType": "quarter"
    },
    {
      "id": "fukuoka_unknown_kifunemachi",
      "osmId": 7713002897,
      "name": "貴船町",
      "nameKana": "きふねまち",
      "nameTranslations": {
        "en": "Kifunemachi"
      },
      "latitude": 33.8698254,
      "longitude": 130.8718979,
      "lines": null,
      "prefectureId": "fukuoka",
      "cityId": null,
      "countryCode": "jp",
      "prefectureName": "福岡県",
      "prefectureNameTranslations": null,
      "cityName": null,
      "cityNameTranslations": null,
      "placeType": "quarter"
    },
    {
      "id": "fukuoka_unknown_yoshinomachi",
      "osmId": 7713002900,
      "name": "吉野町",
      "nameKana": "よしのまち",
      "nameTranslations": {
        "en": "Yoshinomachi"
      },
      "latitude": 33.8737193,
      "longitude": 130.8765891,
      "lines": null,
      "prefectureId": "fukuoka",
      "cityId": null,
      "countryCode": "jp",
      "prefectureName": "福岡県",
      "prefectureNameTranslations": null,
      "cityName": null,
      "cityNameTranslations": null,
      "placeType": "quarter"
    },
    {
      "id": "fukuoka_unknown_showamachi",
      "osmId": 7713002901,
      "name": "昭和町",
      "nameKana": "しょうわまち",
      "nameTranslations": {
        "en": "Showamachi"
      },
      "latitude": 33.8743696,
      "longitude": 130.8782427,
      "lines": null,
      "prefectureId": "fukuoka",
      "cityId": null,
      "countryCode": "jp",
      "prefectureName": "福岡県",
      "prefectureNameTranslations": null,
      "cityName": null,
      "cityNameTranslations": null,
      "placeType": "quarter"
    },
    {
      "id": "fukuoka_unknown_enamicho",
      "osmId": 7713002904,
      "name": "江南町",
      "nameKana": "えなみちょう",
      "nameTranslations": {
        "en": "Enamicho"
      },
      "latitude": 33.875718,
      "longitude": 130.8833563,
      "lines": null,
      "prefectureId": "fukuoka",
      "cityId": null,
      "countryCode": "jp",
      "prefectureName": "福岡県",
      "prefectureNameTranslations": null,
      "cityName": null,
      "cityNameTranslations": null,
      "placeType": "quarter"
    },
    {
      "id": "fukuoka_unknown_hagizakimachi",
      "osmId": 7713002905,
      "name": "萩崎町",
      "nameKana": "はぎざきまち",
      "nameTranslations": {
        "en": "Hagizakimachi"
      },
      "latitude": 33.874148,
      "longitude": 130.8855236,
      "lines": null,
      "prefectureId": "fukuoka",
      "cityId": null,
      "countryCode": "jp",
      "prefectureName": "福岡県",
      "prefectureNameTranslations": null,
      "cityName": null,
      "cityNameTranslations": null,
      "placeType": "quarter"
    },
    {
      "id": "fukuoka_unknown_meiwamachi",
      "osmId": 7713002906,
      "name": "明和町",
      "nameKana": "めいわまち",
      "nameTranslations": {
        "en": "Meiwamachi"
      },
      "latitude": 33.874943,
      "longitude": 130.888828,
      "lines": null,
      "prefectureId": "fukuoka",
      "cityId": null,
      "countryCode": "jp",
      "prefectureName": "福岡県",
      "prefectureNameTranslations": null,
      "cityName": null,
      "cityNameTranslations": null,
      "placeType": "quarter"
    },
    {
      "id": "fukuoka_unknown_otamachi",
      "osmId": 7713002909,
      "name": "大田町",
      "nameKana": "おおたまち",
      "nameTranslations": {
        "en": "Otamachi"
      },
      "latitude": 33.8788378,
      "longitude": 130.8912554,
      "lines": null,
      "prefectureId": "fukuoka",
      "cityId": null,
      "countryCode": "jp",
      "prefectureName": "福岡県",
      "prefectureNameTranslations": null,
      "cityName": null,
      "cityNameTranslations": null,
      "placeType": "quarter"
    },
    {
      "id": "fukuoka_unknown_nagahamamachi",
      "osmId": 7713002913,
      "name": "長浜町",
      "nameKana": "ながはままち",
      "nameTranslations": {
        "en": "Nagahamamachi"
      },
      "latitude": 33.8856605,
      "longitude": 130.8912554,
      "lines": null,
      "prefectureId": "fukuoka",
      "cityId": null,
      "countryCode": "jp",
      "prefectureName": "福岡県",
      "prefectureNameTranslations": null,
      "cityName": null,
      "cityNameTranslations": null,
      "placeType": "quarter"
    },
    {
      "id": "fukuoka_unknown_konyamachi",
      "osmId": 7713002922,
      "name": "紺屋町",
      "nameKana": "こんやまち",
      "nameTranslations": {
        "en": "Konyamachi"
      },
      "latitude": 33.8805792,
      "longitude": 130.8841664,
      "lines": null,
      "prefectureId": "fukuoka",
      "cityId": null,
      "countryCode": "jp",
      "prefectureName": "福岡県",
      "prefectureNameTranslations": null,
      "cityName": null,
      "cityNameTranslations": null,
      "placeType": "quarter"
    },
    {
      "id": "fukuoka_unknown_furusenbamachi",
      "osmId": 7713002923,
      "name": "古船場町",
      "nameKana": "ふるせんばまち",
      "nameTranslations": {
        "en": "Furusenbamachi"
      },
      "latitude": 33.8789848,
      "longitude": 130.8830613,
      "lines": null,
      "prefectureId": "fukuoka",
      "cityId": null,
      "countryCode": "jp",
      "prefectureName": "福岡県",
      "prefectureNameTranslations": null,
      "cityName": null,
      "cityNameTranslations": null,
      "placeType": "quarter"
    },
    {
      "id": "fukuoka_unknown_senbamachi",
      "osmId": 7713002931,
      "name": "船場町",
      "nameKana": "せんばまち",
      "nameTranslations": {
        "en": "Senbamachi"
      },
      "latitude": 33.8838936,
      "longitude": 130.878464,
      "lines": null,
      "prefectureId": "fukuoka",
      "cityId": null,
      "countryCode": "jp",
      "prefectureName": "福岡県",
      "prefectureNameTranslations": null,
      "cityName": null,
      "cityNameTranslations": null,
      "placeType": "quarter"
    },
    {
      "id": "fukuoka_unknown_sendomachi",
      "osmId": 7713002932,
      "name": "船頭町",
      "nameKana": "せんどうまち",
      "nameTranslations": {
        "en": "Sendomachi"
      },
      "latitude": 33.887247,
      "longitude": 130.8792619,
      "lines": null,
      "prefectureId": "fukuoka",
      "cityId": null,
      "countryCode": "jp",
      "prefectureName": "福岡県",
      "prefectureNameTranslations": null,
      "cityName": null,
      "cityNameTranslations": null,
      "placeType": "quarter"
    },
    {
      "id": "fukuoka_unknown_maidashi",
      "osmId": 7787521694,
      "name": "馬出",
      "nameKana": "まいだし",
      "nameTranslations": {
        "en": "Maidashi"
      },
      "latitude": 33.6116127,
      "longitude": 130.4212493,
      "lines": null,
      "prefectureId": "fukuoka",
      "cityId": null,
      "countryCode": "jp",
      "prefectureName": "福岡県",
      "prefectureNameTranslations": null,
      "cityName": null,
      "cityNameTranslations": null,
      "placeType": "quarter"
    },
    {
      "id": "fukuoka_unknown_千代",
      "osmId": 7787521699,
      "name": "千代",
      "nameKana": null,
      "nameTranslations": null,
      "latitude": 33.6030525,
      "longitude": 130.4128486,
      "lines": null,
      "prefectureId": "fukuoka",
      "cityId": null,
      "countryCode": "jp",
      "prefectureName": "福岡県",
      "prefectureNameTranslations": null,
      "cityName": null,
      "cityNameTranslations": null,
      "placeType": "quarter"
    },
    {
      "id": "fukuoka_unknown_akamabunkyomachi",
      "osmId": 8047250204,
      "name": "赤間文教町",
      "nameKana": "あかまぶんきょうまち",
      "nameTranslations": {
        "en": "Akamabunkyomachi"
      },
      "latitude": 33.8139192,
      "longitude": 130.5938923,
      "lines": null,
      "prefectureId": "fukuoka",
      "cityId": null,
      "countryCode": "jp",
      "prefectureName": "福岡県",
      "prefectureNameTranslations": null,
      "cityName": null,
      "cityNameTranslations": null,
      "placeType": "quarter"
    },
    {
      "id": "fukuoka_unknown_tenpyodai",
      "osmId": 8047250211,
      "name": "天平台",
      "nameKana": "てんぴょうだい",
      "nameTranslations": {
        "en": "Tenpyodai"
      },
      "latitude": 33.8214802,
      "longitude": 130.5596727,
      "lines": null,
      "prefectureId": "fukuoka",
      "cityId": null,
      "countryCode": "jp",
      "prefectureName": "福岡県",
      "prefectureNameTranslations": null,
      "cityName": null,
      "cityNameTranslations": null,
      "placeType": "quarter"
    },
    {
      "id": "fukuoka_unknown_sakaemachi",
      "osmId": 8047250232,
      "name": "栄町",
      "nameKana": "さかえまち",
      "nameTranslations": {
        "en": "Sakaemachi"
      },
      "latitude": 33.8070685,
      "longitude": 130.5696773,
      "lines": null,
      "prefectureId": "fukuoka",
      "cityId": null,
      "countryCode": "jp",
      "prefectureName": "福岡県",
      "prefectureNameTranslations": null,
      "cityName": null,
      "cityNameTranslations": null,
      "placeType": "quarter"
    },
    {
      "id": "fukuoka_unknown_horiike",
      "osmId": 8382632362,
      "name": "堀池",
      "nameKana": "ほりいけ",
      "nameTranslations": {
        "en": "Horiike"
      },
      "latitude": 33.6275067,
      "longitude": 130.6839502,
      "lines": null,
      "prefectureId": "fukuoka",
      "cityId": null,
      "countryCode": "jp",
      "prefectureName": "福岡県",
      "prefectureNameTranslations": null,
      "cityName": null,
      "cityNameTranslations": null,
      "placeType": "quarter"
    },
    {
      "id": "fukuoka_unknown_tadakuma",
      "osmId": 8382632363,
      "name": "忠隈",
      "nameKana": "ただくま",
      "nameTranslations": {
        "en": "Tadakuma"
      },
      "latitude": 33.6221041,
      "longitude": 130.6858626,
      "lines": null,
      "prefectureId": "fukuoka",
      "cityId": null,
      "countryCode": "jp",
      "prefectureName": "福岡県",
      "prefectureNameTranslations": null,
      "cityName": null,
      "cityNameTranslations": null,
      "placeType": "quarter"
    },
    {
      "id": "fukuoka_unknown_komoda",
      "osmId": 8382632364,
      "name": "菰田",
      "nameKana": "こもだ",
      "nameTranslations": {
        "en": "Komoda"
      },
      "latitude": 33.6252957,
      "longitude": 130.691911,
      "lines": null,
      "prefectureId": "fukuoka",
      "cityId": null,
      "countryCode": "jp",
      "prefectureName": "福岡県",
      "prefectureNameTranslations": null,
      "cityName": null,
      "cityNameTranslations": null,
      "placeType": "quarter"
    },
    {
      "id": "fukuoka_unknown_tokuzen",
      "osmId": 8382632370,
      "name": "徳前",
      "nameKana": "とくぜん",
      "nameTranslations": {
        "en": "Tokuzen"
      },
      "latitude": 33.6319778,
      "longitude": 130.6818366,
      "lines": null,
      "prefectureId": "fukuoka",
      "cityId": null,
      "countryCode": "jp",
      "prefectureName": "福岡県",
      "prefectureNameTranslations": null,
      "cityName": null,
      "cityNameTranslations": null,
      "placeType": "quarter"
    },
    {
      "id": "fukuoka_unknown_wakana_quarter",
      "osmId": 8382632371,
      "name": "若菜",
      "nameKana": "わかな",
      "nameTranslations": {
        "en": "Wakana"
      },
      "latitude": 33.6287261,
      "longitude": 130.6748307,
      "lines": null,
      "prefectureId": "fukuoka",
      "cityId": null,
      "countryCode": "jp",
      "prefectureName": "福岡県",
      "prefectureNameTranslations": null,
      "cityName": null,
      "cityNameTranslations": null,
      "placeType": "quarter"
    },
    {
      "id": "fukuoka_unknown_edakuni",
      "osmId": 8382632372,
      "name": "枝国",
      "nameKana": "えだくに",
      "nameTranslations": {
        "en": "Edakuni"
      },
      "latitude": 33.633684,
      "longitude": 130.671891,
      "lines": null,
      "prefectureId": "fukuoka",
      "cityId": null,
      "countryCode": "jp",
      "prefectureName": "福岡県",
      "prefectureNameTranslations": null,
      "cityName": null,
      "cityNameTranslations": null,
      "placeType": "quarter"
    },
    {
      "id": "fukuoka_unknown_yokota",
      "osmId": 8382632374,
      "name": "横田",
      "nameKana": "よこた",
      "nameTranslations": {
        "en": "Yokota"
      },
      "latitude": 33.6429021,
      "longitude": 130.6703567,
      "lines": null,
      "prefectureId": "fukuoka",
      "cityId": null,
      "countryCode": "jp",
      "prefectureName": "福岡県",
      "prefectureNameTranslations": null,
      "cityName": null,
      "cityNameTranslations": null,
      "placeType": "quarter"
    },
    {
      "id": "fukuoka_unknown_higashitokuzen",
      "osmId": 8382632375,
      "name": "東徳前",
      "nameKana": "ひがしとくぜん",
      "nameTranslations": {
        "en": "Higashitokuzen"
      },
      "latitude": 33.6354124,
      "longitude": 130.6798571,
      "lines": null,
      "prefectureId": "fukuoka",
      "cityId": null,
      "countryCode": "jp",
      "prefectureName": "福岡県",
      "prefectureNameTranslations": null,
      "cityName": null,
      "cityNameTranslations": null,
      "placeType": "quarter"
    },
    {
      "id": "fukuoka_unknown_nishitokuzen",
      "osmId": 8382632376,
      "name": "西徳前",
      "nameKana": "にしとくぜん",
      "nameTranslations": {
        "en": "Nishitokuzen"
      },
      "latitude": 33.637717,
      "longitude": 130.6793582,
      "lines": null,
      "prefectureId": "fukuoka",
      "cityId": null,
      "countryCode": "jp",
      "prefectureName": "福岡県",
      "prefectureNameTranslations": null,
      "cityName": null,
      "cityNameTranslations": null,
      "placeType": "quarter"
    },
    {
      "id": "fukuoka_unknown_nishimachi",
      "osmId": 8382632377,
      "name": "西町",
      "nameKana": "にしまち",
      "nameTranslations": {
        "en": "Nishimachi"
      },
      "latitude": 33.6407584,
      "longitude": 130.6793207,
      "lines": null,
      "prefectureId": "fukuoka",
      "cityId": null,
      "countryCode": "jp",
      "prefectureName": "福岡県",
      "prefectureNameTranslations": null,
      "cityName": null,
      "cityNameTranslations": null,
      "placeType": "quarter"
    },
    {
      "id": "fukuoka_unknown_miyamachi",
      "osmId": 8382632378,
      "name": "宮町",
      "nameKana": "みやまち",
      "nameTranslations": {
        "en": "Miyamachi"
      },
      "latitude": 33.6417454,
      "longitude": 130.6831804,
      "lines": null,
      "prefectureId": "fukuoka",
      "cityId": null,
      "countryCode": "jp",
      "prefectureName": "福岡県",
      "prefectureNameTranslations": null,
      "cityName": null,
      "cityNameTranslations": null,
      "placeType": "quarter"
    },
    {
      "id": "fukuoka_unknown_yoshiharamachi",
      "osmId": 8382632379,
      "name": "吉原町",
      "nameKana": "よしはらまち",
      "nameTranslations": {
        "en": "Yoshiharamachi"
      },
      "latitude": 33.6412609,
      "longitude": 130.68656,
      "lines": null,
      "prefectureId": "fukuoka",
      "cityId": null,
      "countryCode": "jp",
      "prefectureName": "福岡県",
      "prefectureNameTranslations": null,
      "cityName": null,
      "cityNameTranslations": null,
      "placeType": "quarter"
    },
    {
      "id": "fukuoka_unknown_honmachi",
      "osmId": 8382632380,
      "name": "本町",
      "nameKana": "ほんまち",
      "nameTranslations": {
        "en": "Honmachi"
      },
      "latitude": 33.6390368,
      "longitude": 130.6847468,
      "lines": null,
      "prefectureId": "fukuoka",
      "cityId": null,
      "countryCode": "jp",
      "prefectureName": "福岡県",
      "prefectureNameTranslations": null,
      "cityName": null,
      "cityNameTranslations": null,
      "placeType": "quarter"
    },
    {
      "id": "fukuoka_unknown_iizuka",
      "osmId": 8382632381,
      "name": "飯塚",
      "nameKana": "いいづか",
      "nameTranslations": {
        "en": "Iizuka"
      },
      "latitude": 33.6362476,
      "longitude": 130.6860235,
      "lines": null,
      "prefectureId": "fukuoka",
      "cityId": null,
      "countryCode": "jp",
      "prefectureName": "福岡県",
      "prefectureNameTranslations": null,
      "cityName": null,
      "cityNameTranslations": null,
      "placeType": "quarter"
    },
    {
      "id": "fukuoka_unknown_kawashima",
      "osmId": 8382632382,
      "name": "川島",
      "nameKana": "かわしま",
      "nameTranslations": {
        "en": "Kawashima"
      },
      "latitude": 33.658768,
      "longitude": 130.6927317,
      "lines": null,
      "prefectureId": "fukuoka",
      "cityId": null,
      "countryCode": "jp",
      "prefectureName": "福岡県",
      "prefectureNameTranslations": null,
      "cityName": null,
      "cityNameTranslations": null,
      "placeType": "quarter"
    },
    {
      "id": "fukuoka_unknown_tateiwa",
      "osmId": 8382632384,
      "name": "立岩",
      "nameKana": "たていわ",
      "nameTranslations": {
        "en": "Tateiwa"
      },
      "latitude": 33.6513244,
      "longitude": 130.6934506,
      "lines": null,
      "prefectureId": "fukuoka",
      "cityId": null,
      "countryCode": "jp",
      "prefectureName": "福岡県",
      "prefectureNameTranslations": null,
      "cityName": null,
      "cityNameTranslations": null,
      "placeType": "quarter"
    },
    {
      "id": "fukuoka_unknown_shin_tateiwa",
      "osmId": 8382632385,
      "name": "新立岩",
      "nameKana": "しんたていわ",
      "nameTranslations": {
        "en": "Shin-Tateiwa"
      },
      "latitude": 33.646774,
      "longitude": 130.6892502,
      "lines": null,
      "prefectureId": "fukuoka",
      "cityId": null,
      "countryCode": "jp",
      "prefectureName": "福岡県",
      "prefectureNameTranslations": null,
      "cityName": null,
      "cityNameTranslations": null,
      "placeType": "quarter"
    },
    {
      "id": "fukuoka_unknown_shin_iizuka",
      "osmId": 8382632386,
      "name": "新飯塚",
      "nameKana": "しんいいづか",
      "nameTranslations": {
        "en": "Shin-Iizuka"
      },
      "latitude": 33.6442396,
      "longitude": 130.6904572,
      "lines": null,
      "prefectureId": "fukuoka",
      "cityId": null,
      "countryCode": "jp",
      "prefectureName": "福岡県",
      "prefectureNameTranslations": null,
      "cityName": null,
      "cityNameTranslations": null,
      "placeType": "quarter"
    },
    {
      "id": "fukuoka_unknown_yoshiomachi",
      "osmId": 8382632387,
      "name": "芳雄町",
      "nameKana": "よしおまち",
      "nameTranslations": {
        "en": "Yoshiomachi"
      },
      "latitude": 33.6405441,
      "longitude": 130.6925493,
      "lines": null,
      "prefectureId": "fukuoka",
      "cityId": null,
      "countryCode": "jp",
      "prefectureName": "福岡県",
      "prefectureNameTranslations": null,
      "cityName": null,
      "cityNameTranslations": null,
      "placeType": "quarter"
    },
    {
      "id": "fukuoka_unknown_kayanomori",
      "osmId": 8382632388,
      "name": "柏の森",
      "nameKana": "かやのもり",
      "nameTranslations": {
        "en": "Kayanomori"
      },
      "latitude": 33.6430361,
      "longitude": 130.6988954,
      "lines": null,
      "prefectureId": "fukuoka",
      "cityId": null,
      "countryCode": "jp",
      "prefectureName": "福岡県",
      "prefectureNameTranslations": null,
      "cityName": null,
      "cityNameTranslations": null,
      "placeType": "quarter"
    },
    {
      "id": "fukuoka_unknown_takasagomachi",
      "osmId": 8382683222,
      "name": "高砂町",
      "nameKana": "たかさごまち",
      "nameTranslations": {
        "en": "Takasagomachi"
      },
      "latitude": 33.0133823,
      "longitude": 130.4263428,
      "lines": null,
      "prefectureId": "fukuoka",
      "cityId": null,
      "countryCode": "jp",
      "prefectureName": "福岡県",
      "prefectureNameTranslations": null,
      "cityName": null,
      "cityNameTranslations": null,
      "placeType": "quarter"
    },
    {
      "id": "fukuoka_unknown_irifunemachi",
      "osmId": 8382683223,
      "name": "入船町",
      "nameKana": "いりふねまち",
      "nameTranslations": {
        "en": "Irifunemachi"
      },
      "latitude": 33.0166615,
      "longitude": 130.4269731,
      "lines": null,
      "prefectureId": "fukuoka",
      "cityId": null,
      "countryCode": "jp",
      "prefectureName": "福岡県",
      "prefectureNameTranslations": null,
      "cityName": null,
      "cityNameTranslations": null,
      "placeType": "quarter"
    },
    {
      "id": "fukuoka_unknown_yatsuemachi",
      "osmId": 8382683234,
      "name": "八江町",
      "nameKana": "やつえまち",
      "nameTranslations": {
        "en": "Yatsuemachi"
      },
      "latitude": 33.0158384,
      "longitude": 130.4395366,
      "lines": null,
      "prefectureId": "fukuoka",
      "cityId": null,
      "countryCode": "jp",
      "prefectureName": "福岡県",
      "prefectureNameTranslations": null,
      "cityName": null,
      "cityNameTranslations": null,
      "placeType": "quarter"
    },
    {
      "id": "fukuoka_unknown_ukyomachi",
      "osmId": 8382683235,
      "name": "右京町",
      "nameKana": "うきょうまち",
      "nameTranslations": {
        "en": "Ukyomachi"
      },
      "latitude": 33.0184068,
      "longitude": 130.4399711,
      "lines": null,
      "prefectureId": "fukuoka",
      "cityId": null,
      "countryCode": "jp",
      "prefectureName": "福岡県",
      "prefectureNameTranslations": null,
      "cityName": null,
      "cityNameTranslations": null,
      "placeType": "quarter"
    },
    {
      "id": "fukuoka_unknown_shozanmachi",
      "osmId": 8382683236,
      "name": "正山町",
      "nameKana": "しょうざんまち",
      "nameTranslations": {
        "en": "Shozanmachi"
      },
      "latitude": 33.0213485,
      "longitude": 130.4397029,
      "lines": null,
      "prefectureId": "fukuoka",
      "cityId": null,
      "countryCode": "jp",
      "prefectureName": "福岡県",
      "prefectureNameTranslations": null,
      "cityName": null,
      "cityNameTranslations": null,
      "placeType": "quarter"
    },
    {
      "id": "fukuoka_unknown_yamashitamachi",
      "osmId": 8382683237,
      "name": "山下町",
      "nameKana": "やましたまち",
      "nameTranslations": {
        "en": "Yamashitamachi"
      },
      "latitude": 33.0206873,
      "longitude": 130.4358727,
      "lines": null,
      "prefectureId": "fukuoka",
      "cityId": null,
      "countryCode": "jp",
      "prefectureName": "福岡県",
      "prefectureNameTranslations": null,
      "cityName": null,
      "cityNameTranslations": null,
      "placeType": "quarter"
    },
    {
      "id": "fukuoka_unknown_chiyomachi",
      "osmId": 8382683238,
      "name": "千代町",
      "nameKana": "ちよまち",
      "nameTranslations": {
        "en": "Chiyomachi"
      },
      "latitude": 33.0231071,
      "longitude": 130.4343438,
      "lines": null,
      "prefectureId": "fukuoka",
      "cityId": null,
      "countryCode": "jp",
      "prefectureName": "福岡県",
      "prefectureNameTranslations": null,
      "cityName": null,
      "cityNameTranslations": null,
      "placeType": "quarter"
    },
    {
      "id": "fukuoka_unknown_shiraganemachi",
      "osmId": 8382683239,
      "name": "白金町",
      "nameKana": "しらがねまち",
      "nameTranslations": {
        "en": "Shiraganemachi"
      },
      "latitude": 33.022374,
      "longitude": 130.4366398,
      "lines": null,
      "prefectureId": "fukuoka",
      "cityId": null,
      "countryCode": "jp",
      "prefectureName": "福岡県",
      "prefectureNameTranslations": null,
      "cityName": null,
      "cityNameTranslations": null,
      "placeType": "quarter"
    },
    {
      "id": "fukuoka_unknown_ogawamachi",
      "osmId": 8382683240,
      "name": "小川町",
      "nameKana": "おがわまち",
      "nameTranslations": {
        "en": "Ogawamachi"
      },
      "latitude": 33.0227879,
      "longitude": 130.4306668,
      "lines": null,
      "prefectureId": "fukuoka",
      "cityId": null,
      "countryCode": "jp",
      "prefectureName": "福岡県",
      "prefectureNameTranslations": null,
      "cityName": null,
      "cityNameTranslations": null,
      "placeType": "quarter"
    },
    {
      "id": "fukuoka_unknown_shinkomachi",
      "osmId": 8382683241,
      "name": "新港町",
      "nameKana": "しんこうまち",
      "nameTranslations": {
        "en": "Shinkomachi"
      },
      "latitude": 33.0239662,
      "longitude": 130.4185939,
      "lines": null,
      "prefectureId": "fukuoka",
      "cityId": null,
      "countryCode": "jp",
      "prefectureName": "福岡県",
      "prefectureNameTranslations": null,
      "cityName": null,
      "cityNameTranslations": null,
      "placeType": "quarter"
    },
    {
      "id": "fukuoka_unknown_misakimachi",
      "osmId": 8382683242,
      "name": "岬町",
      "nameKana": "みさきまち",
      "nameTranslations": {
        "en": "Misakimachi"
      },
      "latitude": 33.0291025,
      "longitude": 130.428223,
      "lines": null,
      "prefectureId": "fukuoka",
      "cityId": null,
      "countryCode": "jp",
      "prefectureName": "福岡県",
      "prefectureNameTranslations": null,
      "cityName": null,
      "cityNameTranslations": null,
      "placeType": "quarter"
    },
    {
      "id": "fukuoka_unknown_kohamamachi",
      "osmId": 8382683243,
      "name": "小浜町",
      "nameKana": "こはままち",
      "nameTranslations": {
        "en": "Kohamamachi"
      },
      "latitude": 33.0282839,
      "longitude": 130.4346818,
      "lines": null,
      "prefectureId": "fukuoka",
      "cityId": null,
      "countryCode": "jp",
      "prefectureName": "福岡県",
      "prefectureNameTranslations": null,
      "cityName": null,
      "cityNameTranslations": null,
      "placeType": "quarter"
    },
    {
      "id": "fukuoka_unknown_matsubaramachi",
      "osmId": 8382683244,
      "name": "松原町",
      "nameKana": "まつばらまち",
      "nameTranslations": {
        "en": "Matsubaramachi"
      },
      "latitude": 33.0320303,
      "longitude": 130.4405022,
      "lines": null,
      "prefectureId": "fukuoka",
      "cityId": null,
      "countryCode": "jp",
      "prefectureName": "福岡県",
      "prefectureNameTranslations": null,
      "cityName": null,
      "cityNameTranslations": null,
      "placeType": "quarter"
    },
    {
      "id": "fukuoka_unknown_shinchimachi",
      "osmId": 8382683245,
      "name": "新地町",
      "nameKana": "しんちまち",
      "nameTranslations": {
        "en": "Shinchimachi"
      },
      "latitude": 33.0332086,
      "longitude": 130.436967,
      "lines": null,
      "prefectureId": "fukuoka",
      "cityId": null,
      "countryCode": "jp",
      "prefectureName": "福岡県",
      "prefectureNameTranslations": null,
      "cityName": null,
      "cityNameTranslations": null,
      "placeType": "quarter"
    },
    {
      "id": "fukuoka_unknown_nakatomomachi",
      "osmId": 8382683246,
      "name": "中友町",
      "nameKana": "なかともまち",
      "nameTranslations": {
        "en": "Nakatomomachi"
      },
      "latitude": 33.0344184,
      "longitude": 130.4416287,
      "lines": null,
      "prefectureId": "fukuoka",
      "cityId": null,
      "countryCode": "jp",
      "prefectureName": "福岡県",
      "prefectureNameTranslations": null,
      "cityName": null,
      "cityNameTranslations": null,
      "placeType": "quarter"
    },
    {
      "id": "fukuoka_unknown_nakashimamachi",
      "osmId": 8382683247,
      "name": "中島町",
      "nameKana": "なかしままち",
      "nameTranslations": {
        "en": "Nakashimamachi"
      },
      "latitude": 33.0364736,
      "longitude": 130.4440695,
      "lines": null,
      "prefectureId": "fukuoka",
      "cityId": null,
      "countryCode": "jp",
      "prefectureName": "福岡県",
      "prefectureNameTranslations": null,
      "cityName": null,
      "cityNameTranslations": null,
      "placeType": "quarter"
    },
    {
      "id": "fukuoka_unknown_hamamachi",
      "osmId": 8382683248,
      "name": "浜町",
      "nameKana": "はままち",
      "nameTranslations": {
        "en": "Hamamachi"
      },
      "latitude": 33.0383016,
      "longitude": 130.4441982,
      "lines": null,
      "prefectureId": "fukuoka",
      "cityId": null,
      "countryCode": "jp",
      "prefectureName": "福岡県",
      "prefectureNameTranslations": null,
      "cityName": null,
      "cityNameTranslations": null,
      "placeType": "quarter"
    },
    {
      "id": "fukuoka_unknown_minatomachi",
      "osmId": 8382683249,
      "name": "港町",
      "nameKana": "みなとまち",
      "nameTranslations": {
        "en": "Minatomachi"
      },
      "latitude": 33.0373842,
      "longitude": 130.4440601,
      "lines": null,
      "prefectureId": "fukuoka",
      "cityId": null,
      "countryCode": "jp",
      "prefectureName": "福岡県",
      "prefectureNameTranslations": null,
      "cityName": null,
      "cityNameTranslations": null,
      "placeType": "quarter"
    },
    {
      "id": "fukuoka_unknown_sumiyoshimachi",
      "osmId": 8382683250,
      "name": "住吉町",
      "nameKana": "すみよしまち",
      "nameTranslations": {
        "en": "Sumiyoshimachi"
      },
      "latitude": 33.0367254,
      "longitude": 130.4421866,
      "lines": null,
      "prefectureId": "fukuoka",
      "cityId": null,
      "countryCode": "jp",
      "prefectureName": "福岡県",
      "prefectureNameTranslations": null,
      "cityName": null,
      "cityNameTranslations": null,
      "placeType": "quarter"
    },
    {
      "id": "fukuoka_unknown_hamadamachi",
      "osmId": 8382683251,
      "name": "浜田町",
      "nameKana": "はまだまち",
      "nameTranslations": {
        "en": "Hamadamachi"
      },
      "latitude": 33.0365837,
      "longitude": 130.4384476,
      "lines": null,
      "prefectureId": "fukuoka",
      "cityId": null,
      "countryCode": "jp",
      "prefectureName": "福岡県",
      "prefectureNameTranslations": null,
      "cityName": null,
      "cityNameTranslations": null,
      "placeType": "quarter"
    },
    {
      "id": "fukuoka_unknown_nishihamadamachi",
      "osmId": 8382683252,
      "name": "西浜田町",
      "nameKana": "にしはまだまち",
      "nameTranslations": {
        "en": "Nishihamadamachi"
      },
      "latitude": 33.0350277,
      "longitude": 130.4378012,
      "lines": null,
      "prefectureId": "fukuoka",
      "cityId": null,
      "countryCode": "jp",
      "prefectureName": "福岡県",
      "prefectureNameTranslations": null,
      "cityName": null,
      "cityNameTranslations": null,
      "placeType": "quarter"
    },
    {
      "id": "fukuoka_unknown_nishishinmachi",
      "osmId": 8382683253,
      "name": "西新町",
      "nameKana": "にししんまち",
      "nameTranslations": {
        "en": "Nishishinmachi"
      },
      "latitude": 33.0353111,
      "longitude": 130.4303688,
      "lines": null,
      "prefectureId": "fukuoka",
      "cityId": null,
      "countryCode": "jp",
      "prefectureName": "福岡県",
      "prefectureNameTranslations": null,
      "cityName": null,
      "cityNameTranslations": null,
      "placeType": "quarter"
    },
    {
      "id": "fukuoka_unknown_shimotsukiguma",
      "osmId": 8382974191,
      "name": "下月隈",
      "nameKana": "しもつきぐま",
      "nameTranslations": {
        "en": "Shimotsukiguma"
      },