{
  "fetchedAt": "2025-12-12T05:27:23.736Z",
  "prefecture": {
    "id": "gifu",
    "name": "岐阜県"
  },
  "cities": [
    {
      "id": "gifu_takayama",
      "osmId": 315430925,
      "prefectureId": "gifu",
      "name": "高山市",
      "nameKana": "たかやまし",
      "nameTranslations": {
        "en": "Takayama"
      },
      "type": "市",
      "countryCode": "jp",
      "latitude": 36.1396246,
      "longitude": 137.2510322
    },
    {
      "id": "gifu_hashima",
      "osmId": 1725098052,
      "prefectureId": "gifu",
      "name": "羽島市",
      "nameKana": null,
      "nameTranslations": {
        "en": "Hashima"
      },
      "type": "市",
      "countryCode": "jp",
      "latitude": 35.3195107,
      "longitude": 136.7027348
    },
    {
      "id": "gifu_hida",
      "osmId": 1862505744,
      "prefectureId": "gifu",
      "name": "飛驒市",
      "nameKana": null,
      "nameTranslations": {
        "en": "Hida"
      },
      "type": "市",
      "countryCode": "jp",
      "latitude": 36.2383204,
      "longitude": 137.1859372
    },
    {
      "id": "gifu_ena",
      "osmId": 1862747607,
      "prefectureId": "gifu",
      "name": "恵那市",
      "nameKana": "えなし",
      "nameTranslations": {
        "en": "Ena"
      },
      "type": "市",
      "countryCode": "jp",
      "latitude": 35.4492674,
      "longitude": 137.412703
    },
    {
      "id": "gifu_gero",
      "osmId": 1862764750,
      "prefectureId": "gifu",
      "name": "下呂市",
      "nameKana": null,
      "nameTranslations": {
        "en": "Gero"
      },
      "type": "市",
      "countryCode": "jp",
      "latitude": 35.8064271,
      "longitude": 137.2433187
    },
    {
      "id": "gifu_gujo",
      "osmId": 1891203389,
      "prefectureId": "gifu",
      "name": "郡上市",
      "nameKana": "ぐじょうし",
      "nameTranslations": {
        "en": "Gujo"
      },
      "type": "市",
      "countryCode": "jp",
      "latitude": 35.748417,
      "longitude": 136.9643095
    },
    {
      "id": "gifu_nakatsugawa",
      "osmId": 1891211866,
      "prefectureId": "gifu",
      "name": "中津川市",
      "nameKana": null,
      "nameTranslations": {
        "en": "Nakatsugawa"
      },
      "type": "市",
      "countryCode": "jp",
      "latitude": 35.4876463,
      "longitude": 137.5005402
    },
    {
      "id": "gifu_mino",
      "osmId": 1891221662,
      "prefectureId": "gifu",
      "name": "美濃市",
      "nameKana": null,
      "nameTranslations": {
        "en": "Mino"
      },
      "type": "市",
      "countryCode": "jp",
      "latitude": 35.5442619,
      "longitude": 136.9075182
    },
    {
      "id": "gifu_kani",
      "osmId": 2017659615,
      "prefectureId": "gifu",
      "name": "可児市",
      "nameKana": null,
      "nameTranslations": {
        "en": "Kani"
      },
      "type": "市",
      "countryCode": "jp",
      "latitude": 35.4261093,
      "longitude": 137.0613166
    },
    {
      "id": "gifu_minokamo",
      "osmId": 2017659616,
      "prefectureId": "gifu",
      "name": "美濃加茂市",
      "nameKana": null,
      "nameTranslations": {
        "en": "Minokamo"
      },
      "type": "市",
      "countryCode": "jp",
      "latitude": 35.4406551,
      "longitude": 137.0155052
    },
    {
      "id": "gifu_mizunami",
      "osmId": 2017659618,
      "prefectureId": "gifu",
      "name": "瑞浪市",
      "nameKana": null,
      "nameTranslations": {
        "en": "Mizunami"
      },
      "type": "市",
      "countryCode": "jp",
      "latitude": 35.3619929,
      "longitude": 137.2541668
    },
    {
      "id": "gifu_tajimi",
      "osmId": 2017659619,
      "prefectureId": "gifu",
      "name": "多治見市",
      "nameKana": null,
      "nameTranslations": {
        "en": "Tajimi"
      },
      "type": "市",
      "countryCode": "jp",
      "latitude": 35.3329961,
      "longitude": 137.1319459
    },
    {
      "id": "gifu_toki",
      "osmId": 2017659620,
      "prefectureId": "gifu",
      "name": "土岐市",
      "nameKana": null,
      "nameTranslations": {
        "en": "Toki"
      },
      "type": "市",
      "countryCode": "jp",
      "latitude": 35.3524854,
      "longitude": 137.1834191
    },
    {
      "id": "gifu_seki",
      "osmId": 2017675511,
      "prefectureId": "gifu",
      "name": "関市",
      "nameKana": null,
      "nameTranslations": {
        "en": "Seki"
      },
      "type": "市",
      "countryCode": "jp",
      "latitude": 35.4958031,
      "longitude": 136.9181482
    },
    {
      "id": "gifu_yamagata",
      "osmId": 2017675514,
      "prefectureId": "gifu",
      "name": "山県市",
      "nameKana": null,
      "nameTranslations": {
        "en": "Yamagata"
      },
      "type": "市",
      "countryCode": "jp",
      "latitude": 35.5061049,
      "longitude": 136.7817491
    },
    {
      "id": "gifu_motosu",
      "osmId": 2017705521,
      "prefectureId": "gifu",
      "name": "本巣市",
      "nameKana": null,
      "nameTranslations": {
        "en": "Motosu"
      },
      "type": "市",
      "countryCode": "jp",
      "latitude": 35.4830261,
      "longitude": 136.6780554
    },
    {
      "id": "gifu_kaizu",
      "osmId": 2017719364,
      "prefectureId": "gifu",
      "name": "海津市",
      "nameKana": null,
      "nameTranslations": {
        "en": "Kaizu"
      },
      "type": "市",
      "countryCode": "jp",
      "latitude": 35.2205087,
      "longitude": 136.637211
    },
    {
      "id": "gifu_kakamigahara",
      "osmId": 2017719379,
      "prefectureId": "gifu",
      "name": "各務原市",
      "nameKana": null,
      "nameTranslations": {
        "en": "Kakamigahara"
      },
      "type": "市",
      "countryCode": "jp",
      "latitude": 35.3995831,
      "longitude": 136.8485648
    },
    {
      "id": "gifu_mizuho",
      "osmId": 2017719387,
      "prefectureId": "gifu",
      "name": "瑞穂市",
      "nameKana": null,
      "nameTranslations": {
        "en": "Mizuho"
      },
      "type": "市",
      "countryCode": "jp",
      "latitude": 35.3919614,
      "longitude": 136.6911268
    },
    {
      "id": "gifu_ogaki",
      "osmId": 3412958800,
      "prefectureId": "gifu",
      "name": "大垣市",
      "nameKana": null,
      "nameTranslations": {
        "en": "Ogaki"
      },
      "type": "市",
      "countryCode": "jp",
      "latitude": 35.3671141,
      "longitude": 136.6179746
    },
    {
      "id": "gifu_gifu",
      "osmId": 5488948282,
      "prefectureId": "gifu",
      "name": "岐阜市",
      "nameKana": "ぎふし",
      "nameTranslations": {
        "en": "Gifu"
      },
      "type": "市",
      "countryCode": "jp",
      "latitude": 35.4230949,
      "longitude": 136.7627526
    },
    {
      "id": "gifu_栃尾",
      "osmId": 6283646544,
      "prefectureId": "gifu",
      "name": "栃尾",
      "nameKana": null,
      "nameTranslations": null,
      "type": null,
      "countryCode": "jp",
      "latitude": 36.246532,
      "longitude": 137.5162323
    }
  ],
  "machi": [
    {
      "id": "gifu_unknown_shimoogure",
      "osmId": 2188269927,
      "name": "下大榑",
      "nameKana": "しもおおぐれ",
      "nameTranslations": {
        "en": "Shimoogure"
      },
      "latitude": 35.2736044,
      "longitude": 136.6499758,
      "lines": null,
      "prefectureId": "gifu",
      "cityId": null,
      "countryCode": "jp",
      "prefectureName": "岐阜県",
      "prefectureNameTranslations": null,
      "cityName": null,
      "cityNameTranslations": null,
      "placeType": "quarter"
    },
    {
      "id": "gifu_unknown_shimoogure_shinden",
      "osmId": 2188269928,
      "name": "下大榑新田",
      "nameKana": "しもおおぐれしんでん",
      "nameTranslations": {
        "en": "Shimoogure-shinden"
      },
      "latitude": 35.2738301,
      "longitude": 136.6380113,
      "lines": null,
      "prefectureId": "gifu",
      "cityId": null,
      "countryCode": "jp",
      "prefectureName": "岐阜県",
      "prefectureNameTranslations": null,
      "cityName": null,
      "cityNameTranslations": null,
      "placeType": "quarter"
    },
    {
      "id": "gifu_unknown_nakago",
      "osmId": 2188269929,
      "name": "中郷",
      "nameKana": "なかごう",
      "nameTranslations": {
        "en": "Nakago"
      },
      "latitude": 35.2989811,
      "longitude": 136.6433386,
      "lines": null,
      "prefectureId": "gifu",
      "cityId": null,
      "countryCode": "jp",
      "prefectureName": "岐阜県",
      "prefectureNameTranslations": null,
      "cityName": null,
      "cityNameTranslations": null,
      "placeType": "quarter"
    },
    {
      "id": "gifu_unknown_nakago_shinden",
      "osmId": 2188269930,
      "name": "中郷新田",
      "nameKana": "なかごうしんでん",
      "nameTranslations": {
        "en": "Nakago-shinden"
      },
      "latitude": 35.2874253,
      "longitude": 136.6331349,
      "lines": null,
      "prefectureId": "gifu",
      "cityId": null,
      "countryCode": "jp",
      "prefectureName": "岐阜県",
      "prefectureNameTranslations": null,
      "cityName": null,
      "cityNameTranslations": null,
      "placeType": "quarter"
    },
    {
      "id": "gifu_unknown_nanba",
      "osmId": 2188269931,
      "name": "南波",
      "nameKana": "なんば",
      "nameTranslations": {
        "en": "Nanba"
      },
      "latitude": 35.3069163,
      "longitude": 136.6350675,
      "lines": null,
      "prefectureId": "gifu",
      "cityId": null,
      "countryCode": "jp",
      "prefectureName": "岐阜県",
      "prefectureNameTranslations": null,
      "cityName": null,
      "cityNameTranslations": null,
      "placeType": "quarter"
    },
    {
      "id": "gifu_unknown_yogo",
      "osmId": 2188269932,
      "name": "四郷",
      "nameKana": "よごう",
      "nameTranslations": {
        "en": "Yogo"
      },
      "latitude": 35.2867255,
      "longitude": 136.6455033,
      "lines": null,
      "prefectureId": "gifu",
      "cityId": null,
      "countryCode": "jp",
      "prefectureName": "岐阜県",
      "prefectureNameTranslations": null,
      "cityName": null,
      "cityNameTranslations": null,
      "placeType": "quarter"
    },
    {
      "id": "gifu_unknown_shiobami",
      "osmId": 2188269938,
      "name": "塩喰",
      "nameKana": "しおばみ",
      "nameTranslations": {
        "en": "Shiobami"
      },
      "latitude": 35.2827986,
      "longitude": 136.6168569,
      "lines": null,
      "prefectureId": "gifu",
      "cityId": null,
      "countryCode": "jp",
      "prefectureName": "岐阜県",
      "prefectureNameTranslations": null,
      "cityName": null,
      "cityNameTranslations": null,
      "placeType": "quarter"
    },
    {
      "id": "gifu_unknown_oyoshi_shinden",
      "osmId": 2188269943,
      "name": "大吉新田",
      "nameKana": "おおよししんでん",
      "nameTranslations": {
        "en": "Oyoshi-shinden"
      },
      "latitude": 35.2695726,
      "longitude": 136.6187615,
      "lines": null,
      "prefectureId": "gifu",
      "cityId": null,
      "countryCode": "jp",
      "prefectureName": "岐阜県",
      "prefectureNameTranslations": null,
      "cityName": null,
      "cityNameTranslations": null,
      "placeType": "quarter"
    },
    {
      "id": "gifu_unknown_oyabu",
      "osmId": 2188269949,
      "name": "大藪",
      "nameKana": "おおやぶ",
      "nameTranslations": {
        "en": "Oyabu"
      },
      "latitude": 35.2940138,
      "longitude": 136.6606182,
      "lines": null,
      "prefectureId": "gifu",
      "cityId": null,
      "countryCode": "jp",
      "prefectureName": "岐阜県",
      "prefectureNameTranslations": null,
      "cityName": null,
      "cityNameTranslations": null,
      "placeType": "quarter"
    },
    {
      "id": "gifu_unknown_hondo",
      "osmId": 2188269953,
      "name": "本戸",
      "nameKana": "ほんど",
      "nameTranslations": {
        "en": "Hondo"
      },
      "latitude": 35.3073345,
      "longitude": 136.6462953,
      "lines": null,
      "prefectureId": "gifu",
      "cityId": null,
      "countryCode": "jp",
      "prefectureName": "岐阜県",
      "prefectureNameTranslations": null,
      "cityName": null,
      "cityNameTranslations": null,
      "placeType": "quarter"
    },
    {
      "id": "gifu_unknown_matsuuchi",
      "osmId": 2188269954,
      "name": "松内",
      "nameKana": "まつうち",
      "nameTranslations": {
        "en": "Matsuuchi"
      },
      "latitude": 35.2618337,
      "longitude": 136.6212348,
      "lines": null,
      "prefectureId": "gifu",
      "cityId": null,
      "countryCode": "jp",
      "prefectureName": "岐阜県",
      "prefectureNameTranslations": null,
      "cityName": null,
      "cityNameTranslations": null,
      "placeType": "quarter"
    },
    {
      "id": "gifu_unknown_niremata_shinden",
      "osmId": 2188269957,
      "name": "楡俣新田",
      "nameKana": "にれまたしんでん",
      "nameTranslations": {
        "en": "Niremata-shinden"
      },
      "latitude": 35.2985136,
      "longitude": 136.6509542,
      "lines": null,
      "prefectureId": "gifu",
      "cityId": null,
      "countryCode": "jp",
      "prefectureName": "岐阜県",
      "prefectureNameTranslations": null,
      "cityName": null,
      "cityNameTranslations": null,
      "placeType": "quarter"
    },
    {
      "id": "gifu_unknown_横曽根",
      "osmId": 2188269961,
      "name": "横曽根町",
      "nameKana": null,
      "nameTranslations": null,
      "latitude": 35.2952004,
      "longitude": 136.613271,
      "lines": null,
      "prefectureId": "gifu",
      "cityId": null,
      "countryCode": "jp",
      "prefectureName": "岐阜県",
      "prefectureNameTranslations": null,
      "cityName": null,
      "cityNameTranslations": null,
      "placeType": "quarter"
    },
    {
      "id": "gifu_unknown_mirushinden",
      "osmId": 2188269972,
      "name": "海松新田",
      "nameKana": "みるしんでん",
      "nameTranslations": {
        "en": "Mirushinden"
      },
      "latitude": 35.2711701,
      "longitude": 136.6269145,
      "lines": null,
      "prefectureId": "gifu",
      "cityId": null,
      "countryCode": "jp",
      "prefectureName": "岐阜県",
      "prefectureNameTranslations": null,
      "cityName": null,
      "cityNameTranslations": null,
      "placeType": "quarter"
    },
    {
      "id": "gifu_unknown_fukuzuka",
      "osmId": 2188269976,
      "name": "福束",
      "nameKana": "ふくづか",
      "nameTranslations": {
        "en": "Fukuzuka"
      },
      "latitude": 35.2960003,
      "longitude": 136.6238023,
      "lines": null,
      "prefectureId": "gifu",
      "cityId": null,
      "countryCode": "jp",
      "prefectureName": "岐阜県",
      "prefectureNameTranslations": null,
      "cityName": null,
      "cityNameTranslations": null,
      "placeType": "quarter"
    },
    {
      "id": "gifu_unknown_fukuzuka_shinden",
      "osmId": 2188269981,
      "name": "福束新田",
      "nameKana": "ふくづかしんでん",
      "nameTranslations": {
        "en": "Fukuzuka-shinden"
      },
      "latitude": 35.2874149,
      "longitude": 136.6243751,
      "lines": null,
      "prefectureId": "gifu",
      "cityId": null,
      "countryCode": "jp",
      "prefectureName": "岐阜県",
      "prefectureNameTranslations": null,
      "cityName": null,
      "cityNameTranslations": null,
      "placeType": "quarter"
    },
    {
      "id": "gifu_unknown_moike_shinden",
      "osmId": 2188269987,
      "name": "藻池新田",
      "nameKana": "もいけしんでん",
      "nameTranslations": {
        "en": "Moike-shinden"
      },
      "latitude": 35.2803676,
      "longitude": 136.6231003,
      "lines": null,
      "prefectureId": "gifu",
      "cityId": null,
      "countryCode": "jp",
      "prefectureName": "岐阜県",
      "prefectureNameTranslations": null,
      "cityName": null,
      "cityNameTranslations": null,
      "placeType": "quarter"
    },
    {
      "id": "gifu_unknown_sato",
      "osmId": 2188269991,
      "name": "里",
      "nameKana": "さと",
      "nameTranslations": {
        "en": "Sato"
      },
      "latitude": 35.3012132,
      "longitude": 136.6384219,
      "lines": null,
      "prefectureId": "gifu",
      "cityId": null,
      "countryCode": "jp",
      "prefectureName": "岐阜県",
      "prefectureNameTranslations": null,
      "cityName": null,
      "cityNameTranslations": null,
      "placeType": "quarter"
    },
    {
      "id": "gifu_unknown_isshiki",
      "osmId": 2189245794,
      "name": "一色",
      "nameKana": "いっしき",
      "nameTranslations": {
        "en": "Isshiki"
      },
      "latitude": 35.2619989,
      "longitude": 136.5624955,
      "lines": null,
      "prefectureId": "gifu",
      "cityId": null,
      "countryCode": "jp",
      "prefectureName": "岐阜県",
      "prefectureNameTranslations": null,
      "cityName": null,
      "cityNameTranslations": null,
      "placeType": "quarter"
    },
    {
      "id": "gifu_unknown_mikamimachi",
      "osmId": 2189245800,
      "name": "三神町",
      "nameKana": "みかみまち",
      "nameTranslations": {
        "en": "Mikamimachi"
      },
      "latitude": 35.31477,
      "longitude": 136.5498523,
      "lines": null,
      "prefectureId": "gifu",
      "cityId": null,
      "countryCode": "jp",
      "prefectureName": "岐阜県",
      "prefectureNameTranslations": null,
      "cityName": null,
      "cityNameTranslations": null,
      "placeType": "quarter"
    },
    {
      "id": "gifu_unknown_kaminogo",
      "osmId": 2189245804,
      "name": "上之郷",
      "nameKana": "かみのごう",
      "nameTranslations": {
        "en": "Kaminogo"
      },
      "latitude": 35.2928356,
      "longitude": 136.5925899,
      "lines": null,
      "prefectureId": "gifu",
      "cityId": null,
      "countryCode": "jp",
      "prefectureName": "岐阜県",
      "prefectureNameTranslations": null,
      "cityName": null,
      "cityNameTranslations": null,
      "placeType": "quarter"
    },
    {
      "id": "gifu_unknown_uwagata",
      "osmId": 2189245808,
      "name": "上方",
      "nameKana": "うわがた",
      "nameTranslations": {
        "en": "Uwagata"
      },
      "latitude": 35.3125487,
      "longitude": 136.5364402,
      "lines": null,
      "prefectureId": "gifu",
      "cityId": null,
      "countryCode": "jp",
      "prefectureName": "岐阜県",
      "prefectureNameTranslations": null,
      "cityName": null,
      "cityNameTranslations": null,
      "placeType": "quarter"
    },
    {
      "id": "gifu_unknown_shimogasa",
      "osmId": 2189245812,
      "name": "下笠",
      "nameKana": "しもがさ",
      "nameTranslations": {
        "en": "Shimogasa"
      },
      "latitude": 35.2805133,
      "longitude": 136.5891972,
      "lines": null,
      "prefectureId": "gifu",
      "cityId": null,
      "countryCode": "jp",
      "prefectureName": "岐阜県",
      "prefectureNameTranslations": null,
      "cityName": null,
      "cityNameTranslations": null,
      "placeType": "quarter"
    },
    {
      "id": "gifu_unknown_naka",
      "osmId": 2189245815,
      "name": "中",
      "nameKana": "なか",
      "nameTranslations": {
        "en": "Naka"
      },
      "latitude": 35.3285038,
      "longitude": 136.5513283,
      "lines": null,
      "prefectureId": "gifu",
      "cityId": null,
      "countryCode": "jp",
      "prefectureName": "岐阜県",
      "prefectureNameTranslations": null,
      "cityName": null,
      "cityNameTranslations": null,
      "placeType": "quarter"
    },
    {
      "id": "gifu_unknown_itsukaichi",
      "osmId": 2189245820,
      "name": "五日市",
      "nameKana": "いつかいち",
      "nameTranslations": {
        "en": "Itsukaichi"
      },
      "latitude": 35.3159912,
      "longitude": 136.5406483,
      "lines": null,
      "prefectureId": "gifu",
      "cityId": null,
      "countryCode": "jp",
      "prefectureName": "岐阜県",
      "prefectureNameTranslations": null,
      "cityName": null,
      "cityNameTranslations": null,
      "placeType": "quarter"
    },
    {
      "id": "gifu_unknown_kyogawaki",
      "osmId": 2189245827,
      "name": "京ケ脇",
      "nameKana": "きょうがわき",
      "nameTranslations": {
        "en": "Kyogawaki"
      },
      "latitude": 35.2772708,
      "longitude": 136.5472872,
      "lines": null,
      "prefectureId": "gifu",
      "cityId": null,
      "countryCode": "jp",
      "prefectureName": "岐阜県",
      "prefectureNameTranslations": null,
      "cityName": null,
      "cityNameTranslations": null,
      "placeType": "quarter"
    },
    {
      "id": "gifu_unknown_seishi",
      "osmId": 2189245836,
      "name": "勢至",
      "nameKana": "せいし",
      "nameTranslations": {
        "en": "Seishi"
      },
      "latitude": 35.3030552,
      "longitude": 136.5425663,
      "lines": null,
      "prefectureId": "gifu",
      "cityId": null,
      "countryCode": "jp",
      "prefectureName": "岐阜県",
      "prefectureNameTranslations": null,
      "cityName": null,
      "cityNameTranslations": null,
      "placeType": "quarter"
    },
    {
      "id": "gifu_unknown_kuchigashima",
      "osmId": 2189245842,
      "name": "口ケ島",
      "nameKana": "くちがしま",
      "nameTranslations": {
        "en": "Kuchigashima"
      },
      "latitude": 35.2955746,
      "longitude": 136.5728861,
      "lines": null,
      "prefectureId": "gifu",
      "cityId": null,
      "countryCode": "jp",
      "prefectureName": "岐阜県",
      "prefectureNameTranslations": null,
      "cityName": null,
      "cityNameTranslations": null,
      "placeType": "quarter"
    },
    {
      "id": "gifu_unknown_otsubo",
      "osmId": 2189245843,
      "name": "大坪",
      "nameKana": "おおつぼ",
      "nameTranslations": {
        "en": "Otsubo"
      },
      "latitude": 35.3344752,
      "longitude": 136.5674226,
      "lines": null,
      "prefectureId": "gifu",
      "cityId": null,
      "countryCode": "jp",
      "prefectureName": "岐阜県",
      "prefectureNameTranslations": null,
      "cityName": null,
      "cityNameTranslations": null,
      "placeType": "quarter"
    },
    {
      "id": "gifu_unknown_oba",
      "osmId": 2189245844,
      "name": "大場",
      "nameKana": "おおば",
      "nameTranslations": {
        "en": "Oba"
      },
      "latitude": 35.2681572,
      "longitude": 136.5887642,
      "lines": null,
      "prefectureId": "gifu",
      "cityId": null,
      "countryCode": "jp",
      "prefectureName": "岐阜県",
      "prefectureNameTranslations": null,
      "cityName": null,
      "cityNameTranslations": null,
      "placeType": "quarter"
    },
    {
      "id": "gifu_unknown_omaki",
      "osmId": 2189245850,
      "name": "大巻",
      "nameKana": "おおまき",
      "nameTranslations": {
        "en": "Omaki"
      },
      "latitude": 35.2483846,
      "longitude": 136.6082352,
      "lines": null,
      "prefectureId": "gifu",
      "cityId": null,
      "countryCode": "jp",
      "prefectureName": "岐阜県",
      "prefectureNameTranslations": null,
      "cityName": null,
      "cityNameTranslations": null,
      "placeType": "quarter"
    },
    {
      "id": "gifu_unknown_oato",
      "osmId": 2189245854,
      "name": "大跡",
      "nameKana": "おおあと",
      "nameTranslations": {
        "en": "Oato"
      },
      "latitude": 35.2878926,
      "longitude": 136.5734554,
      "lines": null,
      "prefectureId": "gifu",
      "cityId": null,
      "countryCode": "jp",
      "prefectureName": "岐阜県",
      "prefectureNameTranslations": null,
      "cityName": null,
      "cityNameTranslations": null,
      "placeType": "quarter"
    },
    {
      "id": "gifu_unknown_ono",
      "osmId": 2189245858,
      "name": "大野",
      "nameKana": "おおの",
      "nameTranslations": {
        "en": "Ono"
      },
      "latitude": 35.2812916,
      "longitude": 136.6062672,
      "lines": null,
      "prefectureId": "gifu",
      "cityId": null,
      "countryCode": "jp",
      "prefectureName": "岐阜県",
      "prefectureNameTranslations": null,
      "cityName": null,
      "cityNameTranslations": null,
      "placeType": "quarter"
    },
    {
      "id": "gifu_unknown_uta",
      "osmId": 2189245862,
      "name": "宇田",
      "nameKana": "うた",
      "nameTranslations": {
        "en": "Uta"
      },
      "latitude": 35.3251681,
      "longitude": 136.5593023,
      "lines": null,
      "prefectureId": "gifu",
      "cityId": null,
      "countryCode": "jp",
      "prefectureName": "岐阜県",
      "prefectureNameTranslations": null,
      "cityName": null,
      "cityNameTranslations": null,
      "placeType": "quarter"
    },
    {
      "id": "gifu_unknown_yasuhisa",
      "osmId": 2189245865,
      "name": "安久",
      "nameKana": "やすひさ",
      "nameTranslations": {
        "en": "Yasuhisa"
      },
      "latitude": 35.319261,
      "longitude": 136.5539109,
      "lines": null,
      "prefectureId": "gifu",
      "cityId": null,
      "countryCode": "jp",
      "prefectureName": "岐阜県",
      "prefectureNameTranslations": null,
      "cityName": null,
      "cityNameTranslations": null,
      "placeType": "quarter"
    },
    {
      "id": "gifu_unknown_murohara",
      "osmId": 2189245869,
      "name": "室原",
      "nameKana": "むろはら",
      "nameTranslations": {
        "en": "Murohara"
      },
      "latitude": 35.3390797,
      "longitude": 136.5651295,
      "lines": null,
      "prefectureId": "gifu",
      "cityId": null,
      "countryCode": "jp",
      "prefectureName": "岐阜県",
      "prefectureNameTranslations": null,
      "cityName": null,
      "cityNameTranslations": null,
      "placeType": "quarter"
    },
    {
      "id": "gifu_unknown_ogura",
      "osmId": 2189245873,
      "name": "小倉",
      "nameKana": "おぐら",
      "nameTranslations": {
        "en": "Ogura"
      },
      "latitude": 35.2722236,
      "longitude": 136.5618861,
      "lines": null,
      "prefectureId": "gifu",
      "cityId": null,
      "countryCode": "jp",
      "prefectureName": "岐阜県",
      "prefectureNameTranslations": null,
      "cityName": null,
      "cityNameTranslations": null,
      "placeType": "quarter"
    },
    {
      "id": "gifu_unknown_iwamichi",
      "osmId": 2189245876,
      "name": "岩道",
      "nameKana": "いわみち",
      "nameTranslations": {
        "en": "Iwamichi"
      },
      "latitude": 35.2945007,
      "longitude": 136.5863211,
      "lines": null,
      "prefectureId": "gifu",
      "cityId": null,
      "countryCode": "jp",
      "prefectureName": "岐阜県",
      "prefectureNameTranslations": null,
      "cityName": null,
      "cityNameTranslations": null,
      "placeType": "quarter"
    },
    {
      "id": "gifu_unknown_oshikoshi",
      "osmId": 2189245879,
      "name": "押越",
      "nameKana": "おしこし",
      "nameTranslations": {
        "en": "Oshikoshi"
      },
      "latitude": 35.3064461,
      "longitude": 136.5515231,
      "lines": null,
      "prefectureId": "gifu",
      "cityId": null,
      "countryCode": "jp",
      "prefectureName": "岐阜県",
      "prefectureNameTranslations": null,
      "cityName": null,
      "cityNameTranslations": null,
      "placeType": "quarter"
    },
    {
      "id": "gifu_unknown_myotoku",
      "osmId": 2189245886,
      "name": "明徳",
      "nameKana": "みょうとく",
      "nameTranslations": {
        "en": "Myotoku"
      },
      "latitude": 35.292653,
      "longitude": 136.5550405,
      "lines": null,
      "prefectureId": "gifu",
      "cityId": null,
      "countryCode": "jp",
      "prefectureName": "岐阜県",
      "prefectureNameTranslations": null,
      "cityName": null,
      "cityNameTranslations": null,
      "placeType": "quarter"
    },
    {
      "id": "gifu_unknown_ario",
      "osmId": 2189245889,
      "name": "有尾",
      "nameKana": "ありお",
      "nameTranslations": {
        "en": "Ario"
      },
      "latitude": 35.2565185,
      "longitude": 136.5844221,
      "lines": null,
      "prefectureId": "gifu",
      "cityId": null,
      "countryCode": "jp",
      "prefectureName": "岐阜県",
      "prefectureNameTranslations": null,
      "cityName": null,
      "cityNameTranslations": null,
      "placeType": "quarter"
    },
    {
      "id": "gifu_unknown_kashiwao",
      "osmId": 2189245893,
      "name": "柏尾",
      "nameKana": "かしわお",
      "nameTranslations": {
        "en": "Kashiwao"
      },
      "latitude": 35.2933672,
      "longitude": 136.544376,
      "lines": null,
      "prefectureId": "gifu",
      "cityId": null,
      "countryCode": "jp",
      "prefectureName": "岐阜県",
      "prefectureNameTranslations": null,
      "cityName": null,
      "cityNameTranslations": null,
      "placeType": "quarter"
    },
    {
      "id": "gifu_unknown_kurigasa",
      "osmId": 2189245901,
      "name": "栗笠",
      "nameKana": "くりがさ",
      "nameTranslations": {
        "en": "Kurigasa"
      },
      "latitude": 35.2971058,
      "longitude": 136.5949403,
      "lines": null,
      "prefectureId": "gifu",
      "cityId": null,
      "countryCode": "jp",
      "prefectureName": "岐阜県",
      "prefectureNameTranslations": null,
      "cityName": null,
      "cityNameTranslations": null,
      "placeType": "quarter"
    },
    {
      "id": "gifu_unknown_nekoji",
      "osmId": 2189245905,
      "name": "根古地",
      "nameKana": "ねこじ",
      "nameTranslations": {
        "en": "Nekoji"
      },
      "latitude": 35.2682118,
      "longitude": 136.6031258,
      "lines": null,
      "prefectureId": "gifu",
      "cityId": null,
      "countryCode": "jp",
      "prefectureName": "岐阜県",
      "prefectureNameTranslations": null,
      "cityName": null,
      "cityNameTranslations": null,
      "placeType": "quarter"
    },
    {
      "id": "gifu_unknown_sakurai",
      "osmId": 2189245908,
      "name": "桜井",
      "nameKana": "さくらい",
      "nameTranslations": {
        "en": "Sakurai"
      },
      "latitude": 35.3184743,
      "longitude": 136.5297889,
      "lines": null,
      "prefectureId": "gifu",
      "cityId": null,
      "countryCode": "jp",
      "prefectureName": "岐阜県",
      "prefectureNameTranslations": null,
      "cityName": null,
      "cityNameTranslations": null,
      "placeType": "quarter"
    },
    {
      "id": "gifu_unknown_yokoya",
      "osmId": 2189245912,
      "name": "横屋",
      "nameKana": "よこや",
      "nameTranslations": {
        "en": "Yokoya"
      },
      "latitude": 35.2640394,
      "longitude": 136.574339,
      "lines": null,
      "prefectureId": "gifu",
      "cityId": null,
      "countryCode": "jp",
      "prefectureName": "岐阜県",
      "prefectureNameTranslations": null,
      "cityName": null,
      "cityNameTranslations": null,
      "placeType": "quarter"
    },
    {
      "id": "gifu_unknown_hashizume",
      "osmId": 2189245915,
      "name": "橋爪",
      "nameKana": "はしづめ",
      "nameTranslations": {
        "en": "Hashizume"
      },
      "latitude": 35.3273884,
      "longitude": 136.5439497,
      "lines": null,
      "prefectureId": "gifu",
      "cityId": null,
      "countryCode": "jp",
      "prefectureName": "岐阜県",
      "prefectureNameTranslations": null,
      "cityName": null,
      "cityNameTranslations": null,
      "placeType": "quarter"
    },
    {
      "id": "gifu_unknown_etsuki",
      "osmId": 2189245918,
      "name": "江月",
      "nameKana": "えつき",
      "nameTranslations": {
        "en": "Etsuki"
      },
      "latitude": 35.3147362,
      "longitude": 136.5911369,
      "lines": null,
      "prefectureId": "gifu",
      "cityId": null,
      "countryCode": "jp",
      "prefectureName": "岐阜県",
      "prefectureNameTranslations": null,
      "cityName": null,
      "cityNameTranslations": null,
      "placeType": "quarter"
    },
    {
      "id": "gifu_unknown_sawada",
      "osmId": 2189245921,
      "name": "沢田",
      "nameKana": "さわだ",
      "nameTranslations": {
        "en": "Sawada"
      },
      "latitude": 35.3274214,
      "longitude": 136.5202437,
      "lines": null,
      "prefectureId": "gifu",
      "cityId": null,
      "countryCode": "jp",
      "prefectureName": "岐阜県",
      "prefectureNameTranslations": null,
      "cityName": null,
      "cityNameTranslations": null,
      "placeType": "quarter"
    },
    {
      "id": "gifu_unknown_izumimachi",
      "osmId": 2189245923,
      "name": "泉町",
      "nameKana": "いずみまち",
      "nameTranslations": {
        "en": "Izumimachi"
      },
      "latitude": 35.3171662,
      "longitude": 136.5518571,
      "lines": null,
      "prefectureId": "gifu",
      "cityId": null,
      "countryCode": "jp",
      "prefectureName": "岐阜県",
      "prefectureNameTranslations": null,
      "cityName": null,
      "cityNameTranslations": null,
      "placeType": "quarter"
    },
    {
      "id": "gifu_unknown_takimimachi",
      "osmId": 2189245924,
      "name": "滝見町",
      "nameKana": "たきみまち",
      "nameTranslations": {
        "en": "Takimimachi"
      },
      "latitude": 35.3133536,
      "longitude": 136.546209,
      "lines": null,
      "prefectureId": "gifu",
      "cityId": null,
      "countryCode": "jp",
      "prefectureName": "岐阜県",
      "prefectureNameTranslations": null,
      "cityName": null,
      "cityNameTranslations": null,
      "placeType": "quarter"
    },
    {
      "id": "gifu_unknown_karasue",
      "osmId": 2189245925,
      "name": "烏江",
      "nameKana": "からすえ",
      "nameTranslations": {
        "en": "Karasue"
      },
      "latitude": 35.3049734,
      "longitude": 136.5872346,
      "lines": null,
      "prefectureId": "gifu",
      "cityId": null,
      "countryCode": "jp",
      "prefectureName": "岐阜県",
      "prefectureNameTranslations": null,
      "cityName": null,
      "cityNameTranslations": null,
      "placeType": "quarter"
    },
    {
      "id": "gifu_unknown_mizuho",
      "osmId": 2189245928,
      "name": "瑞穂",
      "nameKana": "みずほ",
      "nameTranslations": {
        "en": "Mizuho"
      },
      "latitude": 35.2547638,
      "longitude": 136.6010765,
      "lines": null,
      "prefectureId": "gifu",
      "cityId": null,
      "countryCode": "jp",
      "prefectureName": "岐阜県",
      "prefectureNameTranslations": null,
      "cityName": null,
      "cityNameTranslations": null,
      "placeType": "quarter"
    },
    {
      "id": "gifu_unknown_ta",
      "osmId": 2189245931,
      "name": "田",
      "nameKana": "た",
      "nameTranslations": {
        "en": "Ta"
      },
      "latitude": 35.2701445,
      "longitude": 136.5800975,
      "lines": null,
      "prefectureId": "gifu",
      "cityId": null,
      "countryCode": "jp",
      "prefectureName": "岐阜県",
      "prefectureNameTranslations": null,
      "cityName": null,
      "cityNameTranslations": null,
      "placeType": "quarter"
    },
    {
      "id": "gifu_unknown_naoe",
      "osmId": 2189245940,
      "name": "直江",
      "nameKana": "なおえ",
      "nameTranslations": {
        "en": "Naoe"
      },
      "latitude": 35.3159468,
      "longitude": 136.5638624,
      "lines": null,
      "prefectureId": "gifu",
      "cityId": null,
      "countryCode": "jp",
      "prefectureName": "岐阜県",
      "prefectureNameTranslations": null,
      "cityName": null,
      "cityNameTranslations": null,
      "placeType": "quarter"
    },
    {
      "id": "gifu_unknown_ishibata",
      "osmId": 2189245944,
      "name": "石畑",
      "nameKana": "いしばた",
      "nameTranslations": {
        "en": "Ishibata"
      },
      "latitude": 35.300489,
      "longitude": 136.5474805,
      "lines": null,
      "prefectureId": "gifu",
      "cityId": null,
      "countryCode": "jp",
      "prefectureName": "岐阜県",
      "prefectureNameTranslations": null,
      "cityName": null,
      "cityNameTranslations": null,
      "placeType": "quarter"
    },
    {
      "id": "gifu_unknown_sobue",
      "osmId": 2189245947,
      "name": "祖父江",
      "nameKana": "そぶえ",
      "nameTranslations": {
        "en": "Sobue"
      },
      "latitude": 35.3254614,
      "longitude": 136.5844619,
      "lines": null,
      "prefectureId": "gifu",
      "cityId": null,
      "countryCode": "jp",
      "prefectureName": "岐阜県",
      "prefectureNameTranslations": null,
      "cityName": null,
      "cityNameTranslations": null,
      "placeType": "quarter"
    },
    {
      "id": "gifu_unknown_funami",
      "osmId": 2189245950,
      "name": "船見",
      "nameKana": "ふなみ",
      "nameTranslations": {
        "en": "Funami"
      },
      "latitude": 35.2660781,
      "longitude": 136.5621776,
      "lines": null,
      "prefectureId": "gifu",
      "cityId": null,
      "countryCode": "jp",
      "prefectureName": "岐阜県",
      "prefectureNameTranslations": null,
      "cityName": null,
      "cityNameTranslations": null,
      "placeType": "quarter"
    },
    {
      "id": "gifu_unknown_funatsuke",
      "osmId": 2189245954,
      "name": "船附",
      "nameKana": "ふなつけ",
      "nameTranslations": {
        "en": "Funatsuke"
      },
      "latitude": 35.2913073,
      "longitude": 136.6012306,
      "lines": null,
      "prefectureId": "gifu",
      "cityId": null,
      "countryCode": "jp",
      "prefectureName": "岐阜県",
      "prefectureNameTranslations": null,
      "cityName": null,
      "cityNameTranslations": null,
      "placeType": "quarter"
    },
    {
      "id": "gifu_unknown_irome",
      "osmId": 2189245957,
      "name": "色目",
      "nameKana": "いろめ",
      "nameTranslations": {
        "en": "Irome"
      },
      "latitude": 35.3331273,
      "longitude": 136.5580186,
      "lines": null,
      "prefectureId": "gifu",
      "cityId": null,
      "countryCode": "jp",
      "prefectureName": "岐阜県",
      "prefectureNameTranslations": null,
      "cityName": null,
      "cityNameTranslations": null,
      "placeType": "quarter"
    },
    {
      "id": "gifu_unknown_wakamiya",
      "osmId": 2189245960,
      "name": "若宮",
      "nameKana": "わかみや",
      "nameTranslations": {
        "en": "Wakamiya"
      },
      "latitude": 35.2662225,
      "longitude": 136.5541893,
      "lines": null,
      "prefectureId": "gifu",
      "cityId": null,
      "countryCode": "jp",
      "prefectureName": "岐阜県",
      "prefectureNameTranslations": null,
      "cityName": null,
      "cityNameTranslations": null,
      "placeType": "quarter"
    },
    {
      "id": "gifu_unknown_nishiogura",
      "osmId": 2189245963,
      "name": "西小倉",
      "nameKana": "にしおぐら",
      "nameTranslations": {
        "en": "Nishiogura"
      },
      "latitude": 35.275731,
      "longitude": 136.5553569,
      "lines": null,
      "prefectureId": "gifu",
      "cityId": null,
      "countryCode": "jp",
      "prefectureName": "岐阜県",
      "prefectureNameTranslations": null,
      "cityName": null,
      "cityNameTranslations": null,
      "placeType": "quarter"
    },
    {
      "id": "gifu_unknown_nishiiwamichi",
      "osmId": 2189245964,
      "name": "西岩道",
      "nameKana": "にしいわみち",
      "nameTranslations": {
        "en": "Nishiiwamichi"
      },
      "latitude": 35.2963159,
      "longitude": 136.5817122,
      "lines": null,
      "prefectureId": "gifu",
      "cityId": null,
      "countryCode": "jp",
      "prefectureName": "岐阜県",
      "prefectureNameTranslations": null,
      "cityName": null,
      "cityNameTranslations": null,
      "placeType": "quarter"
    },
    {
      "id": "gifu_unknown_toyo",
      "osmId": 2189245965,
      "name": "豊",
      "nameKana": "とよ",
      "nameTranslations": {
        "en": "Toyo"
      },
      "latitude": 35.3290827,
      "longitude": 136.5551471,
      "lines": null,
      "prefectureId": "gifu",
      "cityId": null,
      "countryCode": "jp",
      "prefectureName": "岐阜県",
      "prefectureNameTranslations": null,
      "cityName": null,
      "cityNameTranslations": null,
      "placeType": "quarter"
    },
    {
      "id": "gifu_unknown_kanaya",
      "osmId": 2189245966,
      "name": "金屋",
      "nameKana": "かなや",
      "nameTranslations": {
        "en": "Kanaya"
      },
      "latitude": 35.3186563,
      "longitude": 136.5655489,
      "lines": null,
      "prefectureId": "gifu",
      "cityId": null,
      "countryCode": "jp",
      "prefectureName": "岐阜県",
      "prefectureNameTranslations": null,
      "cityName": null,
      "cityNameTranslations": null,
      "placeType": "quarter"
    },
    {
      "id": "gifu_unknown_kamadan",
      "osmId": 2189245967,
      "name": "釜段",
      "nameKana": "かまだん",
      "nameTranslations": {
        "en": "Kamadan"
      },
      "latitude": 35.2451156,
      "longitude": 136.5979229,
      "lines": null,
      "prefectureId": "gifu",
      "cityId": null,
      "countryCode": "jp",
      "prefectureName": "岐阜県",
      "prefectureNameTranslations": null,
      "cityName": null,
      "cityNameTranslations": null,
      "placeType": "quarter"
    },
    {
      "id": "gifu_unknown_iida",
      "osmId": 2189245969,
      "name": "飯田",
      "nameKana": "いいだ",
      "nameTranslations": {
        "en": "Iida"
      },
      "latitude": 35.3264668,
      "longitude": 136.5692634,
      "lines": null,
      "prefectureId": "gifu",
      "cityId": null,
      "countryCode": "jp",
      "prefectureName": "岐阜県",
      "prefectureNameTranslations": null,
      "cityName": null,
      "cityNameTranslations": null,
      "placeType": "quarter"
    },
    {
      "id": "gifu_unknown_iizumi",
      "osmId": 2189245970,
      "name": "飯積",
      "nameKana": "いいづみ",
      "nameTranslations": {
        "en": "Iizumi"
      },
      "latitude": 35.3194481,
      "longitude": 136.5697426,
      "lines": null,
      "prefectureId": "gifu",
      "cityId": null,
      "countryCode": "jp",
      "prefectureName": "岐阜県",
      "prefectureNameTranslations": null,
      "cityName": null,
      "cityNameTranslations": null,
      "placeType": "quarter"
    },
    {
      "id": "gifu_unknown_yorokoen",
      "osmId": 2189245971,
      "name": "養老公園",
      "nameKana": "ようろうこうえん",
      "nameTranslations": {
        "en": "Yorokoen"
      },
      "latitude": 35.2801417,
      "longitude": 136.5355344,
      "lines": null,
      "prefectureId": "gifu",
      "cityId": null,
      "countryCode": "jp",
      "prefectureName": "岐阜県",
      "prefectureNameTranslations": null,
      "cityName": null,
      "cityNameTranslations": null,
      "placeType": "quarter"
    },
    {
      "id": "gifu_unknown_takabayashi",
      "osmId": 2189245972,
      "name": "高林",
      "nameKana": "たかばやし",
      "nameTranslations": {
        "en": "Takabayashi"
      },
      "latitude": 35.2815193,
      "longitude": 136.5462028,
      "lines": null,
      "prefectureId": "gifu",
      "cityId": null,
      "countryCode": "jp",
      "prefectureName": "岐阜県",
      "prefectureNameTranslations": null,
      "cityName": null,
      "cityNameTranslations": null,
      "placeType": "quarter"
    },
    {
      "id": "gifu_unknown_takada",
      "osmId": 2189245973,
      "name": "高田",
      "nameKana": "たかだ",
      "nameTranslations": {
        "en": "Takada"
      },
      "latitude": 35.3060028,
      "longitude": 136.5691385,
      "lines": null,
      "prefectureId": "gifu",
      "cityId": null,
      "countryCode": "jp",
      "prefectureName": "岐阜県",
      "prefectureNameTranslations": null,
      "cityName": null,
      "cityNameTranslations": null,
      "placeType": "quarter"
    },
    {
      "id": "gifu_unknown_takadababacho",
      "osmId": 2189245974,
      "name": "高田馬場町",
      "nameKana": "たかだばばちょう",
      "nameTranslations": {
        "en": "Takadababacho"
      },
      "latitude": 35.3130037,
      "longitude": 136.5552206,
      "lines": null,
      "prefectureId": "gifu",
      "cityId": null,
      "countryCode": "jp",
      "prefectureName": "岐阜県",
      "prefectureNameTranslations": null,
      "cityName": null,
      "cityNameTranslations": null,
      "placeType": "quarter"
    },
    {
      "id": "gifu_unknown_washinosu",
      "osmId": 2189245975,
      "name": "鷲巣",
      "nameKana": "わしのす",
      "nameTranslations": {
        "en": "Washinosu"
      },
      "latitude": 35.2857796,
      "longitude": 136.5605346,
      "lines": null,
      "prefectureId": "gifu",
      "cityId": null,
      "countryCode": "jp",
      "prefectureName": "岐阜県",
      "prefectureNameTranslations": null,
      "cityName": null,
      "cityNameTranslations": null,
      "placeType": "quarter"
    },
    {
      "id": "gifu_unknown_ryusenji",
      "osmId": 2189245976,
      "name": "竜泉寺",
      "nameKana": "りゅうせんじ",
      "nameTranslations": {
        "en": "Ryusenji"
      },
      "latitude": 35.3058371,
      "longitude": 136.5376356,
      "lines": null,
      "prefectureId": "gifu",
      "cityId": null,
      "countryCode": "jp",
      "prefectureName": "岐阜県",
      "prefectureNameTranslations": null,
      "cityName": null,
      "cityNameTranslations": null,
      "placeType": "quarter"
    },
    {
      "id": "gifu_unknown_緑",
      "osmId": 2455158608,
      "name": "緑",
      "nameKana": null,
      "nameTranslations": null,
      "latitude": 35.3960485,
      "longitude": 137.0016847,
      "lines": null,
      "prefectureId": "gifu",
      "cityId": null,
      "countryCode": "jp",
      "prefectureName": "岐阜県",
      "prefectureNameTranslations": null,
      "cityName": null,
      "cityNameTranslations": null,
      "placeType": "quarter"
    },
    {
      "id": "gifu_unknown_若葉台",
      "osmId": 2455158611,
      "name": "若葉台",
      "nameKana": null,
      "nameTranslations": null,
      "latitude": 35.4018555,
      "longitude": 137.0175419,
      "lines": null,
      "prefectureId": "gifu",
      "cityId": null,
      "countryCode": "jp",
      "prefectureName": "岐阜県",
      "prefectureNameTranslations": null,
      "cityName": null,
      "cityNameTranslations": null,
      "placeType": "quarter"
    },
    {
      "id": "gifu_unknown_愛岐ケ丘",
      "osmId": 2455158613,
      "name": "愛岐ケ丘",
      "nameKana": null,
      "nameTranslations": null,
      "latitude": 35.3955937,
      "longitude": 137.0173273,
      "lines": null,
      "prefectureId": "gifu",
      "cityId": null,
      "countryCode": "jp",
      "prefectureName": "岐阜県",
      "prefectureNameTranslations": null,
      "cityName": null,
      "cityNameTranslations": null,
      "placeType": "quarter"
    },
    {
      "id": "gifu_unknown_虹ケ丘",
      "osmId": 2455158616,
      "name": "虹ケ丘",
      "nameKana": null,
      "nameTranslations": null,
      "latitude": 35.4123316,
      "longitude": 137.0166621,
      "lines": null,
      "prefectureId": "gifu",
      "cityId": null,
      "countryCode": "jp",
      "prefectureName": "岐阜県",
      "prefectureNameTranslations": null,
      "cityName": null,
      "cityNameTranslations": null,
      "placeType": "quarter"
    },
    {
      "id": "gifu_unknown_長坂",
      "osmId": 2455158619,
      "name": "長坂",
      "nameKana": null,
      "nameTranslations": null,
      "latitude": 35.3935472,
      "longitude": 137.0069418,
      "lines": null,
      "prefectureId": "gifu",
      "cityId": null,
      "countryCode": "jp",
      "prefectureName": "岐阜県",
      "prefectureNameTranslations": null,
      "cityName": null,
      "cityNameTranslations": null,
      "placeType": "quarter"
    },
    {
      "id": "gifu_unknown_鳩吹台",
      "osmId": 2455158622,
      "name": "鳩吹台",
      "nameKana": null,
      "nameTranslations": null,
      "latitude": 35.4033247,
      "longitude": 136.9975648,
      "lines": null,
      "prefectureId": "gifu",
      "cityId": null,
      "countryCode": "jp",
      "prefectureName": "岐阜県",
      "prefectureNameTranslations": null,
      "cityName": null,
      "cityNameTranslations": null,
      "placeType": "quarter"
    },
    {
      "id": "gifu_unknown_光陽台",
      "osmId": 2455168949,
      "name": "光陽台",
      "nameKana": null,
      "nameTranslations": null,
      "latitude": 35.3856658,
      "longitude": 137.0134725,
      "lines": null,
      "prefectureId": "gifu",
      "cityId": null,
      "countryCode": "jp",
      "prefectureName": "岐阜県",
      "prefectureNameTranslations": null,
      "cityName": null,
      "cityNameTranslations": null,
      "placeType": "quarter"
    },
    {
      "id": "gifu_unknown_弥生",
      "osmId": 5358979695,
      "name": "弥生町",
      "nameKana": null,
      "nameTranslations": null,
      "latitude": 35.4762734,
      "longitude": 136.9275732,
      "lines": null,
      "prefectureId": "gifu",
      "cityId": null,
      "countryCode": "jp",
      "prefectureName": "岐阜県",
      "prefectureNameTranslations": null,
      "cityName": null,
      "cityNameTranslations": null,
      "placeType": "quarter"
    },
    {
      "id": "gifu_unknown_豊岡",
      "osmId": 5358979696,
      "name": "豊岡町",
      "nameKana": null,
      "nameTranslations": null,
      "latitude": 35.4764307,
      "longitude": 136.9300193,
      "lines": null,
      "prefectureId": "gifu",
      "cityId": null,
      "countryCode": "jp",
      "prefectureName": "岐阜県",
      "prefectureNameTranslations": null,
      "cityName": null,
      "cityNameTranslations": null,
      "placeType": "quarter"
    },
    {
      "id": "gifu_unknown_春里",
      "osmId": 5358979697,
      "name": "春里町",
      "nameKana": null,
      "nameTranslations": null,
      "latitude": 35.4774966,
      "longitude": 136.927262,
      "lines": null,
      "prefectureId": "gifu",
      "cityId": null,
      "countryCode": "jp",
      "prefectureName": "岐阜県",
      "prefectureNameTranslations": null,
      "cityName": null,
      "cityNameTranslations": null,
      "placeType": "quarter"
    },
    {
      "id": "gifu_unknown_寿",
      "osmId": 5358979698,
      "name": "寿町",
      "nameKana": null,
      "nameTranslations": null,
      "latitude": 35.4772732,
      "longitude": 136.924026,
      "lines": null,
      "prefectureId": "gifu",
      "cityId": null,
      "countryCode": "jp",
      "prefectureName": "岐阜県",
      "prefectureNameTranslations": null,
      "cityName": null,
      "cityNameTranslations": null,
      "placeType": "quarter"
    },
    {
      "id": "gifu_unknown_神明",
      "osmId": 5358979699,
      "name": "神明町",
      "nameKana": null,
      "nameTranslations": null,
      "latitude": 35.4748514,
      "longitude": 136.9234873,
      "lines": null,
      "prefectureId": "gifu",
      "cityId": null,
      "countryCode": "jp",
      "prefectureName": "岐阜県",
      "prefectureNameTranslations": null,
      "cityName": null,
      "cityNameTranslations": null,
      "placeType": "quarter"
    },
    {
      "id": "gifu_unknown_明生",
      "osmId": 5358979700,
      "name": "明生町",
      "nameKana": null,
      "nameTranslations": null,
      "latitude": 35.4734737,
      "longitude": 136.9259226,
      "lines": null,
      "prefectureId": "gifu",
      "cityId": null,
      "countryCode": "jp",
      "prefectureName": "岐阜県",
      "prefectureNameTranslations": null,
      "cityName": null,
      "cityNameTranslations": null,
      "placeType": "quarter"
    },
    {
      "id": "gifu_unknown_桜ヶ丘",
      "osmId": 5358979701,
      "name": "桜ヶ丘",
      "nameKana": null,
      "nameTranslations": null,
      "latitude": 35.4740791,
      "longitude": 136.9298296,
      "lines": null,
      "prefectureId": "gifu",
      "cityId": null,
      "countryCode": "jp",
      "prefectureName": "岐阜県",
      "prefectureNameTranslations": null,
      "cityName": null,
      "cityNameTranslations": null,
      "placeType": "quarter"
    },
    {
      "id": "gifu_unknown_鋳物師屋",
      "osmId": 5358979702,
      "name": "鋳物師屋",
      "nameKana": null,
      "nameTranslations": null,
      "latitude": 35.471892,
      "longitude": 136.9344194,
      "lines": null,
      "prefectureId": "gifu",
      "cityId": null,
      "countryCode": "jp",
      "prefectureName": "岐阜県",
      "prefectureNameTranslations": null,
      "cityName": null,
      "cityNameTranslations": null,
      "placeType": "quarter"
    },
    {
      "id": "gifu_unknown_稲河",
      "osmId": 5358979703,
      "name": "稲河町",
      "nameKana": null,
      "nameTranslations": null,
      "latitude": 35.4707374,
      "longitude": 136.9313098,
      "lines": null,
      "prefectureId": "gifu",
      "cityId": null,
      "countryCode": "jp",
      "prefectureName": "岐阜県",
      "prefectureNameTranslations": null,
      "cityName": null,
      "cityNameTranslations": null,
      "placeType": "quarter"
    },
    {
      "id": "gifu_unknown_稲口",
      "osmId": 5358979705,
      "name": "稲口",
      "nameKana": null,
      "nameTranslations": null,
      "latitude": 35.4716811,
      "longitude": 136.916386,
      "lines": null,
      "prefectureId": "gifu",
      "cityId": null,
      "countryCode": "jp",
      "prefectureName": "岐阜県",
      "prefectureNameTranslations": null,
      "cityName": null,
      "cityNameTranslations": null,
      "placeType": "quarter"
    },
    {
      "id": "gifu_unknown_前山",
      "osmId": 5358979706,
      "name": "前山町",
      "nameKana": null,
      "nameTranslations": null,
      "latitude": 35.4723277,
      "longitude": 136.9116009,
      "lines": null,
      "prefectureId": "gifu",
      "cityId": null,
      "countryCode": "jp",
      "prefectureName": "岐阜県",
      "prefectureNameTranslations": null,
      "cityName": null,
      "cityNameTranslations": null,
      "placeType": "quarter"
    },
    {
      "id": "gifu_unknown_大門",
      "osmId": 5358979710,
      "name": "大門町",
      "nameKana": null,
      "nameTranslations": null,
      "latitude": 35.481397,
      "longitude": 136.9224283,
      "lines": null,
      "prefectureId": "gifu",
      "cityId": null,
      "countryCode": "jp",
      "prefectureName": "岐阜県",
      "prefectureNameTranslations": null,
      "cityName": null,
      "cityNameTranslations": null,
      "placeType": "quarter"
    },
    {
      "id": "gifu_unknown_宮地",
      "osmId": 5358979711,
      "name": "宮地町",
      "nameKana": null,
      "nameTranslations": null,
      "latitude": 35.4810646,
      "longitude": 136.9256371,
      "lines": null,
      "prefectureId": "gifu",
      "cityId": null,
      "countryCode": "jp",
      "prefectureName": "岐阜県",
      "prefectureNameTranslations": null,
      "cityName": null,
      "cityNameTranslations": null,
      "placeType": "quarter"
    },
    {
      "id": "gifu_unknown_関口",
      "osmId": 5358979712,
      "name": "関口町",
      "nameKana": null,
      "nameTranslations": null,
      "latitude": 35.4806749,
      "longitude": 136.9291011,
      "lines": null,
      "prefectureId": "gifu",
      "cityId": null,
      "countryCode": "jp",
      "prefectureName": "岐阜県",
      "prefectureNameTranslations": null,
      "cityName": null,
      "cityNameTranslations": null,
      "placeType": "quarter"
    },
    {
      "id": "gifu_unknown_旭ヶ丘",
      "osmId": 5358979713,
      "name": "旭ヶ丘",
      "nameKana": null,
      "nameTranslations": null,
      "latitude": 35.4831892,
      "longitude": 136.9279018,
      "lines": null,
      "prefectureId": "gifu",
      "cityId": null,
      "countryCode": "jp",
      "prefectureName": "岐阜県",
      "prefectureNameTranslations": null,
      "cityName": null,
      "cityNameTranslations": null,
      "placeType": "quarter"
    },
    {
      "id": "gifu_unknown_太平",
      "osmId": 5358979714,
      "name": "太平町",
      "nameKana": null,
      "nameTranslations": null,
      "latitude": 35.4852047,
      "longitude": 136.9254904,
      "lines": null,
      "prefectureId": "gifu",
      "cityId": null,
      "countryCode": "jp",
      "prefectureName": "岐阜県",
      "prefectureNameTranslations": null,
      "cityName": null,
      "cityNameTranslations": null,
      "placeType": "quarter"
    },
    {
      "id": "gifu_unknown_仲",
      "osmId": 5358979715,
      "name": "仲町",
      "nameKana": null,
      "nameTranslations": null,
      "latitude": 35.4859267,
      "longitude": 136.9286291,
      "lines": null,
      "prefectureId": "gifu",
      "cityId": null,
      "countryCode": "jp",
      "prefectureName": "岐阜県",
      "prefectureNameTranslations": null,
      "cityName": null,
      "cityNameTranslations": null,
      "placeType": "quarter"
    },
    {
      "id": "gifu_unknown_本郷",
      "osmId": 5358979716,
      "name": "本郷町",
      "nameKana": null,
      "nameTranslations": null,
      "latitude": 35.4871215,
      "longitude": 136.9271873,
      "lines": null,
      "prefectureId": "gifu",
      "cityId": null,
      "countryCode": "jp",
      "prefectureName": "岐阜県",
      "prefectureNameTranslations": null,
      "cityName": null,
      "cityNameTranslations": null,
      "placeType": "quarter"
    },
    {
      "id": "gifu_unknown_吉野",
      "osmId": 5358979717,
      "name": "吉野町",
      "nameKana": null,
      "nameTranslations": null,
      "latitude": 35.4866488,
      "longitude": 136.9321952,
      "lines": null,
      "prefectureId": "gifu",
      "cityId": null,
      "countryCode": "jp",
      "prefectureName": "岐阜県",
      "prefectureNameTranslations": null,
      "cityName": null,
      "cityNameTranslations": null,
      "placeType": "quarter"
    },
    {
      "id": "gifu_unknown_平賀",
      "osmId": 5358979718,
      "name": "平賀町",
      "nameKana": null,
      "nameTranslations": null,
      "latitude": 35.4841398,
      "longitude": 136.9323993,
      "lines": null,
      "prefectureId": "gifu",
      "cityId": null,
      "countryCode": "jp",
      "prefectureName": "岐阜県",
      "prefectureNameTranslations": null,
      "cityName": null,
      "cityNameTranslations": null,
      "placeType": "quarter"
    },
    {
      "id": "gifu_unknown_東新",
      "osmId": 5358979720,
      "name": "東新町",
      "nameKana": null,
      "nameTranslations": null,
      "latitude": 35.4802957,
      "longitude": 136.9401439,
      "lines": null,
      "prefectureId": "gifu",
      "cityId": null,
      "countryCode": "jp",
      "prefectureName": "岐阜県",
      "prefectureNameTranslations": null,
      "cityName": null,
      "cityNameTranslations": null,
      "placeType": "quarter"
    },
    {
      "id": "gifu_unknown_肥田瀬",
      "osmId": 5358980322,
      "name": "肥田瀬",
      "nameKana": null,
      "nameTranslations": null,
      "latitude": 35.4771995,
      "longitude": 136.9474802,
      "lines": null,
      "prefectureId": "gifu",
      "cityId": null,
      "countryCode": "jp",
      "prefectureName": "岐阜県",
      "prefectureNameTranslations": null,
      "cityName": null,
      "cityNameTranslations": null,
      "placeType": "quarter"
    },
    {
      "id": "gifu_unknown_北天神",
      "osmId": 5358980323,
      "name": "北天神",
      "nameKana": null,
      "nameTranslations": null,
      "latitude": 35.4787337,
      "longitude": 136.934944,
      "lines": null,
      "prefectureId": "gifu",
      "cityId": null,
      "countryCode": "jp",
      "prefectureName": "岐阜県",
      "prefectureNameTranslations": null,
      "cityName": null,
      "cityNameTranslations": null,
      "placeType": "quarter"
    },
    {
      "id": "gifu_unknown_南天神",
      "osmId": 5358980324,
      "name": "南天神",
      "nameKana": null,
      "nameTranslations": null,
      "latitude": 35.4779492,
      "longitude": 136.9343068,
      "lines": null,
      "prefectureId": "gifu",
      "cityId": null,
      "countryCode": "jp",
      "prefectureName": "岐阜県",
      "prefectureNameTranslations": null,
      "cityName": null,
      "cityNameTranslations": null,
      "placeType": "quarter"
    },
    {
      "id": "gifu_unknown_天徳",
      "osmId": 5358980325,
      "name": "天徳町",
      "nameKana": null,
      "nameTranslations": null,
      "latitude": 35.4767454,
      "longitude": 136.9324603,
      "lines": null,
      "prefectureId": "gifu",
      "cityId": null,
      "countryCode": "jp",
      "prefectureName": "岐阜県",
      "prefectureNameTranslations": null,
      "cityName": null,
      "cityNameTranslations": null,
      "placeType": "quarter"
    },
    {
      "id": "gifu_unknown_東山",
      "osmId": 5358980326,
      "name": "東山",
      "nameKana": null,
      "nameTranslations": null,
      "latitude": 35.4883593,
      "longitude": 136.9440024,
      "lines": null,
      "prefectureId": "gifu",
      "cityId": null,
      "countryCode": "jp",
      "prefectureName": "岐阜県",
      "prefectureNameTranslations": null,
      "cityName": null,
      "cityNameTranslations": null,
      "placeType": "quarter"
    },
    {
      "id": "gifu_unknown_ohiraga",
      "osmId": 5358980330,
      "name": "大平賀",
      "nameKana": "おおひらが",
      "nameTranslations": {
        "en": "Ohiraga"
      },
      "latitude": 35.4978949,
      "longitude": 136.9602249,
      "lines": null,
      "prefectureId": "gifu",
      "cityId": null,
      "countryCode": "jp",
      "prefectureName": "岐阜県",
      "prefectureNameTranslations": null,
      "cityName": null,
      "cityNameTranslations": null,
      "placeType": "quarter"
    },
    {
      "id": "gifu_unknown_塔ノ洞",
      "osmId": 5358980345,
      "name": "塔ノ洞",
      "nameKana": null,
      "nameTranslations": null,
      "latitude": 35.4991538,
      "longitude": 136.9418499,
      "lines": null,
      "prefectureId": "gifu",
      "cityId": null,
      "countryCode": "jp",
      "prefectureName": "岐阜県",
      "prefectureNameTranslations": null,
      "cityName": null,
      "cityNameTranslations": null,
      "placeType": "quarter"
    },
    {
      "id": "gifu_unknown_黒屋",
      "osmId": 5358980357,
      "name": "黒屋",
      "nameKana": null,
      "nameTranslations": null,
      "latitude": 35.5018182,
      "longitude": 136.9272367,
      "lines": null,
      "prefectureId": "gifu",
      "cityId": null,
      "countryCode": "jp",
      "prefectureName": "岐阜県",
      "prefectureNameTranslations": null,
      "cityName": null,
      "cityNameTranslations": null,
      "placeType": "quarter"
    },
    {
      "id": "gifu_unknown_寺田",
      "osmId": 5358980359,
      "name": "寺田",
      "nameKana": null,
      "nameTranslations": null,
      "latitude": 35.5083969,
      "longitude": 136.9170091,
      "lines": null,
      "prefectureId": "gifu",
      "cityId": null,
      "countryCode": "jp",
      "prefectureName": "岐阜県",
      "prefectureNameTranslations": null,
      "cityName": null,
      "cityNameTranslations": null,
      "placeType": "quarter"
    },
    {
      "id": "gifu_unknown_希望ケ丘",
      "osmId": 5358980360,
      "name": "希望ケ丘町",
      "nameKana": null,
      "nameTranslations": null,
      "latitude": 35.4696208,
      "longitude": 136.8845322,
      "lines": null,
      "prefectureId": "gifu",
      "cityId": null,
      "countryCode": "jp",
      "prefectureName": "岐阜県",
      "prefectureNameTranslations": null,
      "cityName": null,
      "cityNameTranslations": null,
      "placeType": "quarter"
    },
    {
      "id": "gifu_unknown_四季ノ台",
      "osmId": 5358980361,
      "name": "四季ノ台",
      "nameKana": null,
      "nameTranslations": null,
      "latitude": 35.4611737,
      "longitude": 136.8932065,
      "lines": null,
      "prefectureId": "gifu",
      "cityId": null,
      "countryCode": "jp",
      "prefectureName": "岐阜県",
      "prefectureNameTranslations": null,
      "cityName": null,
      "cityNameTranslations": null,
      "placeType": "quarter"
    },
    {
      "id": "gifu_unknown_桐谷台",
      "osmId": 5358980362,
      "name": "桐谷台",
      "nameKana": null,
      "nameTranslations": null,
      "latitude": 35.458084,
      "longitude": 136.8926375,
      "lines": null,
      "prefectureId": "gifu",
      "cityId": null,
      "countryCode": "jp",
      "prefectureName": "岐阜県",
      "prefectureNameTranslations": null,
      "cityName": null,
      "cityNameTranslations": null,
      "placeType": "quarter"
    },
    {
      "id": "gifu_unknown_桐ヶ丘",
      "osmId": 5358980363,
      "name": "桐ヶ丘",
      "nameKana": null,
      "nameTranslations": null,
      "latitude": 35.4596825,
      "longitude": 136.895946,
      "lines": null,
      "prefectureId": "gifu",
      "cityId": null,
      "countryCode": "jp",
      "prefectureName": "岐阜県",
      "prefectureNameTranslations": null,
      "cityName": null,
      "cityNameTranslations": null,
      "placeType": "quarter"
    },
    {
      "id": "gifu_unknown_向山",
      "osmId": 5358980364,
      "name": "向山町",
      "nameKana": null,
      "nameTranslations": null,
      "latitude": 35.4544575,
      "longitude": 136.9037679,
      "lines": null,
      "prefectureId": "gifu",
      "cityId": null,
      "countryCode": "jp",
      "prefectureName": "岐阜県",
      "prefectureNameTranslations": null,
      "cityName": null,
      "cityNameTranslations": null,
      "placeType": "quarter"
    },
    {
      "id": "gifu_unknown_迫間台",
      "osmId": 5358980365,
      "name": "迫間台",
      "nameKana": null,
      "nameTranslations": null,
      "latitude": 35.4502831,
      "longitude": 136.9245217,
      "lines": null,
      "prefectureId": "gifu",
      "cityId": null,
      "countryCode": "jp",
      "prefectureName": "岐阜県",
      "prefectureNameTranslations": null,
      "cityName": null,
      "cityNameTranslations": null,
      "placeType": "quarter"
    },
    {
      "id": "gifu_unknown_大杉",
      "osmId": 5358980370,
      "name": "大杉",
      "nameKana": null,
      "nameTranslations": null,
      "latitude": 35.4557734,
      "longitude": 136.9533827,
      "lines": null,
      "prefectureId": "gifu",
      "cityId": null,
      "countryCode": "jp",
      "prefectureName": "岐阜県",
      "prefectureNameTranslations": null,
      "cityName": null,
      "cityNameTranslations": null,
      "placeType": "quarter"
    },
    {
      "id": "gifu_unknown_西田原",
      "osmId": 5358980373,
      "name": "西田原",
      "nameKana": null,
      "nameTranslations": null,
      "latitude": 35.4571329,
      "longitude": 136.9432927,
      "lines": null,
      "prefectureId": "gifu",
      "cityId": null,
      "countryCode": "jp",
      "prefectureName": "岐阜県",
      "prefectureNameTranslations": null,
      "cityName": null,
      "cityNameTranslations": null,
      "placeType": "quarter"
    },
    {
      "id": "gifu_unknown_東田原",
      "osmId": 5358980374,
      "name": "東田原",
      "nameKana": null,
      "nameTranslations": null,
      "latitude": 35.4630403,
      "longitude": 136.9555221,
      "lines": null,
      "prefectureId": "gifu",
      "cityId": null,
      "countryCode": "jp",
      "prefectureName": "岐阜県",
      "prefectureNameTranslations": null,
      "cityName": null,
      "cityNameTranslations": null,
      "placeType": "quarter"
    },
    {
      "id": "gifu_unknown_向陽台",
      "osmId": 5358980376,
      "name": "向陽台",
      "nameKana": null,
      "nameTranslations": null,
      "latitude": 35.4614232,
      "longitude": 136.9395354,
      "lines": null,
      "prefectureId": "gifu",
      "cityId": null,
      "countryCode": "jp",
      "prefectureName": "岐阜県",
      "prefectureNameTranslations": null,
      "cityName": null,
      "cityNameTranslations": null,
      "placeType": "quarter"
    },
    {
      "id": "gifu_unknown_桜台",
      "osmId": 5358980378,
      "name": "桜台",
      "nameKana": null,
      "nameTranslations": null,
      "latitude": 35.4665908,
      "longitude": 136.9283912,
      "lines": null,
      "prefectureId": "gifu",
      "cityId": null,
      "countryCode": "jp",
      "prefectureName": "岐阜県",
      "prefectureNameTranslations": null,
      "cityName": null,
      "cityNameTranslations": null,
      "placeType": "quarter"
    },
    {
      "id": "gifu_unknown_津保川台",
      "osmId": 5358980379,
      "name": "津保川台",
      "nameKana": null,
      "nameTranslations": null,
      "latitude": 35.4728962,
      "longitude": 136.8671611,
      "lines": null,
      "prefectureId": "gifu",
      "cityId": null,
      "countryCode": "jp",
      "prefectureName": "岐阜県",
      "prefectureNameTranslations": null,
      "cityName": null,
      "cityNameTranslations": null,
      "placeType": "quarter"
    },
    {
      "id": "gifu_unknown_虹ケ丘南",
      "osmId": 5358980380,
      "name": "虹ケ丘南",
      "nameKana": null,
      "nameTranslations": null,
      "latitude": 35.4670018,
      "longitude": 136.8680411,
      "lines": null,
      "prefectureId": "gifu",
      "cityId": null,
      "countryCode": "jp",
      "prefectureName": "岐阜県",
      "prefectureNameTranslations": null,
      "cityName": null,
      "cityNameTranslations": null,
      "placeType": "quarter"
    },
    {
      "id": "gifu_unknown_虹ケ丘北",
      "osmId": 5358980381,
      "name": "虹ケ丘北",
      "nameKana": null,
      "nameTranslations": null,
      "latitude": 35.4702642,
      "longitude": 136.8666149,
      "lines": null,
      "prefectureId": "gifu",
      "cityId": null,
      "countryCode": "jp",
      "prefectureName": "岐阜県",
      "prefectureNameTranslations": null,
      "cityName": null,
      "cityNameTranslations": null,
      "placeType": "quarter"
    },
    {
      "id": "gifu_unknown_上白金",
      "osmId": 5358980383,
      "name": "上白金",
      "nameKana": null,
      "nameTranslations": null,
      "latitude": 35.4787101,
      "longitude": 136.8592936,
      "lines": null,
      "prefectureId": "gifu",
      "cityId": null,
      "countryCode": "jp",
      "prefectureName": "岐阜県",
      "prefectureNameTranslations": null,
      "cityName": null,
      "cityNameTranslations": null,
      "placeType": "quarter"
    },
    {
      "id": "gifu_unknown_下白金",
      "osmId": 5358980384,
      "name": "下白金",
      "nameKana": null,
      "nameTranslations": null,
      "latitude": 35.4729087,
      "longitude": 136.8516976,
      "lines": null,
      "prefectureId": "gifu",
      "cityId": null,
      "countryCode": "jp",
      "prefectureName": "岐阜県",
      "prefectureNameTranslations": null,
      "cityName": null,
      "cityNameTranslations": null,
      "placeType": "quarter"
    },
    {
      "id": "gifu_unknown_小屋名",
      "osmId": 5358980385,
      "name": "小屋名",
      "nameKana": null,
      "nameTranslations": null,
      "latitude": 35.4874465,
      "longitude": 136.8731338,
      "lines": null,
      "prefectureId": "gifu",
      "cityId": null,
      "countryCode": "jp",
      "prefectureName": "岐阜県",
      "prefectureNameTranslations": null,
      "cityName": null,
      "cityNameTranslations": null,
      "placeType": "quarter"
    },
    {
      "id": "gifu_unknown_星ケ丘",
      "osmId": 5358980386,
      "name": "星ケ丘",
      "nameKana": null,
      "nameTranslations": null,
      "latitude": 35.4902419,
      "longitude": 136.8791634,
      "lines": null,
      "prefectureId": "gifu",
      "cityId": null,
      "countryCode": "jp",
      "prefectureName": "岐阜県",
      "prefectureNameTranslations": null,
      "cityName": null,
      "cityNameTranslations": null,
      "placeType": "quarter"
    },
    {
      "id": "gifu_unknown_巾",
      "osmId": 5358980387,
      "name": "巾",
      "nameKana": null,
      "nameTranslations": null,
      "latitude": 35.4845287,
      "longitude": 136.8892485,
      "lines": null,
      "prefectureId": "gifu",
      "cityId": null,
      "countryCode": "jp",
      "prefectureName": "岐阜県",
      "prefectureNameTranslations": null,
      "cityName": null,
      "cityNameTranslations": null,
      "placeType": "quarter"
    },
    {
      "id": "gifu_unknown_段下",
      "osmId": 5358980392,
      "name": "段下",
      "nameKana": null,
      "nameTranslations": null,
      "latitude": 35.4838593,
      "longitude": 136.895481,
      "lines": null,
      "prefectureId": "gifu",
      "cityId": null,
      "countryCode": "jp",
      "prefectureName": "岐阜県",
      "prefectureNameTranslations": null,
      "cityName": null,
      "cityNameTranslations": null,
      "placeType": "quarter"
    },
    {
      "id": "gifu_unknown_新田",
      "osmId": 5358980393,
      "name": "新田",
      "nameKana": null,
      "nameTranslations": null,
      "latitude": 35.4863056,
      "longitude": 136.8918699,
      "lines": null,
      "prefectureId": "gifu",
      "cityId": null,
      "countryCode": "jp",
      "prefectureName": "岐阜県",
      "prefectureNameTranslations": null,
      "cityName": null,
      "cityNameTranslations": null,
      "placeType": "quarter"
    },
    {
      "id": "gifu_unknown_雄飛ケ丘",
      "osmId": 5358980394,
      "name": "雄飛ケ丘",
      "nameKana": null,
      "nameTranslations": null,
      "latitude": 35.4842345,
      "longitude": 136.9019228,
      "lines": null,
      "prefectureId": "gifu",
      "cityId": null,
      "countryCode": "jp",
      "prefectureName": "岐阜県",
      "prefectureNameTranslations": null,
      "cityName": null,
      "cityNameTranslations": null,
      "placeType": "quarter"
    },
    {
      "id": "gifu_unknown_栄",
      "osmId": 5358980395,
      "name": "栄町",
      "nameKana": null,
      "nameTranslations": null,
      "latitude": 35.4864521,
      "longitude": 136.905663,
      "lines": null,
      "prefectureId": "gifu",
      "cityId": null,
      "countryCode": "jp",
      "prefectureName": "岐阜県",
      "prefectureNameTranslations": null,
      "cityName": null,
      "cityNameTranslations": null,
      "placeType": "quarter"
    },
    {
      "id": "gifu_unknown_柳",
      "osmId": 5358980396,
      "name": "柳町",
      "nameKana": null,
      "nameTranslations": null,
      "latitude": 35.4834067,
      "longitude": 136.910321,
      "lines": null,
      "prefectureId": "gifu",
      "cityId": null,
      "countryCode": "jp",
      "prefectureName": "岐阜県",
      "prefectureNameTranslations": null,
      "cityName": null,
      "cityNameTranslations": null,
      "placeType": "quarter"
    },
    {
      "id": "gifu_unknown_日ノ出",
      "osmId": 5358980397,
      "name": "日ノ出町",
      "nameKana": null,
      "nameTranslations": null,
      "latitude": 35.4843518,
      "longitude": 136.9130673,
      "lines": null,
      "prefectureId": "gifu",
      "cityId": null,
      "countryCode": "jp",
      "prefectureName": "岐阜県",
      "prefectureNameTranslations": null,
      "cityName": null,
      "cityNameTranslations": null,
      "placeType": "quarter"
    },
    {
      "id": "gifu_unknown_片倉",
      "osmId": 5358980398,
      "name": "片倉町",
      "nameKana": null,
      "nameTranslations": null,
      "latitude": 35.481415,
      "longitude": 136.9108968,
      "lines": null,
      "prefectureId": "gifu",
      "cityId": null,
      "countryCode": "jp",
      "prefectureName": "岐阜県",
      "prefectureNameTranslations": null,
      "cityName": null,
      "cityNameTranslations": null,
      "placeType": "quarter"
    },
    {
      "id": "gifu_unknown_一本木",
      "osmId": 5358980399,
      "name": "一本木町",
      "nameKana": null,
      "nameTranslations": null,
      "latitude": 35.4807685,
      "longitude": 136.9135492,
      "lines": null,
      "prefectureId": "gifu",
      "cityId": null,
      "countryCode": "jp",
      "prefectureName": "岐阜県",
      "prefectureNameTranslations": null,
      "cityName": null,
      "cityNameTranslations": null,
      "placeType": "quarter"
    },
    {
      "id": "gifu_unknown_宝山",
      "osmId": 5358980400,
      "name": "宝山町",
      "nameKana": null,
      "nameTranslations": null,
      "latitude": 35.4800485,
      "longitude": 136.91142,
      "lines": null,
      "prefectureId": "gifu",
      "cityId": null,
      "countryCode": "jp",
      "prefectureName": "岐阜県",
      "prefectureNameTranslations": null,
      "cityName": null,
      "cityNameTranslations": null,
      "placeType": "quarter"
    },
    {
      "id": "gifu_unknown_清水",
      "osmId": 5358980401,
      "name": "清水町",
      "nameKana": null,
      "nameTranslations": null,
      "latitude": 35.4780796,
      "longitude": 136.9179519,
      "lines": null,
      "prefectureId": "gifu",
      "cityId": null,
      "countryCode": "jp",
      "prefectureName": "岐阜県",
      "prefectureNameTranslations": null,
      "cityName": null,
      "cityNameTranslations": null,
      "placeType": "quarter"
    },
    {
      "id": "gifu_unknown_西欠ノ下",
      "osmId": 5358980402,
      "name": "西欠ノ下",
      "nameKana": null,
      "nameTranslations": null,
      "latitude": 35.4777417,
      "longitude": 136.9193142,
      "lines": null,
      "prefectureId": "gifu",
      "cityId": null,
      "countryCode": "jp",
      "prefectureName": "岐阜県",
      "prefectureNameTranslations": null,
      "cityName": null,
      "cityNameTranslations": null,
      "placeType": "quarter"
    },
    {
      "id": "gifu_unknown_南",
      "osmId": 5358980403,
      "name": "南町",
      "nameKana": null,
      "nameTranslations": null,
      "latitude": 35.4780796,
      "longitude": 136.9212268,
      "lines": null,
      "prefectureId": "gifu",
      "cityId": null,
      "countryCode": "jp",
      "prefectureName": "岐阜県",
      "prefectureNameTranslations": null,
      "cityName": null,
      "cityNameTranslations": null,
      "placeType": "quarter"
    },
    {
      "id": "gifu_unknown_新堀",
      "osmId": 5358980404,
      "name": "新堀町",
      "nameKana": null,
      "nameTranslations": null,
      "latitude": 35.4790347,
      "longitude": 136.9233198,
      "lines": null,
      "prefectureId": "gifu",
      "cityId": null,
      "countryCode": "jp",
      "prefectureName": "岐阜県",
      "prefectureNameTranslations": null,
      "cityName": null,
      "cityNameTranslations": null,
      "placeType": "quarter"
    },
    {
      "id": "gifu_unknown_豊川",
      "osmId": 5358980405,
      "name": "豊川町",
      "nameKana": null,
      "nameTranslations": null,
      "latitude": 35.4802213,
      "longitude": 136.9205182,
      "lines": null,
      "prefectureId": "gifu",
      "cityId": null,
      "countryCode": "jp",
      "prefectureName": "岐阜県",
      "prefectureNameTranslations": null,
      "cityName": null,
      "cityNameTranslations": null,
      "placeType": "quarter"
    },
    {
      "id": "gifu_unknown_朝倉",
      "osmId": 5358980406,
      "name": "朝倉町",
      "nameKana": null,
      "nameTranslations": null,
      "latitude": 35.4808947,
      "longitude": 136.9200857,
      "lines": null,
      "prefectureId": "gifu",
      "cityId": null,
      "countryCode": "jp",
      "prefectureName": "岐阜県",
      "prefectureNameTranslations": null,
      "cityName": null,
      "cityNameTranslations": null,
      "placeType": "quarter"
    },
    {
      "id": "gifu_unknown_月見",
      "osmId": 5358980407,
      "name": "月見町",
      "nameKana": null,
      "nameTranslations": null,
      "latitude": 35.4814878,
      "longitude": 136.9195092,
      "lines": null,
      "prefectureId": "gifu",
      "cityId": null,
      "countryCode": "jp",
      "prefectureName": "岐阜県",
      "prefectureNameTranslations": null,
      "cityName": null,
      "cityNameTranslations": null,
      "placeType": "quarter"
    },
    {
      "id": "gifu_unknown_上利",
      "osmId": 5358980408,
      "name": "上利町",
      "nameKana": null,
      "nameTranslations": null,
      "latitude": 35.4812221,
      "longitude": 136.9209809,
      "lines": null,
      "prefectureId": "gifu",
      "cityId": null,
      "countryCode": "jp",
      "prefectureName": "岐阜県",
      "prefectureNameTranslations": null,
      "cityName": null,
      "cityNameTranslations": null,
      "placeType": "quarter"
    },
    {
      "id": "gifu_unknown_桜木",
      "osmId": 5358980409,
      "name": "桜木町",
      "nameKana": null,
      "nameTranslations": null,
      "latitude": 35.4810986,
      "longitude": 136.9170132,
      "lines": null,
      "prefectureId": "gifu",
      "cityId": null,
      "countryCode": "jp",
      "prefectureName": "岐阜県",
      "prefectureNameTranslations": null,
      "cityName": null,
      "cityNameTranslations": null,
      "placeType": "quarter"
    },
    {
      "id": "gifu_unknown_南春日",
      "osmId": 5358980410,
      "name": "南春日町",
      "nameKana": null,
      "nameTranslations": null,
      "latitude": 35.481982,
      "longitude": 136.9170815,
      "lines": null,
      "prefectureId": "gifu",
      "cityId": null,
      "countryCode": "jp",
      "prefectureName": "岐阜県",
      "prefectureNameTranslations": null,
      "cityName": null,
      "cityNameTranslations": null,
      "placeType": "quarter"
    },
    {
      "id": "gifu_unknown_古屋敷",
      "osmId": 5358980411,
      "name": "古屋敷町",
      "nameKana": null,
      "nameTranslations": null,
      "latitude": 35.4817967,
      "longitude": 136.9144642,
      "lines": null,
      "prefectureId": "gifu",
      "cityId": null,
      "countryCode": "jp",
      "prefectureName": "岐阜県",
      "prefectureNameTranslations": null,
      "cityName": null,
      "cityNameTranslations": null,
      "placeType": "quarter"
    },
    {
      "id": "gifu_unknown_春日",
      "osmId": 5358980412,
      "name": "春日町",
      "nameKana": null,
      "nameTranslations": null,
      "latitude": 35.483619,
      "longitude": 136.9172939,
      "lines": null,
      "prefectureId": "gifu",
      "cityId": null,
      "countryCode": "jp",
      "prefectureName": "岐阜県",
      "prefectureNameTranslations": null,
      "cityName": null,
      "cityNameTranslations": null,
      "placeType": "quarter"
    },
    {
      "id": "gifu_unknown_安桜台",
      "osmId": 5358980413,
      "name": "安桜台",
      "nameKana": null,
      "nameTranslations": null,
      "latitude": 35.4924777,
      "longitude": 136.9129424,
      "lines": null,
      "prefectureId": "gifu",
      "cityId": null,
      "countryCode": "jp",
      "prefectureName": "岐阜県",
      "prefectureNameTranslations": null,
      "cityName": null,
      "cityNameTranslations": null,
      "placeType": "quarter"
    },
    {
      "id": "gifu_unknown_水ノ輪",
      "osmId": 5360688517,
      "name": "水ノ輪町",
      "nameKana": null,
      "nameTranslations": null,
      "latitude": 35.5009006,
      "longitude": 136.9089938,
      "lines": null,
      "prefectureId": "gifu",
      "cityId": null,
      "countryCode": "jp",
      "prefectureName": "岐阜県",
      "prefectureNameTranslations": null,
      "cityName": null,
      "cityNameTranslations": null,
      "placeType": "quarter"
    },
    {
      "id": "gifu_unknown_西仙房",
      "osmId": 5360688519,
      "name": "西仙房",
      "nameKana": null,
      "nameTranslations": null,
      "latitude": 35.4914918,
      "longitude": 136.9049425,
      "lines": null,
      "prefectureId": "gifu",
      "cityId": null,
      "countryCode": "jp",
      "prefectureName": "岐阜県",
      "prefectureNameTranslations": null,
      "cityName": null,
      "cityNameTranslations": null,
      "placeType": "quarter"
    },
    {
      "id": "gifu_unknown_南仙房",
      "osmId": 5360688520,
      "name": "南仙房",
      "nameKana": null,
      "nameTranslations": null,
      "latitude": 35.4904218,
      "longitude": 136.9059759,
      "lines": null,
      "prefectureId": "gifu",
      "cityId": null,
      "countryCode": "jp",
      "prefectureName": "岐阜県",
      "prefectureNameTranslations": null,
      "cityName": null,
      "cityNameTranslations": null,
      "placeType": "quarter"
    },
    {
      "id": "gifu_unknown_東仙房",
      "osmId": 5360692321,
      "name": "東仙房",
      "nameKana": null,
      "nameTranslations": null,
      "latitude": 35.4917412,
      "longitude": 136.9073411,
      "lines": null,
      "prefectureId": "gifu",
      "cityId": null,
      "countryCode": "jp",
      "prefectureName": "岐阜県",
      "prefectureNameTranslations": null,
      "cityName": null,
      "cityNameTranslations": null,
      "placeType": "quarter"
    },
    {
      "id": "gifu_unknown_緑ヶ丘",
      "osmId": 5360692322,
      "name": "緑ヶ丘",
      "nameKana": null,
      "nameTranslations": null,
      "latitude": 35.4900894,
      "longitude": 136.9027862,
      "lines": null,
      "prefectureId": "gifu",
      "cityId": null,
      "countryCode": "jp",
      "prefectureName": "岐阜県",
      "prefectureNameTranslations": null,
      "cityName": null,
      "cityNameTranslations": null,
      "placeType": "quarter"
    },
    {
      "id": "gifu_unknown_北福野",
      "osmId": 5360692323,
      "name": "北福野町",
      "nameKana": null,
      "nameTranslations": null,
      "latitude": 35.4889363,
      "longitude": 136.8996731,
      "lines": null,
      "prefectureId": "gifu",
      "cityId": null,
      "countryCode": "jp",
      "prefectureName": "岐阜県",
      "prefectureNameTranslations": null,
      "cityName": null,
      "cityNameTranslations": null,
      "placeType": "quarter"
    },
    {
      "id": "gifu_unknown_西福野",
      "osmId": 5360692324,
      "name": "西福野町",
      "nameKana": null,
      "nameTranslations": null,
      "latitude": 35.4879494,
      "longitude": 136.9007193,
      "lines": null,
      "prefectureId": "gifu",
      "cityId": null,
      "countryCode": "jp",
      "prefectureName": "岐阜県",
      "prefectureNameTranslations": null,
      "cityName": null,
      "cityNameTranslations": null,
      "placeType": "quarter"
    },
    {
      "id": "gifu_unknown_中福野",
      "osmId": 5360692325,
      "name": "中福野町",
      "nameKana": null,
      "nameTranslations": null,
      "latitude": 35.4881156,
      "longitude": 136.9039856,
      "lines": null,
      "prefectureId": "gifu",
      "cityId": null,
      "countryCode": "jp",
      "prefectureName": "岐阜県",
      "prefectureNameTranslations": null,
      "cityName": null,
      "cityNameTranslations": null,
      "placeType": "quarter"
    },
    {
      "id": "gifu_unknown_緑_quarter",
      "osmId": 5360692326,
      "name": "緑町",
      "nameKana": null,
      "nameTranslations": null,
      "latitude": 35.4880013,
      "longitude": 136.9075835,
      "lines": null,
      "prefectureId": "gifu",
      "cityId": null,
      "countryCode": "jp",
      "prefectureName": "岐阜県",
      "prefectureNameTranslations": null,
      "cityName": null,
      "cityNameTranslations": null,
      "placeType": "quarter"
    },
    {
      "id": "gifu_unknown_辻井戸",
      "osmId": 5360692331,
      "name": "辻井戸町",
      "nameKana": null,
      "nameTranslations": null,
      "latitude": 35.4877312,
      "longitude": 136.9090125,
      "lines": null,
      "prefectureId": "gifu",
      "cityId": null,
      "countryCode": "jp",
      "prefectureName": "岐阜県",
      "prefectureNameTranslations": null,
      "cityName": null,
      "cityNameTranslations": null,
      "placeType": "quarter"
    },
    {
      "id": "gifu_unknown_南貸上",
      "osmId": 5360692332,
      "name": "南貸上",
      "nameKana": null,
      "nameTranslations": null,
      "latitude": 35.4928402,
      "longitude": 136.9101861,
      "lines": null,
      "prefectureId": "gifu",
      "cityId": null,
      "countryCode": "jp",
      "prefectureName": "岐阜県",
      "prefectureNameTranslations": null,
      "cityName": null,
      "cityNameTranslations": null,
      "placeType": "quarter"
    },
    {
      "id": "gifu_unknown_貸上",
      "osmId": 5360692333,
      "name": "貸上町",
      "nameKana": null,
      "nameTranslations": null,
      "latitude": 35.4960281,
      "longitude": 136.9103846,
      "lines": null,
      "prefectureId": "gifu",
      "cityId": null,
      "countryCode": "jp",
      "prefectureName": "岐阜県",
      "prefectureNameTranslations": null,
      "cityName": null,
      "cityNameTranslations": null,
      "placeType": "quarter"
    },
    {
      "id": "gifu_unknown_竪切北",
      "osmId": 5360692334,
      "name": "竪切北",
      "nameKana": null,
      "nameTranslations": null,
      "latitude": 35.4962778,
      "longitude": 136.9076059,
      "lines": null,
      "prefectureId": "gifu",
      "cityId": null,
      "countryCode": "jp",
      "prefectureName": "岐阜県",
      "prefectureNameTranslations": null,
      "cityName": null,
      "cityNameTranslations": null,
      "placeType": "quarter"
    },
    {
      "id": "gifu_unknown_小瀬南",
      "osmId": 5360692339,
      "name": "小瀬南",
      "nameKana": null,
      "nameTranslations": null,
      "latitude": 35.4922453,
      "longitude": 136.892836,
      "lines": null,
      "prefectureId": "gifu",
      "cityId": null,
      "countryCode": "jp",
      "prefectureName": "岐阜県",
      "prefectureNameTranslations": null,
      "cityName": null,
      "cityNameTranslations": null,
      "placeType": "quarter"
    },
    {
      "id": "gifu_unknown_小瀬長池",
      "osmId": 5360692363,
      "name": "小瀬長池町",
      "nameKana": null,
      "nameTranslations": null,
      "latitude": 35.4947112,
      "longitude": 136.8949695,
      "lines": null,
      "prefectureId": "gifu",
      "cityId": null,
      "countryCode": "jp",
      "prefectureName": "岐阜県",
      "prefectureNameTranslations": null,
      "cityName": null,
      "cityNameTranslations": null,
      "placeType": "quarter"
    },
    {
      "id": "gifu_unknown_池田",
      "osmId": 5360692364,
      "name": "池田町",
      "nameKana": null,
      "nameTranslations": null,
      "latitude": 35.4957322,
      "longitude": 136.8986302,
      "lines": null,
      "prefectureId": "gifu",
      "cityId": null,
      "countryCode": "jp",
      "prefectureName": "岐阜県",
      "prefectureNameTranslations": null,
      "cityName": null,
      "cityNameTranslations": null,
      "placeType": "quarter"
    },
    {
      "id": "gifu_unknown_大平台",
      "osmId": 5360692370,
      "name": "大平台",
      "nameKana": null,
      "nameTranslations": null,
      "latitude": 35.4967819,
      "longitude": 136.859781,
      "lines": null,
      "prefectureId": "gifu",
      "cityId": null,
      "countryCode": "jp",
      "prefectureName": "岐阜県",
      "prefectureNameTranslations": null,
      "cityName": null,
      "cityNameTranslations": null,
      "placeType": "quarter"
    },
    {
      "id": "gifu_unknown_千疋北",
      "osmId": 5360692371,
      "name": "千疋北",
      "nameKana": null,
      "nameTranslations": null,
      "latitude": 35.494144,
      "longitude": 136.8570988,
      "lines": null,
      "prefectureId": "gifu",
      "cityId": null,
      "countryCode": "jp",
      "prefectureName": "岐阜県",
      "prefectureNameTranslations": null,
      "cityName": null,
      "cityNameTranslations": null,
      "placeType": "quarter"
    },
    {
      "id": "gifu_unknown_植野",
      "osmId": 5360692378,
      "name": "植野",
      "nameKana": null,
      "nameTranslations": null,
      "latitude": 35.4998219,
      "longitude": 136.8497525,
      "lines": null,
      "prefectureId": "gifu",
      "cityId": null,
      "countryCode": "jp",
      "prefectureName": "岐阜県",
      "prefectureNameTranslations": null,
      "cityName": null,
      "cityNameTranslations": null,
      "placeType": "quarter"
    },
    {
      "id": "gifu_unknown_池尻",
      "osmId": 5360692380,
      "name": "池尻",
      "nameKana": null,
      "nameTranslations": null,
      "latitude": 35.5066314,
      "longitude": 136.8857229,
      "lines": null,
      "prefectureId": "gifu",
      "cityId": null,
      "countryCode": "jp",
      "prefectureName": "岐阜県",
      "prefectureNameTranslations": null,
      "cityName": null,
      "cityNameTranslations": null,
      "placeType": "quarter"
    },
    {
      "id": "gifu_unknown_東志摩",
      "osmId": 5360692381,
      "name": "東志摩",
      "nameKana": null,
      "nameTranslations": null,
      "latitude": 35.513263,
      "longitude": 136.8976459,
      "lines": null,
      "prefectureId": "gifu",
      "cityId": null,
      "countryCode": "jp",
      "prefectureName": "岐阜県",
      "prefectureNameTranslations": null,
      "cityName": null,
      "cityNameTranslations": null,
      "placeType": "quarter"
    },
    {
      "id": "gifu_unknown_shima",
      "osmId": 5360692383,
      "name": "志摩",
      "nameKana": "しま",
      "nameTranslations": {
        "en": "Shima"
      },
      "latitude": 35.5146585,
      "longitude": 136.8940196,
      "lines": null,
      "prefectureId": "gifu",
      "cityId": null,
      "countryCode": "jp",
      "prefectureName": "岐阜県",
      "prefectureNameTranslations": null,
      "cityName": null,
      "cityNameTranslations": null,
      "placeType": "quarter"
    },
    {
      "id": "gifu_unknown_さくらヶ丘",
      "osmId": 5360692384,
      "name": "さくらヶ丘",
      "nameKana": null,
      "nameTranslations": null,
      "latitude": 35.5199134,
      "longitude": 136.8972543,
      "lines": null,
      "prefectureId": "gifu",
      "cityId": null,
      "countryCode": "jp",
      "prefectureName": "岐阜県",
      "prefectureNameTranslations": null,
      "cityName": null,
      "cityNameTranslations": null,
      "placeType": "quarter"
    },
    {
      "id": "gifu_unknown_関ノ上",
      "osmId": 5360692389,
      "name": "関ノ上",
      "nameKana": null,
      "nameTranslations": null,
      "latitude": 35.5240849,
      "longitude": 136.9125745,
      "lines": null,
      "prefectureId": "gifu",
      "cityId": null,
      "countryCode": "jp",
      "prefectureName": "岐阜県",
      "prefectureNameTranslations": null,
      "cityName": null,
      "cityNameTranslations": null,
      "placeType": "quarter"
    },
    {
      "id": "gifu_unknown_matsumori",
      "osmId": 5360692392,
      "name": "松森",
      "nameKana": "まつもり",
      "nameTranslations": {
        "en": "Matsumori"
      },
      "latitude": 35.5280153,
      "longitude": 136.9120608,
      "lines": null,
      "prefectureId": "gifu",
      "cityId": null,
      "countryCode": "jp",
      "prefectureName": "岐阜県",
      "prefectureNameTranslations": null,
      "cityName": null,
      "cityNameTranslations": null,
      "placeType": "quarter"
    },
    {
      "id": "gifu_unknown_tomino",
      "osmId": 5360692394,
      "name": "富野",
      "nameKana": "とみの",
      "nameTranslations": {
        "en": "Tomino"
      },
      "latitude": 35.5400705,
      "longitude": 136.937735,
      "lines": null,
      "prefectureId": "gifu",
      "cityId": null,
      "countryCode": "jp",
      "prefectureName": "岐阜県",
      "prefectureNameTranslations": null,
      "cityName": null,
      "cityNameTranslations": null,
      "placeType": "quarter"
    },
    {
      "id": "gifu_unknown_小野",
      "osmId": 5360692410,
      "name": "小野",
      "nameKana": null,
      "nameTranslations": null,
      "latitude": 35.5330319,
      "longitude": 136.9460731,
      "lines": null,
      "prefectureId": "gifu",
      "cityId": null,
      "countryCode": "jp",
      "prefectureName": "岐阜県",
      "prefectureNameTranslations": null,
      "cityName": null,
      "cityNameTranslations": null,
      "placeType": "quarter"
    },
    {
      "id": "gifu_unknown_鵜沼台",
      "osmId": 5360770829,
      "name": "鵜沼台",
      "nameKana": null,
      "nameTranslations": null,
      "latitude": 35.4050089,
      "longitude": 136.9461713,
      "lines": null,
      "prefectureId": "gifu",
      "cityId": null,
      "countryCode": "jp",
      "prefectureName": "岐阜県",
      "prefectureNameTranslations": null,
      "cityName": null,
      "cityNameTranslations": null,
      "placeType": "quarter"
    },
    {
      "id": "gifu_unknown_緑苑南",
      "osmId": 5360770830,
      "name": "緑苑南",
      "nameKana": null,
      "nameTranslations": null,
      "latitude": 35.4087942,
      "longitude": 136.9423437,
      "lines": null,
      "prefectureId": "gifu",
      "cityId": null,
      "countryCode": "jp",
      "prefectureName": "岐阜県",
      "prefectureNameTranslations": null,
      "cityName": null,
      "cityNameTranslations": null,
      "placeType": "quarter"
    },
    {
      "id": "gifu_unknown_緑苑中",
      "osmId": 5360770869,
      "name": "緑苑中",
      "nameKana": null,
      "nameTranslations": null,
      "latitude": 35.4132891,
      "longitude": 136.945664,
      "lines": null,
      "prefectureId": "gifu",
      "cityId": null,
      "countryCode": "jp",
      "prefectureName": "岐阜県",
      "prefectureNameTranslations": null,
      "cityName": null,
      "cityNameTranslations": null,
      "placeType": "quarter"
    },
    {
      "id": "gifu_unknown_緑苑東",
      "osmId": 5360770870,
      "name": "緑苑東",
      "nameKana": null,
      "nameTranslations": null,
      "latitude": 35.4147111,
      "longitude": 136.9510049,
      "lines": null,
      "prefectureId": "gifu",
      "cityId": null,
      "countryCode": "jp",
      "prefectureName": "岐阜県",
      "prefectureNameTranslations": null,
      "cityName": null,
      "cityNameTranslations": null,
      "placeType": "quarter"
    },
    {
      "id": "gifu_unknown_緑苑西",
      "osmId": 5360770871,
      "name": "緑苑西",
      "nameKana": null,
      "nameTranslations": null,
      "latitude": 35.4145133,
      "longitude": 136.9446323,
      "lines": null,
      "prefectureId": "gifu",
      "cityId": null,
      "countryCode": "jp",
      "prefectureName": "岐阜県",
      "prefectureNameTranslations": null,
      "cityName": null,
      "cityNameTranslations": null,
      "placeType": "quarter"
    },
    {
      "id": "gifu_unknown_緑苑北",
      "osmId": 5360770872,
      "name": "緑苑北",
      "nameKana": null,
      "nameTranslations": null,
      "latitude": 35.4172213,
      "longitude": 136.9493814,
      "lines": null,
      "prefectureId": "gifu",
      "cityId": null,
      "countryCode": "jp",
      "prefectureName": "岐阜県",
      "prefectureNameTranslations": null,
      "cityName": null,
      "cityNameTranslations": null,
      "placeType": "quarter"
    },
    {
      "id": "gifu_unknown_つつじが丘",
      "osmId": 5360770888,
      "name": "つつじが丘",
      "nameKana": null,
      "nameTranslations": null,
      "latitude": 35.4110381,
      "longitude": 136.93241,
      "lines": null,
      "prefectureId": "gifu",
      "cityId": null,
      "countryCode": "jp",
      "prefectureName": "岐阜県",
      "prefectureNameTranslations": null,
      "cityName": null,
      "cityNameTranslations": null,
      "placeType": "quarter"
    },
    {
      "id": "gifu_unknown_松が丘",
      "osmId": 5360770889,
      "name": "松が丘",
      "nameKana": null,
      "nameTranslations": null,
      "latitude": 35.4099622,
      "longitude": 136.9248236,
      "lines": null,
      "prefectureId": "gifu",
      "cityId": null,
      "countryCode": "jp",
      "prefectureName": "岐阜県",
      "prefectureNameTranslations": null,
      "cityName": null,
      "cityNameTranslations": null,
      "placeType": "quarter"
    },
    {
      "id": "gifu_unknown_鵜沼南",
      "osmId": 5360771426,
      "name": "鵜沼南町",
      "nameKana": null,
      "nameTranslations": null,
      "latitude": 35.3949897,
      "longitude": 136.9424647,
      "lines": null,
      "prefectureId": "gifu",
      "cityId": null,
      "countryCode": "jp",
      "prefectureName": "岐阜県",
      "prefectureNameTranslations": null,
      "cityName": null,
      "cityNameTranslations": null,
      "placeType": "quarter"
    },
    {
      "id": "gifu_unknown_鵜沼東",
      "osmId": 5360771427,
      "name": "鵜沼東町",
      "nameKana": null,
      "nameTranslations": null,
      "latitude": 35.4014287,
      "longitude": 136.9412677,
      "lines": null,
      "prefectureId": "gifu",
      "cityId": null,
      "countryCode": "jp",
      "prefectureName": "岐阜県",
      "prefectureNameTranslations": null,
      "cityName": null,
      "cityNameTranslations": null,
      "placeType": "quarter"
    },
    {
      "id": "gifu_unknown_鵜沼西",
      "osmId": 5360771428,
      "name": "鵜沼西町",
      "nameKana": null,
      "nameTranslations": null,
      "latitude": 35.4026142,
      "longitude": 136.9330255,
      "lines": null,
      "prefectureId": "gifu",
      "cityId": null,
      "countryCode": "jp",
      "prefectureName": "岐阜県",
      "prefectureNameTranslations": null,
      "cityName": null,
      "cityNameTranslations": null,
      "placeType": "quarter"
    },
    {
      "id": "gifu_unknown_鵜沼古市場",
      "osmId": 5360771429,
      "name": "鵜沼古市場町",
      "nameKana": null,
      "nameTranslations": null,
      "latitude": 35.3936492,
      "longitude": 136.9332424,
      "lines": null,
      "prefectureId": "gifu",
      "cityId": null,
      "countryCode": "jp",
      "prefectureName": "岐阜県",
      "prefectureNameTranslations": null,
      "cityName": null,
      "cityNameTranslations": null,
      "placeType": "quarter"
    },