{
  "fetchedAt": "2025-12-12T05:22:17.328Z",
  "prefecture": {
    "id": "ibaraki",
    "name": "茨城県"
  },
  "cities": [
    {
      "id": "ibaraki_shimotsuma",
      "osmId": 674922239,
      "prefectureId": "ibaraki",
      "name": "下妻市",
      "nameKana": null,
      "nameTranslations": {
        "en": "Shimotsuma"
      },
      "type": "市",
      "countryCode": "jp",
      "latitude": 36.1839337,
      "longitude": 139.96845
    },
    {
      "id": "ibaraki_inashiki",
      "osmId": 734950653,
      "prefectureId": "ibaraki",
      "name": "稲敷市",
      "nameKana": null,
      "nameTranslations": {
        "en": "Inashiki"
      },
      "type": "市",
      "countryCode": "jp",
      "latitude": 35.9720697,
      "longitude": 140.3033759
    },
    {
      "id": "ibaraki_mito",
      "osmId": 736355846,
      "prefectureId": "ibaraki",
      "name": "水戸市",
      "nameKana": null,
      "nameTranslations": {
        "en": "Mito"
      },
      "type": "市",
      "countryCode": "jp",
      "latitude": 36.3659174,
      "longitude": 140.4731743
    },
    {
      "id": "ibaraki_kasama",
      "osmId": 737237199,
      "prefectureId": "ibaraki",
      "name": "笠間市",
      "nameKana": null,
      "nameTranslations": {
        "en": "Kasama"
      },
      "type": "市",
      "countryCode": "jp",
      "latitude": 36.3452244,
      "longitude": 140.3042261
    },
    {
      "id": "ibaraki_omitama",
      "osmId": 737237574,
      "prefectureId": "ibaraki",
      "name": "小美玉市",
      "nameKana": null,
      "nameTranslations": {
        "en": "Omitama"
      },
      "type": "市",
      "countryCode": "jp",
      "latitude": 36.2389756,
      "longitude": 140.3523684
    },
    {
      "id": "ibaraki_ishioka",
      "osmId": 738650161,
      "prefectureId": "ibaraki",
      "name": "石岡市",
      "nameKana": null,
      "nameTranslations": {
        "en": "Ishioka"
      },
      "type": "市",
      "countryCode": "jp",
      "latitude": 36.1908398,
      "longitude": 140.2884101
    },
    {
      "id": "ibaraki_naka",
      "osmId": 742470966,
      "prefectureId": "ibaraki",
      "name": "那珂市",
      "nameKana": null,
      "nameTranslations": {
        "en": "Naka"
      },
      "type": "市",
      "countryCode": "jp",
      "latitude": 36.457227,
      "longitude": 140.4871772
    },
    {
      "id": "ibaraki_tsuchiura",
      "osmId": 750504981,
      "prefectureId": "ibaraki",
      "name": "土浦市",
      "nameKana": null,
      "nameTranslations": {
        "en": "Tsuchiura"
      },
      "type": "市",
      "countryCode": "jp",
      "latitude": 36.0786297,
      "longitude": 140.2045934
    },
    {
      "id": "ibaraki_hitachinaka",
      "osmId": 752603189,
      "prefectureId": "ibaraki",
      "name": "ひたちなか市",
      "nameKana": "ひたちなかし",
      "nameTranslations": {
        "en": "Hitachinaka"
      },
      "type": "市",
      "countryCode": "jp",
      "latitude": 36.3961235,
      "longitude": 140.5353397
    },
    {
      "id": "ibaraki_hitachiota",
      "osmId": 761127819,
      "prefectureId": "ibaraki",
      "name": "常陸太田市",
      "nameKana": null,
      "nameTranslations": {
        "en": "Hitachiota"
      },
      "type": "市",
      "countryCode": "jp",
      "latitude": 36.5373021,
      "longitude": 140.5308393
    },
    {
      "id": "ibaraki_tsukuba",
      "osmId": 768273008,
      "prefectureId": "ibaraki",
      "name": "つくば市",
      "nameKana": "つくばし",
      "nameTranslations": {
        "en": "Tsukuba"
      },
      "type": "市",
      "countryCode": "jp",
      "latitude": 36.0833265,
      "longitude": 140.077279
    },
    {
      "id": "ibaraki_kasumigaura",
      "osmId": 775480576,
      "prefectureId": "ibaraki",
      "name": "かすみがうら市",
      "nameKana": "かすみがうらし",
      "nameTranslations": {
        "en": "Kasumigaura"
      },
      "type": "市",
      "countryCode": "jp",
      "latitude": 36.1552115,
      "longitude": 140.2353307
    },
    {
      "id": "ibaraki_ryugasaki",
      "osmId": 1079080827,
      "prefectureId": "ibaraki",
      "name": "龍ケ崎市",
      "nameKana": "りゅうがさきし",
      "nameTranslations": {
        "en": "Ryugasaki"
      },
      "type": "市",
      "countryCode": "jp",
      "latitude": 35.9113158,
      "longitude": 140.181878
    },
    {
      "id": "ibaraki_hitachi",
      "osmId": 1211787259,
      "prefectureId": "ibaraki",
      "name": "日立市",
      "nameKana": null,
      "nameTranslations": {
        "en": "Hitachi"
      },
      "type": "市",
      "countryCode": "jp",
      "latitude": 36.5991225,
      "longitude": 140.6504604
    },
    {
      "id": "ibaraki_koga",
      "osmId": 1419245750,
      "prefectureId": "ibaraki",
      "name": "古河市",
      "nameKana": null,
      "nameTranslations": {
        "en": "Koga"
      },
      "type": "市",
      "countryCode": "jp",
      "latitude": 36.178025,
      "longitude": 139.7553638
    },
    {
      "id": "ibaraki_joso",
      "osmId": 1429506750,
      "prefectureId": "ibaraki",
      "name": "常総市",
      "nameKana": "じょうそうし",
      "nameTranslations": {
        "en": "Joso"
      },
      "type": "市",
      "countryCode": "jp",
      "latitude": 36.0235685,
      "longitude": 139.9938714
    },
    {
      "id": "ibaraki_yuki",
      "osmId": 1513697885,
      "prefectureId": "ibaraki",
      "name": "結城市",
      "nameKana": null,
      "nameTranslations": {
        "en": "Yuki"
      },
      "type": "市",
      "countryCode": "jp",
      "latitude": 36.3052945,
      "longitude": 139.8771403
    },
    {
      "id": "ibaraki_toride",
      "osmId": 1699286306,
      "prefectureId": "ibaraki",
      "name": "取手市",
      "nameKana": "とりでし",
      "nameTranslations": {
        "en": "Toride"
      },
      "type": "市",
      "countryCode": "jp",
      "latitude": 35.9112034,
      "longitude": 140.0500352
    },
    {
      "id": "ibaraki_kamisu",
      "osmId": 2016860246,
      "prefectureId": "ibaraki",
      "name": "神栖市",
      "nameKana": "かみすし",
      "nameTranslations": {
        "en": "Kamisu"
      },
      "type": "市",
      "countryCode": "jp",
      "latitude": 35.889838,
      "longitude": 140.6640827
    },
    {
      "id": "ibaraki_takahagi",
      "osmId": 2088068479,
      "prefectureId": "ibaraki",
      "name": "高萩市",
      "nameKana": null,
      "nameTranslations": {
        "en": "Takahagi"
      },
      "type": "市",
      "countryCode": "jp",
      "latitude": 36.7199765,
      "longitude": 140.7158414
    },
    {
      "id": "ibaraki_kitaibaraki",
      "osmId": 2088311118,
      "prefectureId": "ibaraki",
      "name": "北茨城市",
      "nameKana": null,
      "nameTranslations": {
        "en": "Kitaibaraki"
      },
      "type": "市",
      "countryCode": "jp",
      "latitude": 36.8018507,
      "longitude": 140.7513188
    },
    {
      "id": "ibaraki_kashima",
      "osmId": 2089866662,
      "prefectureId": "ibaraki",
      "name": "鹿嶋市",
      "nameKana": "かしまし",
      "nameTranslations": {
        "en": "Kashima"
      },
      "type": "市",
      "countryCode": "jp",
      "latitude": 35.9661164,
      "longitude": 140.6450292
    },
    {
      "id": "ibaraki_hitachiomiya",
      "osmId": 2089981684,
      "prefectureId": "ibaraki",
      "name": "常陸大宮市",
      "nameKana": null,
      "nameTranslations": {
        "en": "Hitachiomiya"
      },
      "type": "市",
      "countryCode": "jp",
      "latitude": 36.5429197,
      "longitude": 140.4116172
    },
    {
      "id": "ibaraki_hokota",
      "osmId": 2091799198,
      "prefectureId": "ibaraki",
      "name": "鉾田市",
      "nameKana": null,
      "nameTranslations": {
        "en": "Hokota"
      },
      "type": "市",
      "countryCode": "jp",
      "latitude": 36.1585645,
      "longitude": 140.5165158
    },
    {
      "id": "ibaraki_itako",
      "osmId": 2115199905,
      "prefectureId": "ibaraki",
      "name": "潮来市",
      "nameKana": "いたこし",
      "nameTranslations": {
        "en": "Itako"
      },
      "type": "市",
      "countryCode": "jp",
      "latitude": 35.9468365,
      "longitude": 140.5555421
    },
    {
      "id": "ibaraki_namegata",
      "osmId": 2115199906,
      "prefectureId": "ibaraki",
      "name": "行方市",
      "nameKana": "なめがたし",
      "nameTranslations": {
        "en": "Namegata"
      },
      "type": "市",
      "countryCode": "jp",
      "latitude": 35.9901895,
      "longitude": 140.4888826
    },
    {
      "id": "ibaraki_tsukubamirai",
      "osmId": 2115840208,
      "prefectureId": "ibaraki",
      "name": "つくばみらい市",
      "nameKana": null,
      "nameTranslations": {
        "en": "Tsukubamirai"
      },
      "type": "市",
      "countryCode": "jp",
      "latitude": 35.9627445,
      "longitude": 140.0377674
    },
    {
      "id": "ibaraki_bando",
      "osmId": 2115840210,
      "prefectureId": "ibaraki",
      "name": "坂東市",
      "nameKana": "ばんどうし",
      "nameTranslations": {
        "en": "Bando"
      },
      "type": "市",
      "countryCode": "jp",
      "latitude": 36.0484805,
      "longitude": 139.8896616
    },
    {
      "id": "ibaraki_moriya",
      "osmId": 2115840213,
      "prefectureId": "ibaraki",
      "name": "守谷市",
      "nameKana": "もりやし",
      "nameTranslations": {
        "en": "Moriya"
      },
      "type": "市",
      "countryCode": "jp",
      "latitude": 35.9510096,
      "longitude": 139.9754981
    },
    {
      "id": "ibaraki_sakuragawa",
      "osmId": 3383889945,
      "prefectureId": "ibaraki",
      "name": "桜川市",
      "nameKana": null,
      "nameTranslations": {
        "en": "Sakuragawa"
      },
      "type": "市",
      "countryCode": "jp",
      "latitude": 36.327241,
      "longitude": 140.0903587
    },
    {
      "id": "ibaraki_chikusei",
      "osmId": 3385454595,
      "prefectureId": "ibaraki",
      "name": "筑西市",
      "nameKana": null,
      "nameTranslations": {
        "en": "Chikusei"
      },
      "type": "市",
      "countryCode": "jp",
      "latitude": 36.3051944,
      "longitude": 139.9790903
    },
    {
      "id": "ibaraki_ushiku",
      "osmId": 7180482857,
      "prefectureId": "ibaraki",
      "name": "牛久市",
      "nameKana": "うしくし",
      "nameTranslations": {
        "en": "Ushiku"
      },
      "type": "市",
      "countryCode": "jp",
      "latitude": 35.9790551,
      "longitude": 140.1495982
    }
  ],
  "machi": [
    {
      "id": "ibaraki_unknown_五反田",
      "osmId": 4327550703,
      "name": "五反田",
      "nameKana": null,
      "nameTranslations": null,
      "latitude": 36.3222688,
      "longitude": 140.5706422,
      "lines": null,
      "prefectureId": "ibaraki",
      "cityId": null,
      "countryCode": "jp",
      "prefectureName": "茨城県",
      "prefectureNameTranslations": null,
      "cityName": null,
      "cityNameTranslations": null,
      "placeType": "quarter"
    },
    {
      "id": "ibaraki_unknown_和銅",
      "osmId": 4327550705,
      "name": "和銅",
      "nameKana": null,
      "nameTranslations": null,
      "latitude": 36.3191601,
      "longitude": 140.5742713,
      "lines": null,
      "prefectureId": "ibaraki",
      "cityId": null,
      "countryCode": "jp",
      "prefectureName": "茨城県",
      "prefectureNameTranslations": null,
      "cityName": null,
      "cityNameTranslations": null,
      "placeType": "quarter"
    },
    {
      "id": "ibaraki_unknown_大貫",
      "osmId": 4327550707,
      "name": "大貫町",
      "nameKana": null,
      "nameTranslations": null,
      "latitude": 36.3056247,
      "longitude": 140.5582893,
      "lines": null,
      "prefectureId": "ibaraki",
      "cityId": null,
      "countryCode": "jp",
      "prefectureName": "茨城県",
      "prefectureNameTranslations": null,
      "cityName": null,
      "cityNameTranslations": null,
      "placeType": "quarter"
    },
    {
      "id": "ibaraki_unknown_東光台",
      "osmId": 4327550713,
      "name": "東光台",
      "nameKana": null,
      "nameTranslations": null,
      "latitude": 36.3158318,
      "longitude": 140.582228,
      "lines": null,
      "prefectureId": "ibaraki",
      "cityId": null,
      "countryCode": "jp",
      "prefectureName": "茨城県",
      "prefectureNameTranslations": null,
      "cityName": null,
      "cityNameTranslations": null,
      "placeType": "quarter"
    },
    {
      "id": "ibaraki_unknown_桜道",
      "osmId": 4327550715,
      "name": "桜道",
      "nameKana": null,
      "nameTranslations": null,
      "latitude": 36.3189926,
      "longitude": 140.5629979,
      "lines": null,
      "prefectureId": "ibaraki",
      "cityId": null,
      "countryCode": "jp",
      "prefectureName": "茨城県",
      "prefectureNameTranslations": null,
      "cityName": null,
      "cityNameTranslations": null,
      "placeType": "quarter"
    },
    {
      "id": "ibaraki_unknown_磯道",
      "osmId": 4327550721,
      "name": "磯道",
      "nameKana": null,
      "nameTranslations": null,
      "latitude": 36.3224071,
      "longitude": 140.5797081,
      "lines": null,
      "prefectureId": "ibaraki",
      "cityId": null,
      "countryCode": "jp",
      "prefectureName": "茨城県",
      "prefectureNameTranslations": null,
      "cityName": null,
      "cityNameTranslations": null,
      "placeType": "quarter"
    },
    {
      "id": "ibaraki_unknown_shiroyama",
      "osmId": 4572875991,
      "name": "城山",
      "nameKana": "しろやま",
      "nameTranslations": {
        "en": "Shiroyama"
      },
      "latitude": 35.9918508,
      "longitude": 140.1235516,
      "lines": null,
      "prefectureId": "ibaraki",
      "cityId": null,
      "countryCode": "jp",
      "prefectureName": "茨城県",
      "prefectureNameTranslations": null,
      "cityName": null,
      "cityNameTranslations": null,
      "placeType": "quarter"
    },
    {
      "id": "ibaraki_unknown_kannondai",
      "osmId": 4572894571,
      "name": "観音台",
      "nameKana": "かんのんだい",
      "nameTranslations": {
        "en": "Kannondai"
      },
      "latitude": 36.025529,
      "longitude": 140.0976092,
      "lines": null,
      "prefectureId": "ibaraki",
      "cityId": null,
      "countryCode": "jp",
      "prefectureName": "茨城県",
      "prefectureNameTranslations": null,
      "cityName": null,
      "cityNameTranslations": null,
      "placeType": "quarter"
    },
    {
      "id": "ibaraki_unknown_myojin",
      "osmId": 4638472161,
      "name": "明神",
      "nameKana": "みょうじん",
      "nameTranslations": {
        "en": "Myojin"
      },
      "latitude": 35.987495,
      "longitude": 140.134166,
      "lines": null,
      "prefectureId": "ibaraki",
      "cityId": null,
      "countryCode": "jp",
      "prefectureName": "茨城県",
      "prefectureNameTranslations": null,
      "cityName": null,
      "cityNameTranslations": null,
      "placeType": "quarter"
    },
    {
      "id": "ibaraki_unknown_iyoyanagi",
      "osmId": 4739114559,
      "name": "弥柳",
      "nameKana": "いよやなぎ",
      "nameTranslations": {
        "en": "Iyoyanagi"
      },
      "latitude": 35.9537399,
      "longitude": 140.0335773,
      "lines": null,
      "prefectureId": "ibaraki",
      "cityId": null,
      "countryCode": "jp",
      "prefectureName": "茨城県",
      "prefectureNameTranslations": null,
      "cityName": null,
      "cityNameTranslations": null,
      "placeType": "quarter"
    },
    {
      "id": "ibaraki_unknown_mujinabuchi",
      "osmId": 4739114560,
      "name": "狸渕",
      "nameKana": "むじなぶち",
      "nameTranslations": {
        "en": "Mujinabuchi"
      },
      "latitude": 35.9482545,
      "longitude": 140.0290749,
      "lines": null,
      "prefectureId": "ibaraki",
      "cityId": null,
      "countryCode": "jp",
      "prefectureName": "茨城県",
      "prefectureNameTranslations": null,
      "cityName": null,
      "cityNameTranslations": null,
      "placeType": "quarter"
    },
    {
      "id": "ibaraki_unknown_中平柳",
      "osmId": 4739114568,
      "name": "中平柳",
      "nameKana": null,
      "nameTranslations": null,
      "latitude": 35.9401171,
      "longitude": 140.0452707,
      "lines": null,
      "prefectureId": "ibaraki",
      "cityId": null,
      "countryCode": "jp",
      "prefectureName": "茨城県",
      "prefectureNameTranslations": null,
      "cityName": null,
      "cityNameTranslations": null,
      "placeType": "quarter"
    },
    {
      "id": "ibaraki_unknown_上平柳",
      "osmId": 4739114569,
      "name": "上平柳",
      "nameKana": null,
      "nameTranslations": null,
      "latitude": 35.9394955,
      "longitude": 140.0369877,
      "lines": null,
      "prefectureId": "ibaraki",
      "cityId": null,
      "countryCode": "jp",
      "prefectureName": "茨城県",
      "prefectureNameTranslations": null,
      "cityName": null,
      "cityNameTranslations": null,
      "placeType": "quarter"
    },
    {
      "id": "ibaraki_unknown_下平柳",
      "osmId": 4739114572,
      "name": "下平柳",
      "nameKana": null,
      "nameTranslations": null,
      "latitude": 35.9405538,
      "longitude": 140.0527335,
      "lines": null,
      "prefectureId": "ibaraki",
      "cityId": null,
      "countryCode": "jp",
      "prefectureName": "茨城県",
      "prefectureNameTranslations": null,
      "cityName": null,
      "cityNameTranslations": null,
      "placeType": "quarter"
    },
    {
      "id": "ibaraki_unknown_山王新田",
      "osmId": 4739114575,
      "name": "山王新田",
      "nameKana": null,
      "nameTranslations": null,
      "latitude": 35.9413357,
      "longitude": 140.0612738,
      "lines": null,
      "prefectureId": "ibaraki",
      "cityId": null,
      "countryCode": "jp",
      "prefectureName": "茨城県",
      "prefectureNameTranslations": null,
      "cityName": null,
      "cityNameTranslations": null,
      "placeType": "quarter"
    },
    {
      "id": "ibaraki_unknown_神住新田",
      "osmId": 4739114578,
      "name": "神住新田",
      "nameKana": null,
      "nameTranslations": null,
      "latitude": 35.9459331,
      "longitude": 140.0781929,
      "lines": null,
      "prefectureId": "ibaraki",
      "cityId": null,
      "countryCode": "jp",
      "prefectureName": "茨城県",
      "prefectureNameTranslations": null,
      "cityName": null,
      "cityNameTranslations": null,
      "placeType": "quarter"
    },
    {
      "id": "ibaraki_unknown_神住",
      "osmId": 4739114585,
      "name": "神住",
      "nameKana": null,
      "nameTranslations": null,
      "latitude": 35.9397735,
      "longitude": 140.0824802,
      "lines": null,
      "prefectureId": "ibaraki",
      "cityId": null,
      "countryCode": "jp",
      "prefectureName": "茨城県",
      "prefectureNameTranslations": null,
      "cityName": null,
      "cityNameTranslations": null,
      "placeType": "quarter"
    },
    {
      "id": "ibaraki_unknown_配松",
      "osmId": 4739114588,
      "name": "配松",
      "nameKana": null,
      "nameTranslations": null,
      "latitude": 35.9409321,
      "longitude": 140.0733106,
      "lines": null,
      "prefectureId": "ibaraki",
      "cityId": null,
      "countryCode": "jp",
      "prefectureName": "茨城県",
      "prefectureNameTranslations": null,
      "cityName": null,
      "cityNameTranslations": null,
      "placeType": "quarter"
    },
    {
      "id": "ibaraki_unknown_真壁町真壁",
      "osmId": 4770986653,
      "name": "真壁町真壁",
      "nameKana": null,
      "nameTranslations": null,
      "latitude": 36.2803483,
      "longitude": 140.097744,
      "lines": null,
      "prefectureId": "ibaraki",
      "cityId": null,
      "countryCode": "jp",
      "prefectureName": "茨城県",
      "prefectureNameTranslations": null,
      "cityName": null,
      "cityNameTranslations": null,
      "placeType": "quarter"
    },
    {
      "id": "ibaraki_unknown_shimohiratsuka",
      "osmId": 4774739546,
      "name": "下平塚",
      "nameKana": "しもひらつか",
      "nameTranslations": {
        "en": "Shimohiratsuka"
      },
      "latitude": 36.0893208,
      "longitude": 140.0898303,
      "lines": null,
      "prefectureId": "ibaraki",
      "cityId": null,
      "countryCode": "jp",
      "prefectureName": "茨城県",
      "prefectureNameTranslations": null,
      "cityName": null,
      "cityNameTranslations": null,
      "placeType": "quarter"
    },
    {
      "id": "ibaraki_unknown_nihishiratsuka",
      "osmId": 4774739547,
      "name": "西平塚",
      "nameKana": "にしひらつか",
      "nameTranslations": {
        "en": "Nihishiratsuka"
      },
      "latitude": 36.0995969,
      "longitude": 140.0878823,
      "lines": null,
      "prefectureId": "ibaraki",
      "cityId": null,
      "countryCode": "jp",
      "prefectureName": "茨城県",
      "prefectureNameTranslations": null,
      "cityName": null,
      "cityNameTranslations": null,
      "placeType": "quarter"
    },
    {
      "id": "ibaraki_unknown_horicho",
      "osmId": 4879797256,
      "name": "堀町",
      "nameKana": "ほりちょう",
      "nameTranslations": {
        "en": "Horicho"
      },
      "latitude": 36.3996706,
      "longitude": 140.422579,
      "lines": null,
      "prefectureId": "ibaraki",
      "cityId": null,
      "countryCode": "jp",
      "prefectureName": "茨城県",
      "prefectureNameTranslations": null,
      "cityName": null,
      "cityNameTranslations": null,
      "placeType": "quarter"
    },
    {
      "id": "ibaraki_unknown_obacho",
      "osmId": 5943156059,
      "name": "大場町",
      "nameKana": "おおばちょう",
      "nameTranslations": {
        "en": "Obacho"
      },
      "latitude": 36.3285996,
      "longitude": 140.5241179,
      "lines": null,
      "prefectureId": "ibaraki",
      "cityId": null,
      "countryCode": "jp",
      "prefectureName": "茨城県",
      "prefectureNameTranslations": null,
      "cityName": null,
      "cityNameTranslations": null,
      "placeType": "quarter"
    },
    {
      "id": "ibaraki_unknown_amaboki",
      "osmId": 7394679923,
      "name": "天宝喜",
      "nameKana": "あまぼうき",
      "nameTranslations": {
        "en": "Amaboki"
      },
      "latitude": 35.9883026,
      "longitude": 140.1263988,
      "lines": null,
      "prefectureId": "ibaraki",
      "cityId": null,
      "countryCode": "jp",
      "prefectureName": "茨城県",
      "prefectureNameTranslations": null,
      "cityName": null,
      "cityNameTranslations": null,
      "placeType": "quarter"
    },
    {
      "id": "ibaraki_unknown_takasaki",
      "osmId": 7394679963,
      "name": "高崎",
      "nameKana": "たかさき",
      "nameTranslations": {
        "en": "Takasaki"
      },
      "latitude": 36.0014794,
      "longitude": 140.1220751,
      "lines": null,
      "prefectureId": "ibaraki",
      "cityId": null,
      "countryCode": "jp",
      "prefectureName": "茨城県",
      "prefectureNameTranslations": null,
      "cityName": null,
      "cityNameTranslations": null,
      "placeType": "quarter"
    },
    {
      "id": "ibaraki_unknown_hanare",
      "osmId": 7394708816,
      "name": "羽成",
      "nameKana": "はなれ",
      "nameTranslations": {
        "en": "Hanare"
      },
      "latitude": 36.0223426,
      "longitude": 140.0925064,
      "lines": null,
      "prefectureId": "ibaraki",
      "cityId": null,
      "countryCode": "jp",
      "prefectureName": "茨城県",
      "prefectureNameTranslations": null,
      "cityName": null,
      "cityNameTranslations": null,
      "placeType": "quarter"
    },
    {
      "id": "ibaraki_unknown_wakaguri",
      "osmId": 7394708817,
      "name": "若栗",
      "nameKana": "わかぐり",
      "nameTranslations": {
        "en": "Wakaguri"
      },
      "latitude": 36.0175612,
      "longitude": 140.1002633,
      "lines": null,
      "prefectureId": "ibaraki",
      "cityId": null,
      "countryCode": "jp",
      "prefectureName": "茨城県",
      "prefectureNameTranslations": null,
      "cityName": null,
      "cityNameTranslations": null,
      "placeType": "quarter"
    },
    {
      "id": "ibaraki_unknown_inarihara",
      "osmId": 7394708818,
      "name": "稲荷原",
      "nameKana": "いなりはら",
      "nameTranslations": {
        "en": "Inarihara"
      },
      "latitude": 36.0096204,
      "longitude": 140.1135642,
      "lines": null,
      "prefectureId": "ibaraki",
      "cityId": null,
      "countryCode": "jp",
      "prefectureName": "茨城県",
      "prefectureNameTranslations": null,
      "cityName": null,
      "cityNameTranslations": null,
      "placeType": "quarter"
    },
    {
      "id": "ibaraki_unknown_sugaya",
      "osmId": 7617249139,
      "name": "菅谷",
      "nameKana": null,
      "nameTranslations": {
        "en": "Sugaya"
      },
      "latitude": 36.4450719,
      "longitude": 140.5006742,
      "lines": null,
      "prefectureId": "ibaraki",
      "cityId": null,
      "countryCode": "jp",
      "prefectureName": "茨城県",
      "prefectureNameTranslations": null,
      "cityName": null,
      "cityNameTranslations": null,
      "placeType": "quarter"
    },
    {
      "id": "ibaraki_unknown_sugi",
      "osmId": 7617249140,
      "name": "杉",
      "nameKana": null,
      "nameTranslations": {
        "en": "Sugi"
      },
      "latitude": 36.463936,
      "longitude": 140.5056631,
      "lines": null,
      "prefectureId": "ibaraki",
      "cityId": null,
      "countryCode": "jp",
      "prefectureName": "茨城県",
      "prefectureNameTranslations": null,
      "cityName": null,
      "cityNameTranslations": null,
      "placeType": "quarter"
    },
    {
      "id": "ibaraki_unknown_kitasakaide",
      "osmId": 7617289580,
      "name": "北酒出",
      "nameKana": null,
      "nameTranslations": {
        "en": "Kitasakaide"
      },
      "latitude": 36.4850815,
      "longitude": 140.4852569,
      "lines": null,
      "prefectureId": "ibaraki",
      "cityId": null,
      "countryCode": "jp",
      "prefectureName": "茨城県",
      "prefectureNameTranslations": null,
      "cityName": null,
      "cityNameTranslations": null,
      "placeType": "quarter"
    },
    {
      "id": "ibaraki_unknown_minamisakaide",
      "osmId": 7617289581,
      "name": "南酒出",
      "nameKana": "みなみさかいで",
      "nameTranslations": {
        "en": "Minamisakaide"
      },
      "latitude": 36.4803284,
      "longitude": 140.4974663,
      "lines": null,
      "prefectureId": "ibaraki",
      "cityId": null,
      "countryCode": "jp",
      "prefectureName": "茨城県",
      "prefectureNameTranslations": null,
      "cityName": null,
      "cityNameTranslations": null,
      "placeType": "quarter"
    },
    {
      "id": "ibaraki_unknown_yokobori",
      "osmId": 7617289582,
      "name": "横堀",
      "nameKana": null,
      "nameTranslations": {
        "en": "Yokobori"
      },
      "latitude": 36.4703122,
      "longitude": 140.5180764,
      "lines": null,
      "prefectureId": "ibaraki",
      "cityId": null,
      "countryCode": "jp",
      "prefectureName": "茨城県",
      "prefectureNameTranslations": null,
      "cityName": null,
      "cityNameTranslations": null,
      "placeType": "quarter"
    },
    {
      "id": "ibaraki_unknown_nukadaminamigo",
      "osmId": 7617289583,
      "name": "額田南郷",
      "nameKana": null,
      "nameTranslations": {
        "en": "Nukadaminamigo"
      },
      "latitude": 36.4836841,
      "longitude": 140.5133343,
      "lines": null,
      "prefectureId": "ibaraki",
      "cityId": null,
      "countryCode": "jp",
      "prefectureName": "茨城県",
      "prefectureNameTranslations": null,
      "cityName": null,
      "cityNameTranslations": null,
      "placeType": "quarter"
    },
    {
      "id": "ibaraki_unknown_nukadakitago",
      "osmId": 7617289584,
      "name": "額田北郷",
      "nameKana": null,
      "nameTranslations": {
        "en": "Nukadakitago"
      },
      "latitude": 36.4930344,
      "longitude": 140.5139351,
      "lines": null,
      "prefectureId": "ibaraki",
      "cityId": null,
      "countryCode": "jp",
      "prefectureName": "茨城県",
      "prefectureNameTranslations": null,
      "cityName": null,
      "cityNameTranslations": null,
      "placeType": "quarter"
    },
    {
      "id": "ibaraki_unknown_kumech",
      "osmId": 7637953590,
      "name": "久米町",
      "nameKana": null,
      "nameTranslations": {
        "en": "Kumechō"
      },
      "latitude": 36.5465009,
      "longitude": 140.4815554,
      "lines": null,
      "prefectureId": "ibaraki",
      "cityId": null,
      "countryCode": "jp",
      "prefectureName": "茨城県",
      "prefectureNameTranslations": null,
      "cityName": null,
      "cityNameTranslations": null,
      "placeType": "quarter"
    },
    {
      "id": "ibaraki_unknown_tenjimbayashich",
      "osmId": 7637953591,
      "name": "天神林町",
      "nameKana": null,
      "nameTranslations": {
        "en": "Tenjimbayashichō"
      },
      "latitude": 36.5305019,
      "longitude": 140.5071437,
      "lines": null,
      "prefectureId": "ibaraki",
      "cityId": null,
      "countryCode": "jp",
      "prefectureName": "茨城県",
      "prefectureNameTranslations": null,
      "cityName": null,
      "cityNameTranslations": null,
      "placeType": "quarter"
    },
    {
      "id": "ibaraki_unknown_isobech",
      "osmId": 7637953660,
      "name": "磯部町",
      "nameKana": null,
      "nameTranslations": {
        "en": "Isobechō"
      },
      "latitude": 36.5224667,
      "longitude": 140.528655,
      "lines": null,
      "prefectureId": "ibaraki",
      "cityId": null,
      "countryCode": "jp",
      "prefectureName": "茨城県",
      "prefectureNameTranslations": null,
      "cityName": null,
      "cityNameTranslations": null,
      "placeType": "quarter"
    },
    {
      "id": "ibaraki_unknown_yagawarach",
      "osmId": 7637953661,
      "name": "谷河原町",
      "nameKana": null,
      "nameTranslations": {
        "en": "Yagawarachō"
      },
      "latitude": 36.5223407,
      "longitude": 140.5191317,
      "lines": null,
      "prefectureId": "ibaraki",
      "cityId": null,
      "countryCode": "jp",
      "prefectureName": "茨城県",
      "prefectureNameTranslations": null,
      "cityName": null,
      "cityNameTranslations": null,
      "placeType": "quarter"
    },
    {
      "id": "ibaraki_unknown_akatsuchich",
      "osmId": 7704291504,
      "name": "赤土町",
      "nameKana": null,
      "nameTranslations": {
        "en": "Akatsuchichō"
      },
      "latitude": 36.622873,
      "longitude": 140.4540467,
      "lines": null,
      "prefectureId": "ibaraki",
      "cityId": null,
      "countryCode": "jp",
      "prefectureName": "茨城県",
      "prefectureNameTranslations": null,
      "cityName": null,
      "cityNameTranslations": null,
      "placeType": "quarter"
    },
    {
      "id": "ibaraki_unknown_tanayach",
      "osmId": 7704291505,
      "name": "棚谷町",
      "nameKana": null,
      "nameTranslations": {
        "en": "Tanayachō"
      },
      "latitude": 36.5983371,
      "longitude": 140.4648399,
      "lines": null,
      "prefectureId": "ibaraki",
      "cityId": null,
      "countryCode": "jp",
      "prefectureName": "茨城県",
      "prefectureNameTranslations": null,
      "cityName": null,
      "cityNameTranslations": null,
      "placeType": "quarter"
    },
    {
      "id": "ibaraki_unknown_iwatech",
      "osmId": 7704291506,
      "name": "岩手町",
      "nameKana": null,
      "nameTranslations": {
        "en": "Iwatechō"
      },
      "latitude": 36.5629792,
      "longitude": 140.4724467,
      "lines": null,
      "prefectureId": "ibaraki",
      "cityId": null,
      "countryCode": "jp",
      "prefectureName": "茨城県",
      "prefectureNameTranslations": null,
      "cityName": null,
      "cityNameTranslations": null,
      "placeType": "quarter"
    },
    {
      "id": "ibaraki_unknown_tairach",
      "osmId": 7704291507,
      "name": "大平町",
      "nameKana": null,
      "nameTranslations": {
        "en": "Ōtairachō"
      },
      "latitude": 36.5475008,
      "longitude": 140.4965329,
      "lines": null,
      "prefectureId": "ibaraki",
      "cityId": null,
      "countryCode": "jp",
      "prefectureName": "茨城県",
      "prefectureNameTranslations": null,
      "cityName": null,
      "cityNameTranslations": null,
      "placeType": "quarter"
    },
    {
      "id": "ibaraki_unknown_shimo_kadoch",
      "osmId": 7704291508,
      "name": "下大門町",
      "nameKana": null,
      "nameTranslations": {
        "en": "Shimoōkadochō"
      },
      "latitude": 36.5723544,
      "longitude": 140.5057061,
      "lines": null,
      "prefectureId": "ibaraki",
      "cityId": null,
      "countryCode": "jp",
      "prefectureName": "茨城県",
      "prefectureNameTranslations": null,
      "cityName": null,
      "cityNameTranslations": null,
      "placeType": "quarter"
    },
    {
      "id": "ibaraki_unknown_matsudairach",
      "osmId": 7704291509,
      "name": "松平町",
      "nameKana": "まつだいらちょう",
      "nameTranslations": {
        "en": "Matsudairachō"
      },
      "latitude": 36.586932,
      "longitude": 140.4876709,
      "lines": null,
      "prefectureId": "ibaraki",
      "cityId": null,
      "countryCode": "jp",
      "prefectureName": "茨城県",
      "prefectureNameTranslations": null,
      "cityName": null,
      "cityNameTranslations": null,
      "placeType": "quarter"
    },
    {
      "id": "ibaraki_unknown_wadach",
      "osmId": 7704291510,
      "name": "和田町",
      "nameKana": null,
      "nameTranslations": {
        "en": "Wadachō"
      },
      "latitude": 36.5802294,
      "longitude": 140.4940653,
      "lines": null,
      "prefectureId": "ibaraki",
      "cityId": null,
      "countryCode": "jp",
      "prefectureName": "茨城県",
      "prefectureNameTranslations": null,
      "cityName": null,
      "cityNameTranslations": null,
      "placeType": "quarter"
    },
    {
      "id": "ibaraki_unknown_t_renjich",
      "osmId": 7704291511,
      "name": "東連地町",
      "nameKana": null,
      "nameTranslations": {
        "en": "Tōrenjichō"
      },
      "latitude": 36.5752839,
      "longitude": 140.4864692,
      "lines": null,
      "prefectureId": "ibaraki",
      "cityId": null,
      "countryCode": "jp",
      "prefectureName": "茨城県",
      "prefectureNameTranslations": null,
      "cityName": null,
      "cityNameTranslations": null,
      "placeType": "quarter"
    },
    {
      "id": "ibaraki_unknown_ashimach",
      "osmId": 7704291512,
      "name": "芦間町",
      "nameKana": null,
      "nameTranslations": {
        "en": "Ashimachō"
      },
      "latitude": 36.572251,
      "longitude": 140.4926383,
      "lines": null,
      "prefectureId": "ibaraki",
      "cityId": null,
      "countryCode": "jp",
      "prefectureName": "茨城県",
      "prefectureNameTranslations": null,
      "cityName": null,
      "cityNameTranslations": null,
      "placeType": "quarter"
    },
    {
      "id": "ibaraki_unknown_tamatsukurich",
      "osmId": 7704291513,
      "name": "玉造町",
      "nameKana": null,
      "nameTranslations": {
        "en": "Tamatsukurichō"
      },
      "latitude": 36.5607042,
      "longitude": 140.485847,
      "lines": null,
      "prefectureId": "ibaraki",
      "cityId": null,
      "countryCode": "jp",
      "prefectureName": "茨城県",
      "prefectureNameTranslations": null,
      "cityName": null,
      "cityNameTranslations": null,
      "placeType": "quarter"
    },
    {
      "id": "ibaraki_unknown_hatach",
      "osmId": 7706951479,
      "name": "幡町",
      "nameKana": null,
      "nameTranslations": {
        "en": "Hatachō"
      },
      "latitude": 36.5423463,
      "longitude": 140.5438471,
      "lines": null,
      "prefectureId": "ibaraki",
      "cityId": null,
      "countryCode": "jp",
      "prefectureName": "茨城県",
      "prefectureNameTranslations": null,
      "cityName": null,
      "cityNameTranslations": null,
      "placeType": "quarter"
    },
    {
      "id": "ibaraki_unknown_大口",
      "osmId": 7823210270,
      "name": "大口",
      "nameKana": null,
      "nameTranslations": null,
      "latitude": 36.0374397,
      "longitude": 139.9452209,
      "lines": null,
      "prefectureId": "ibaraki",
      "cityId": null,
      "countryCode": "jp",
      "prefectureName": "茨城県",
      "prefectureNameTranslations": null,
      "cityName": null,
      "cityNameTranslations": null,
      "placeType": "quarter"
    },
    {
      "id": "ibaraki_unknown_uchinoyama",
      "osmId": 7823210271,
      "name": "内野山",
      "nameKana": "うちのやま",
      "nameTranslations": {
        "en": "Uchinoyama"
      },
      "latitude": 36.0867022,
      "longitude": 139.9193001,
      "lines": null,
      "prefectureId": "ibaraki",
      "cityId": null,
      "countryCode": "jp",
      "prefectureName": "茨城県",
      "prefectureNameTranslations": null,
      "cityName": null,
      "cityNameTranslations": null,
      "placeType": "quarter"
    },
    {
      "id": "ibaraki_unknown_大馬新田",
      "osmId": 7823210272,
      "name": "大馬新田",
      "nameKana": null,
      "nameTranslations": null,
      "latitude": 36.0829739,
      "longitude": 139.9313164,
      "lines": null,
      "prefectureId": "ibaraki",
      "cityId": null,
      "countryCode": "jp",
      "prefectureName": "茨城県",
      "prefectureNameTranslations": null,
      "cityName": null,
      "cityNameTranslations": null,
      "placeType": "quarter"
    },
    {
      "id": "ibaraki_unknown_平八新田",
      "osmId": 7823210273,
      "name": "平八新田",
      "nameKana": null,
      "nameTranslations": null,
      "latitude": 36.0748577,
      "longitude": 139.92872,
      "lines": null,
      "prefectureId": "ibaraki",
      "cityId": null,
      "countryCode": "jp",
      "prefectureName": "茨城県",
      "prefectureNameTranslations": null,
      "cityName": null,
      "cityNameTranslations": null,
      "placeType": "quarter"
    },
    {
      "id": "ibaraki_unknown_kansukeshinden",
      "osmId": 7823210274,
      "name": "勘助新田",
      "nameKana": "かんすけしんでん",
      "nameTranslations": {
        "en": "Kansukeshinden"
      },
      "latitude": 36.0696546,
      "longitude": 139.9268317,
      "lines": null,
      "prefectureId": "ibaraki",
      "cityId": null,
      "countryCode": "jp",
      "prefectureName": "茨城県",
      "prefectureNameTranslations": null,
      "cityName": null,
      "cityNameTranslations": null,
      "placeType": "quarter"
    },
    {
      "id": "ibaraki_unknown_kodashinden",
      "osmId": 7823210275,
      "name": "幸田新田",
      "nameKana": "こうだしんでん",
      "nameTranslations": {
        "en": "Kodashinden"
      },
      "latitude": 36.0631849,
      "longitude": 139.9288058,
      "lines": null,
      "prefectureId": "ibaraki",
      "cityId": null,
      "countryCode": "jp",
      "prefectureName": "茨城県",
      "prefectureNameTranslations": null,
      "cityName": null,
      "cityNameTranslations": null,
      "placeType": "quarter"
    },
    {
      "id": "ibaraki_unknown_神田山新田",
      "osmId": 7823210276,
      "name": "神田山新田",
      "nameKana": null,
      "nameTranslations": null,
      "latitude": 36.0590566,
      "longitude": 139.9332475,
      "lines": null,
      "prefectureId": "ibaraki",
      "cityId": null,
      "countryCode": "jp",
      "prefectureName": "茨城県",
      "prefectureNameTranslations": null,
      "cityName": null,
      "cityNameTranslations": null,
      "placeType": "quarter"
    },
    {
      "id": "ibaraki_unknown_大口新田",
      "osmId": 7823210277,
      "name": "大口新田",
      "nameKana": null,
      "nameTranslations": null,
      "latitude": 36.0489949,
      "longitude": 139.9432897,
      "lines": null,
      "prefectureId": "ibaraki",
      "cityId": null,
      "countryCode": "jp",
      "prefectureName": "茨城県",
      "prefectureNameTranslations": null,
      "cityName": null,
      "cityNameTranslations": null,
      "placeType": "quarter"
    },
    {
      "id": "ibaraki_unknown_猫実新田",
      "osmId": 7823210278,
      "name": "猫実新田",
      "nameKana": null,
      "nameTranslations": null,
      "latitude": 36.0520656,
      "longitude": 139.937346,
      "lines": null,
      "prefectureId": "ibaraki",
      "cityId": null,
      "countryCode": "jp",
      "prefectureName": "茨城県",
      "prefectureNameTranslations": null,
      "cityName": null,
      "cityNameTranslations": null,
      "placeType": "quarter"
    },
    {
      "id": "ibaraki_unknown_nekozane",
      "osmId": 7823210279,
      "name": "猫実",
      "nameKana": "ねこざね",
      "nameTranslations": {
        "en": "Nekozane"
      },
      "latitude": 36.0390967,
      "longitude": 139.9311662,
      "lines": null,
      "prefectureId": "ibaraki",
      "cityId": null,
      "countryCode": "jp",
      "prefectureName": "茨城県",
      "prefectureNameTranslations": null,
      "cityName": null,
      "cityNameTranslations": null,
      "placeType": "quarter"
    },
    {
      "id": "ibaraki_unknown_kadoyama",
      "osmId": 7823210280,
      "name": "神田山",
      "nameKana": "かどやま",
      "nameTranslations": {
        "en": "Kadoyama"
      },
      "latitude": 36.0346461,
      "longitude": 139.9192357,
      "lines": null,
      "prefectureId": "ibaraki",
      "cityId": null,
      "countryCode": "jp",
      "prefectureName": "茨城県",
      "prefectureNameTranslations": null,
      "cityName": null,
      "cityNameTranslations": null,
      "placeType": "quarter"
    },
    {
      "id": "ibaraki_unknown_幸田",
      "osmId": 7823210281,
      "name": "幸田",
      "nameKana": null,
      "nameTranslations": null,
      "latitude": 36.0534881,
      "longitude": 139.9067902,
      "lines": null,
      "prefectureId": "ibaraki",
      "cityId": null,
      "countryCode": "jp",
      "prefectureName": "茨城県",
      "prefectureNameTranslations": null,
      "cityName": null,
      "cityNameTranslations": null,
      "placeType": "quarter"
    },
    {
      "id": "ibaraki_unknown_koshindaira",
      "osmId": 7823210284,
      "name": "幸神平",
      "nameKana": "こうしんだいら",
      "nameTranslations": {
        "en": "Koshindaira"
      },
      "latitude": 36.0542514,
      "longitude": 139.918946,
      "lines": null,
      "prefectureId": "ibaraki",
      "cityId": null,
      "countryCode": "jp",
      "prefectureName": "茨城県",
      "prefectureNameTranslations": null,
      "cityName": null,
      "cityNameTranslations": null,
      "placeType": "quarter"
    },
    {
      "id": "ibaraki_unknown_馬立",
      "osmId": 7823221285,
      "name": "馬立",
      "nameKana": null,
      "nameTranslations": null,
      "latitude": 36.0598285,
      "longitude": 139.9060714,
      "lines": null,
      "prefectureId": "ibaraki",
      "cityId": null,
      "countryCode": "jp",
      "prefectureName": "茨城県",
      "prefectureNameTranslations": null,
      "cityName": null,
      "cityNameTranslations": null,
      "placeType": "quarter"
    },
    {
      "id": "ibaraki_unknown_yuda",
      "osmId": 7823221286,
      "name": "弓田",
      "nameKana": "ゆだ",
      "nameTranslations": {
        "en": "Yuda"
      },
      "latitude": 36.0751352,
      "longitude": 139.9039149,
      "lines": null,
      "prefectureId": "ibaraki",
      "cityId": null,
      "countryCode": "jp",
      "prefectureName": "茨城県",
      "prefectureNameTranslations": null,
      "cityName": null,
      "cityNameTranslations": null,
      "placeType": "quarter"
    },
    {
      "id": "ibaraki_unknown_上出島",
      "osmId": 7823221295,
      "name": "上出島",
      "nameKana": null,
      "nameTranslations": null,
      "latitude": 36.0719614,
      "longitude": 139.8723936,
      "lines": null,
      "prefectureId": "ibaraki",
      "cityId": null,
      "countryCode": "jp",
      "prefectureName": "茨城県",
      "prefectureNameTranslations": null,
      "cityName": null,
      "cityNameTranslations": null,
      "placeType": "quarter"
    },
    {
      "id": "ibaraki_unknown_iwai",
      "osmId": 7823221325,
      "name": "岩井",
      "nameKana": "いわい",
      "nameTranslations": {
        "en": "Iwai"
      },
      "latitude": 36.0502006,
      "longitude": 139.8826128,
      "lines": null,
      "prefectureId": "ibaraki",
      "cityId": null,
      "countryCode": "jp",
      "prefectureName": "茨城県",
      "prefectureNameTranslations": null,
      "cityName": null,
      "cityNameTranslations": null,
      "placeType": "quarter"
    },
    {
      "id": "ibaraki_unknown_みむら",
      "osmId": 7823221326,
      "name": "みむら",
      "nameKana": null,
      "nameTranslations": null,
      "latitude": 36.0707473,
      "longitude": 139.8553777,
      "lines": null,
      "prefectureId": "ibaraki",
      "cityId": null,
      "countryCode": "jp",
      "prefectureName": "茨城県",
      "prefectureNameTranslations": null,
      "cityName": null,
      "cityNameTranslations": null,
      "placeType": "quarter"
    },
    {
      "id": "ibaraki_unknown_yamata",
      "osmId": 7834665722,
      "name": "山田",
      "nameKana": "やまた",
      "nameTranslations": {
        "en": "Yamata"
      },
      "latitude": 36.167069,
      "longitude": 139.8057246,
      "lines": null,
      "prefectureId": "ibaraki",
      "cityId": null,
      "countryCode": "jp",
      "prefectureName": "茨城県",
      "prefectureNameTranslations": null,
      "cityName": null,
      "cityNameTranslations": null,
      "placeType": "quarter"
    },
    {
      "id": "ibaraki_unknown_shimoisagoi",
      "osmId": 7834665723,
      "name": "下砂井",
      "nameKana": "しもいさごい",
      "nameTranslations": {
        "en": "Shimoisagoi"
      },
      "latitude": 36.1369909,
      "longitude": 139.8260879,
      "lines": null,
      "prefectureId": "ibaraki",
      "cityId": null,
      "countryCode": "jp",
      "prefectureName": "茨城県",
      "prefectureNameTranslations": null,
      "cityName": null,
      "cityNameTranslations": null,
      "placeType": "quarter"
    },
    {
      "id": "ibaraki_unknown_kuriyama",
      "osmId": 7834665724,
      "name": "栗山",
      "nameKana": "くりやま",
      "nameTranslations": {
        "en": "Kuriyama"
      },
      "latitude": 36.1303535,
      "longitude": 139.8247576,
      "lines": null,
      "prefectureId": "ibaraki",
      "cityId": null,
      "countryCode": "jp",
      "prefectureName": "茨城県",
      "prefectureNameTranslations": null,
      "cityName": null,
      "cityNameTranslations": null,
      "placeType": "quarter"
    },
    {
      "id": "ibaraki_unknown_逆井",
      "osmId": 7834665725,
      "name": "逆井",
      "nameKana": null,
      "nameTranslations": null,
      "latitude": 36.139625,
      "longitude": 139.8524165,
      "lines": null,
      "prefectureId": "ibaraki",
      "cityId": null,
      "countryCode": "jp",
      "prefectureName": "茨城県",
      "prefectureNameTranslations": null,
      "cityName": null,
      "cityNameTranslations": null,
      "placeType": "quarter"
    },
    {
      "id": "ibaraki_unknown_nirei",
      "osmId": 7834665739,
      "name": "仁連",
      "nameKana": "にれい",
      "nameTranslations": {
        "en": "Nirei"
      },
      "latitude": 36.1855329,
      "longitude": 139.8148441,
      "lines": null,
      "prefectureId": "ibaraki",
      "cityId": null,
      "countryCode": "jp",
      "prefectureName": "茨城県",
      "prefectureNameTranslations": null,
      "cityName": null,
      "cityNameTranslations": null,
      "placeType": "quarter"
    },
    {
      "id": "ibaraki_unknown_jaike",
      "osmId": 7834665764,
      "name": "蛇池",
      "nameKana": "じゃいけ",
      "nameTranslations": {
        "en": "Jaike"
      },
      "latitude": 36.1307174,
      "longitude": 139.8138571,
      "lines": null,
      "prefectureId": "ibaraki",
      "cityId": null,
      "countryCode": "jp",
      "prefectureName": "茨城県",
      "prefectureNameTranslations": null,
      "cityName": null,
      "cityNameTranslations": null,
      "placeType": "quarter"
    },
    {
      "id": "ibaraki_unknown_saruyama",
      "osmId": 7834665765,
      "name": "猿山",
      "nameKana": "さるやま",
      "nameTranslations": {
        "en": "Saruyama"
      },
      "latitude": 36.1353273,
      "longitude": 139.8052311,
      "lines": null,
      "prefectureId": "ibaraki",
      "cityId": null,
      "countryCode": "jp",
      "prefectureName": "茨城県",
      "prefectureNameTranslations": null,
      "cityName": null,
      "cityNameTranslations": null,
      "placeType": "quarter"
    },
    {
      "id": "ibaraki_unknown_yagai",
      "osmId": 7834665766,
      "name": "谷貝",
      "nameKana": "やがい",
      "nameTranslations": {
        "en": "Yagai"
      },
      "latitude": 36.1509226,
      "longitude": 139.8146295,
      "lines": null,
      "prefectureId": "ibaraki",
      "cityId": null,
      "countryCode": "jp",
      "prefectureName": "茨城県",
      "prefectureNameTranslations": null,
      "cityName": null,
      "cityNameTranslations": null,
      "placeType": "quarter"
    },
    {
      "id": "ibaraki_unknown_higashiyamata",
      "osmId": 7834665767,
      "name": "東山田",
      "nameKana": "ひがしやまた",
      "nameTranslations": {
        "en": "Higashiyamata"
      },
      "latitude": 36.1741191,
      "longitude": 139.8159599,
      "lines": null,
      "prefectureId": "ibaraki",
      "cityId": null,
      "countryCode": "jp",
      "prefectureName": "茨城県",
      "prefectureNameTranslations": null,
      "cityName": null,
      "cityNameTranslations": null,
      "placeType": "quarter"
    },
    {
      "id": "ibaraki_unknown_kitayamata",
      "osmId": 7834665768,
      "name": "北山田",
      "nameKana": "きたやまた",
      "nameTranslations": {
        "en": "Kitayamata"
      },
      "latitude": 36.1754182,
      "longitude": 139.7996092,
      "lines": null,
      "prefectureId": "ibaraki",
      "cityId": null,
      "countryCode": "jp",
      "prefectureName": "茨城県",
      "prefectureNameTranslations": null,
      "cityName": null,
      "cityNameTranslations": null,
      "placeType": "quarter"
    },
    {
      "id": "ibaraki_unknown_yagihashi",
      "osmId": 7834665769,
      "name": "柳橋",
      "nameKana": "やぎはし",
      "nameTranslations": {
        "en": "Yagihashi"
      },
      "latitude": 36.1689745,
      "longitude": 139.781692,
      "lines": null,
      "prefectureId": "ibaraki",
      "cityId": null,
      "countryCode": "jp",
      "prefectureName": "茨城県",
      "prefectureNameTranslations": null,
      "cityName": null,
      "cityNameTranslations": null,
      "placeType": "quarter"
    },
    {
      "id": "ibaraki_unknown_shinwada",
      "osmId": 7834665770,
      "name": "新和田",
      "nameKana": "しんわだ",
      "nameTranslations": {
        "en": "Shinwada"
      },
      "latitude": 36.1790468,
      "longitude": 139.7922706,
      "lines": null,
      "prefectureId": "ibaraki",
      "cityId": null,
      "countryCode": "jp",
      "prefectureName": "茨城県",
      "prefectureNameTranslations": null,
      "cityName": null,
      "cityNameTranslations": null,
      "placeType": "quarter"
    },
    {
      "id": "ibaraki_unknown_みどり",
      "osmId": 7836214572,
      "name": "みどり町",
      "nameKana": null,
      "nameTranslations": null,
      "latitude": 36.0389232,
      "longitude": 139.8877251,
      "lines": null,
      "prefectureId": "ibaraki",
      "cityId": null,
      "countryCode": "jp",
      "prefectureName": "茨城県",
      "prefectureNameTranslations": null,
      "cityName": null,
      "cityNameTranslations": null,
      "placeType": "quarter"
    },
    {
      "id": "ibaraki_unknown_緑の里",
      "osmId": 7836214573,
      "name": "緑の里",
      "nameKana": null,
      "nameTranslations": null,
      "latitude": 36.1074821,
      "longitude": 139.8774791,
      "lines": null,
      "prefectureId": "ibaraki",
      "cityId": null,
      "countryCode": "jp",
      "prefectureName": "茨城県",
      "prefectureNameTranslations": null,
      "cityName": null,
      "cityNameTranslations": null,
      "placeType": "quarter"
    },
    {
      "id": "ibaraki_unknown_kutsukake",
      "osmId": 7836214574,
      "name": "沓掛",
      "nameKana": "くつかけ",
      "nameTranslations": {
        "en": "Kutsukake"
      },
      "latitude": 36.1012495,
      "longitude": 139.9019193,
      "lines": null,
      "prefectureId": "ibaraki",
      "cityId": null,
      "countryCode": "jp",
      "prefectureName": "茨城県",
      "prefectureNameTranslations": null,
      "cityName": null,
      "cityNameTranslations": null,
      "placeType": "quarter"
    },
    {
      "id": "ibaraki_unknown_半谷",
      "osmId": 7836214575,
      "name": "半谷",
      "nameKana": null,
      "nameTranslations": null,
      "latitude": 36.1005734,
      "longitude": 139.8822641,
      "lines": null,
      "prefectureId": "ibaraki",
      "cityId": null,
      "countryCode": "jp",
      "prefectureName": "茨城県",
      "prefectureNameTranslations": null,
      "cityName": null,
      "cityNameTranslations": null,
      "placeType": "quarter"
    },
    {
      "id": "ibaraki_unknown_山",
      "osmId": 7836214576,
      "name": "山",
      "nameKana": null,
      "nameTranslations": null,
      "latitude": 36.1275805,
      "longitude": 139.8740029,
      "lines": null,
      "prefectureId": "ibaraki",
      "cityId": null,
      "countryCode": "jp",
      "prefectureName": "茨城県",
      "prefectureNameTranslations": null,
      "cityName": null,
      "cityNameTranslations": null,
      "placeType": "quarter"
    },
    {
      "id": "ibaraki_unknown_生子新田",
      "osmId": 7836214577,
      "name": "生子新田",
      "nameKana": null,
      "nameTranslations": null,
      "latitude": 36.1187756,
      "longitude": 139.8921239,
      "lines": null,
      "prefectureId": "ibaraki",
      "cityId": null,
      "countryCode": "jp",
      "prefectureName": "茨城県",
      "prefectureNameTranslations": null,
      "cityName": null,
      "cityNameTranslations": null,
      "placeType": "quarter"
    },
    {
      "id": "ibaraki_unknown_長須",
      "osmId": 7836214578,
      "name": "長須",
      "nameKana": null,
      "nameTranslations": null,
      "latitude": 36.0583367,
      "longitude": 139.8524594,
      "lines": null,
      "prefectureId": "ibaraki",
      "cityId": null,
      "countryCode": "jp",
      "prefectureName": "茨城県",
      "prefectureNameTranslations": null,
      "cityName": null,
      "cityNameTranslations": null,
      "placeType": "quarter"
    },
    {
      "id": "ibaraki_unknown_鵠戸",
      "osmId": 7836214579,
      "name": "鵠戸",
      "nameKana": null,
      "nameTranslations": null,
      "latitude": 36.0495934,
      "longitude": 139.8732734,
      "lines": null,
      "prefectureId": "ibaraki",
      "cityId": null,
      "countryCode": "jp",
      "prefectureName": "茨城県",
      "prefectureNameTranslations": null,
      "cityName": null,
      "cityNameTranslations": null,
      "placeType": "quarter"
    },
    {
      "id": "ibaraki_unknown_木間ケ瀬",
      "osmId": 7836214580,
      "name": "木間ケ瀬",
      "nameKana": null,
      "nameTranslations": null,
      "latitude": 36.0373009,
      "longitude": 139.8533821,
      "lines": null,
      "prefectureId": "ibaraki",
      "cityId": null,
      "countryCode": "jp",
      "prefectureName": "茨城県",
      "prefectureNameTranslations": null,
      "cityName": null,
      "cityNameTranslations": null,
      "placeType": "quarter"
    },
    {
      "id": "ibaraki_unknown_長谷",
      "osmId": 7836214581,
      "name": "長谷",
      "nameKana": null,
      "nameTranslations": null,
      "latitude": 36.0302212,
      "longitude": 139.8733592,
      "lines": null,
      "prefectureId": "ibaraki",
      "cityId": null,
      "countryCode": "jp",
      "prefectureName": "茨城県",
      "prefectureNameTranslations": null,
      "cityName": null,
      "cityNameTranslations": null,
      "placeType": "quarter"
    },
    {
      "id": "ibaraki_unknown_冨田",
      "osmId": 7836254429,
      "name": "冨田",
      "nameKana": null,
      "nameTranslations": null,
      "latitude": 36.0850375,
      "longitude": 139.8851394,
      "lines": null,
      "prefectureId": "ibaraki",
      "cityId": null,
      "countryCode": "jp",
      "prefectureName": "茨城県",
      "prefectureNameTranslations": null,
      "cityName": null,
      "cityNameTranslations": null,
      "placeType": "quarter"
    },
    {
      "id": "ibaraki_unknown_oigo",
      "osmId": 7836254430,
      "name": "生子",
      "nameKana": "おいご",
      "nameTranslations": {
        "en": "Oigo"
      },
      "latitude": 36.1008335,
      "longitude": 139.8587465,
      "lines": null,
      "prefectureId": "ibaraki",
      "cityId": null,
      "countryCode": "jp",
      "prefectureName": "茨城県",
      "prefectureNameTranslations": null,
      "cityName": null,
      "cityNameTranslations": null,
      "placeType": "quarter"
    },
    {
      "id": "ibaraki_unknown_komahane",
      "osmId": 7836254431,
      "name": "駒跿",
      "nameKana": "こまはね",
      "nameTranslations": {
        "en": "Komahane"
      },
      "latitude": 36.0792628,
      "longitude": 139.8788953,
      "lines": null,
      "prefectureId": "ibaraki",
      "cityId": null,
      "countryCode": "jp",
      "prefectureName": "茨城県",
      "prefectureNameTranslations": null,
      "cityName": null,
      "cityNameTranslations": null,
      "placeType": "quarter"
    },
    {
      "id": "ibaraki_unknown_kariyado",
      "osmId": 7836254432,
      "name": "借宿",
      "nameKana": "かりやど",
      "nameTranslations": {
        "en": "Kariyado"
      },
      "latitude": 36.0876906,
      "longitude": 139.8668575,
      "lines": null,
      "prefectureId": "ibaraki",
      "cityId": null,
      "countryCode": "jp",
      "prefectureName": "茨城県",
      "prefectureNameTranslations": null,
      "cityName": null,
      "cityNameTranslations": null,
      "placeType": "quarter"
    },
    {
      "id": "ibaraki_unknown_tsukazaki",
      "osmId": 7836277070,
      "name": "塚崎",
      "nameKana": "つかざき",
      "nameTranslations": {
        "en": "Tsukazaki"
      },
      "latitude": 36.1270952,
      "longitude": 139.7725296,
      "lines": null,
      "prefectureId": "ibaraki",
      "cityId": null,
      "countryCode": "jp",
      "prefectureName": "茨城県",
      "prefectureNameTranslations": null,
      "cityName": null,
      "cityNameTranslations": null,
      "placeType": "quarter"
    },
    {
      "id": "ibaraki_unknown_nagaido",
      "osmId": 7836277071,
      "name": "長井戸",
      "nameKana": "ながいど",
      "nameTranslations": {
        "en": "Nagaido"
      },
      "latitude": 36.1267313,
      "longitude": 139.7955966,
      "lines": null,
      "prefectureId": "ibaraki",
      "cityId": null,
      "countryCode": "jp",
      "prefectureName": "茨城県",
      "prefectureNameTranslations": null,
      "cityName": null,
      "cityNameTranslations": null,
      "placeType": "quarter"
    },
    {
      "id": "ibaraki_unknown_uchikado",
      "osmId": 7836277072,
      "name": "内門",
      "nameKana": "うちかど",
      "nameTranslations": {
        "en": "Uchikado"
      },
      "latitude": 36.1111139,
      "longitude": 139.8393273,
      "lines": null,
      "prefectureId": "ibaraki",
      "cityId": null,
      "countryCode": "jp",
      "prefectureName": "茨城県",
      "prefectureNameTranslations": null,
      "cityName": null,
      "cityNameTranslations": null,
      "placeType": "quarter"
    },
    {
      "id": "ibaraki_unknown_yamazaki",
      "osmId": 7836277073,
      "name": "山崎",
      "nameKana": "やまざき",
      "nameTranslations": {
        "en": "Yamazaki"
      },
      "latitude": 36.1233862,
      "longitude": 139.8335552,
      "lines": null,
      "prefectureId": "ibaraki",
      "cityId": null,
      "countryCode": "jp",
      "prefectureName": "茨城県",
      "prefectureNameTranslations": null,
      "cityName": null,
      "cityNameTranslations": null,
      "placeType": "quarter"
    },
    {
      "id": "ibaraki_unknown_kaneoka",
      "osmId": 7836277074,
      "name": "金岡",
      "nameKana": "かねおか",
      "nameTranslations": {
        "en": "Kaneoka"
      },
      "latitude": 36.0873438,
      "longitude": 139.8108101,
      "lines": null,
      "prefectureId": "ibaraki",
      "cityId": null,
      "countryCode": "jp",
      "prefectureName": "茨城県",
      "prefectureNameTranslations": null,
      "cityName": null,
      "cityNameTranslations": null,
      "placeType": "quarter"
    },
    {
      "id": "ibaraki_unknown_modo",
      "osmId": 7836277075,
      "name": "百戸",
      "nameKana": "もど",
      "nameTranslations": {
        "en": "Modo"
      },
      "latitude": 36.0772857,
      "longitude": 139.8202514,
      "lines": null,
      "prefectureId": "ibaraki",
      "cityId": null,
      "countryCode": "jp",
      "prefectureName": "茨城県",
      "prefectureNameTranslations": null,
      "cityName": null,
      "cityNameTranslations": null,
      "placeType": "quarter"
    },
    {
      "id": "ibaraki_unknown_nittado",
      "osmId": 7836277076,
      "name": "新田戸",
      "nameKana": "にったど",
      "nameTranslations": {
        "en": "Nittado"
      },
      "latitude": 36.0744762,
      "longitude": 139.8134494,
      "lines": null,
      "prefectureId": "ibaraki",
      "cityId": null,
      "countryCode": "jp",
      "prefectureName": "茨城県",
      "prefectureNameTranslations": null,
      "cityName": null,
      "cityNameTranslations": null,
      "placeType": "quarter"
    },
    {
      "id": "ibaraki_unknown_kirigasaku",
      "osmId": 7836277077,
      "name": "桐ヶ作",
      "nameKana": "きりがさく",
      "nameTranslations": {
        "en": "Kirigasaku"
      },
      "latitude": 36.0636533,
      "longitude": 139.8208952,
      "lines": null,
      "prefectureId": "ibaraki",
      "cityId": null,
      "countryCode": "jp",
      "prefectureName": "茨城県",
      "prefectureNameTranslations": null,
      "cityName": null,
      "cityNameTranslations": null,
      "placeType": "quarter"
    },
    {
      "id": "ibaraki_unknown_wakahayashi",
      "osmId": 7836277078,
      "name": "若林",
      "nameKana": "わかはやし",
      "nameTranslations": {
        "en": "Wakahayashi"
      },
      "latitude": 36.0725337,
      "longitude": 139.8358941,
      "lines": null,
      "prefectureId": "ibaraki",
      "cityId": null,
      "countryCode": "jp",
      "prefectureName": "茨城県",
      "prefectureNameTranslations": null,
      "cityName": null,
      "cityNameTranslations": null,
      "placeType": "quarter"
    },
    {
      "id": "ibaraki_unknown_fusegi",
      "osmId": 7836277079,
      "name": "伏木",
      "nameKana": "ふせぎ",
      "nameTranslations": {
        "en": "Fusegi"
      },
      "latitude": 36.0963776,
      "longitude": 139.832139,
      "lines": null,
      "prefectureId": "ibaraki",
      "cityId": null,
      "countryCode": "jp",
      "prefectureName": "茨城県",
      "prefectureNameTranslations": null,
      "cityName": null,
      "cityNameTranslations": null,
      "placeType": "quarter"
    },
    {
      "id": "ibaraki_unknown_uramuko",
      "osmId": 7836277080,
      "name": "浦向",
      "nameKana": "うらむこう",
      "nameTranslations": {
        "en": "Uramuko"
      },
      "latitude": 36.0933433,
      "longitude": 139.8092007,
      "lines": null,
      "prefectureId": "ibaraki",
      "cityId": null,
      "countryCode": "jp",
      "prefectureName": "茨城県",
      "prefectureNameTranslations": null,
      "cityName": null,
      "cityNameTranslations": null,
      "placeType": "quarter"
    },
    {
      "id": "ibaraki_unknown_someya",
      "osmId": 7836277081,
      "name": "染谷",
      "nameKana": "そめや",
      "nameTranslations": {
        "en": "Someya"
      },
      "latitude": 36.0973832,
      "longitude": 139.8178482,
      "lines": null,
      "prefectureId": "ibaraki",
      "cityId": null,
      "countryCode": "jp",
      "prefectureName": "茨城県",
      "prefectureNameTranslations": null,
      "cityName": null,
      "cityNameTranslations": null,
      "placeType": "quarter"
    },
    {
      "id": "ibaraki_unknown_wago",
      "osmId": 7836277082,
      "name": "大歩",
      "nameKana": "わご",
      "nameTranslations": {
        "en": "Wago"
      },
      "latitude": 36.1099351,
      "longitude": 139.8254227,
      "lines": null,
      "prefectureId": "ibaraki",
      "cityId": null,
      "countryCode": "jp",
      "prefectureName": "茨城県",
      "prefectureNameTranslations": null,
      "cityName": null,
      "cityNameTranslations": null,
      "placeType": "quarter"
    },
    {
      "id": "ibaraki_unknown_heta",
      "osmId": 7836306810,
      "name": "辺田",
      "nameKana": "へた",
      "nameTranslations": {
        "en": "Heta"
      },
      "latitude": 36.0386717,
      "longitude": 139.8991942,
      "lines": null,
      "prefectureId": "ibaraki",
      "cityId": null,
      "countryCode": "jp",
      "prefectureName": "茨城県",
      "prefectureNameTranslations": null,
      "cityName": null,
      "cityNameTranslations": null,
      "placeType": "quarter"
    },
    {
      "id": "ibaraki_unknown_shimokobashi",
      "osmId": 7836314285,
      "name": "下小橋",
      "nameKana": "しもこばし",
      "nameTranslations": {
        "en": "Shimokobashi"
      },
      "latitude": 36.1016483,
      "longitude": 139.8075056,
      "lines": null,
      "prefectureId": "ibaraki",
      "cityId": null,
      "countryCode": "jp",
      "prefectureName": "茨城県",
      "prefectureNameTranslations": null,
      "cityName": null,
      "cityNameTranslations": null,
      "placeType": "quarter"
    },
    {
      "id": "ibaraki_unknown_nishiizumida",
      "osmId": 7836314286,
      "name": "西泉田",
      "nameKana": "にしいずみだ",
      "nameTranslations": {
        "en": "Nishiizumida"
      },
      "latitude": 36.1148582,
      "longitude": 139.8150158,
      "lines": null,
      "prefectureId": "ibaraki",
      "cityId": null,
      "countryCode": "jp",
      "prefectureName": "茨城県",
      "prefectureNameTranslations": null,
      "cityName": null,
      "cityNameTranslations": null,
      "placeType": "quarter"
    },
    {
      "id": "ibaraki_unknown_kamikobashi",
      "osmId": 7836314287,
      "name": "上小橋",
      "nameKana": "かみこばし",
      "nameTranslations": {
        "en": "Kamikobashi"
      },
      "latitude": 36.1191396,
      "longitude": 139.8061323,
      "lines": null,
      "prefectureId": "ibaraki",
      "cityId": null,
      "countryCode": "jp",
      "prefectureName": "茨城県",
      "prefectureNameTranslations": null,
      "cityName": null,
      "cityNameTranslations": null,
      "placeType": "quarter"
    },
    {
      "id": "ibaraki_unknown_寺久",
      "osmId": 7837049981,
      "name": "寺久",
      "nameKana": null,
      "nameTranslations": null,
      "latitude": 36.0837889,
      "longitude": 139.8457432,
      "lines": null,
      "prefectureId": "ibaraki",
      "cityId": null,
      "countryCode": "jp",
      "prefectureName": "茨城県",
      "prefectureNameTranslations": null,
      "cityName": null,
      "cityNameTranslations": null,
      "placeType": "quarter"
    },
    {
      "id": "ibaraki_unknown_荒金",
      "osmId": 7922697236,
      "name": "荒金",
      "nameKana": null,
      "nameTranslations": null,
      "latitude": 36.2136534,
      "longitude": 140.2868485,
      "lines": null,
      "prefectureId": "ibaraki",
      "cityId": null,
      "countryCode": "jp",
      "prefectureName": "茨城県",
      "prefectureNameTranslations": null,
      "cityName": null,
      "cityNameTranslations": null,
      "placeType": "quarter"
    },
    {
      "id": "ibaraki_unknown_namerikawa",
      "osmId": 7922697237,
      "name": "行里川",
      "nameKana": null,
      "nameTranslations": {
        "en": "Namerikawa"
      },
      "latitude": 36.2119395,
      "longitude": 140.2924704,
      "lines": null,
      "prefectureId": "ibaraki",
      "cityId": null,
      "countryCode": "jp",
      "prefectureName": "茨城県",
      "prefectureNameTranslations": null,
      "cityName": null,
      "cityNameTranslations": null,
      "placeType": "quarter"
    },
    {
      "id": "ibaraki_unknown_竹原下郷",
      "osmId": 7922697253,
      "name": "竹原下郷",
      "nameKana": null,
      "nameTranslations": null,
      "latitude": 36.2196433,
      "longitude": 140.3209233,
      "lines": null,
      "prefectureId": "ibaraki",
      "cityId": null,
      "countryCode": "jp",
      "prefectureName": "茨城県",
      "prefectureNameTranslations": null,
      "cityName": null,
      "cityNameTranslations": null,
      "placeType": "quarter"
    },
    {
      "id": "ibaraki_unknown_竹原",
      "osmId": 7922697254,
      "name": "竹原",
      "nameKana": null,
      "nameTranslations": null,
      "latitude": 36.2107276,
      "longitude": 140.3173828,
      "lines": null,
      "prefectureId": "ibaraki",
      "cityId": null,
      "countryCode": "jp",
      "prefectureName": "茨城県",
      "prefectureNameTranslations": null,
      "cityName": null,
      "cityNameTranslations": null,
      "placeType": "quarter"
    },
    {
      "id": "ibaraki_unknown_小曽納",
      "osmId": 7922697255,
      "name": "小曽納",
      "nameKana": null,
      "nameTranslations": null,
      "latitude": 36.2212879,
      "longitude": 140.2985644,
      "lines": null,
      "prefectureId": "ibaraki",
      "cityId": null,
      "countryCode": "jp",
      "prefectureName": "茨城県",
      "prefectureNameTranslations": null,
      "cityName": null,
      "cityNameTranslations": null,
      "placeType": "quarter"
    },
    {
      "id": "ibaraki_unknown_正上内",
      "osmId": 7922697256,
      "name": "正上内",
      "nameKana": null,
      "nameTranslations": null,
      "latitude": 36.215904,
      "longitude": 140.2788448,
      "lines": null,
      "prefectureId": "ibaraki",
      "cityId": null,
      "countryCode": "jp",
      "prefectureName": "茨城県",
      "prefectureNameTranslations": null,
      "cityName": null,
      "cityNameTranslations": null,
      "placeType": "quarter"
    },
    {
      "id": "ibaraki_unknown_川戸",
      "osmId": 7922772158,
      "name": "川戸",
      "nameKana": null,
      "nameTranslations": null,
      "latitude": 36.1776352,
      "longitude": 140.3736448,
      "lines": null,
      "prefectureId": "ibaraki",
      "cityId": null,
      "countryCode": "jp",
      "prefectureName": "茨城県",
      "prefectureNameTranslations": null,
      "cityName": null,
      "cityNameTranslations": null,
      "placeType": "quarter"
    },
    {
      "id": "ibaraki_unknown_外之内",
      "osmId": 7922772159,
      "name": "外之内",
      "nameKana": null,
      "nameTranslations": null,
      "latitude": 36.1754701,
      "longitude": 140.3999627,
      "lines": null,
      "prefectureId": "ibaraki",
      "cityId": null,
      "countryCode": "jp",
      "prefectureName": "茨城県",
      "prefectureNameTranslations": null,
      "cityName": null,
      "cityNameTranslations": null,
      "placeType": "quarter"
    },
    {
      "id": "ibaraki_unknown_与沢",
      "osmId": 7922772160,
      "name": "与沢",
      "nameKana": null,
      "nameTranslations": null,
      "latitude": 36.1634658,
      "longitude": 140.4135346,
      "lines": null,
      "prefectureId": "ibaraki",
      "cityId": null,
      "countryCode": "jp",
      "prefectureName": "茨城県",
      "prefectureNameTranslations": null,
      "cityName": null,
      "cityNameTranslations": null,
      "placeType": "quarter"
    },
    {
      "id": "ibaraki_unknown_tsuruta",
      "osmId": 7922772161,
      "name": "鶴田",
      "nameKana": "つるた",
      "nameTranslations": {
        "en": "Tsuruta"
      },
      "latitude": 36.2217033,
      "longitude": 140.3483248,
      "lines": null,
      "prefectureId": "ibaraki",
      "cityId": null,
      "countryCode": "jp",
      "prefectureName": "茨城県",
      "prefectureNameTranslations": null,
      "cityName": null,
      "cityNameTranslations": null,
      "placeType": "quarter"
    },
    {
      "id": "ibaraki_unknown_三箇",
      "osmId": 7922772162,
      "name": "三箇",
      "nameKana": null,
      "nameTranslations": null,
      "latitude": 36.2128051,
      "longitude": 140.3448486,
      "lines": null,
      "prefectureId": "ibaraki",
      "cityId": null,
      "countryCode": "jp",
      "prefectureName": "茨城県",
      "prefectureNameTranslations": null,
      "cityName": null,
      "cityNameTranslations": null,
      "placeType": "quarter"
    },
    {
      "id": "ibaraki_unknown_宮田",
      "osmId": 7922772163,
      "name": "宮田",
      "nameKana": null,
      "nameTranslations": null,
      "latitude": 36.1927545,
      "longitude": 140.3488183,
      "lines": null,
      "prefectureId": "ibaraki",
      "cityId": null,
      "countryCode": "jp",
      "prefectureName": "茨城県",
      "prefectureNameTranslations": null,
      "cityName": null,
      "cityNameTranslations": null,
      "placeType": "quarter"
    },
    {
      "id": "ibaraki_unknown_上馬場",
      "osmId": 7922772164,
      "name": "上馬場",
      "nameKana": null,
      "nameTranslations": null,
      "latitude": 36.1970663,
      "longitude": 140.3408575,
      "lines": null,
      "prefectureId": "ibaraki",
      "cityId": null,
      "countryCode": "jp",
      "prefectureName": "茨城県",
      "prefectureNameTranslations": null,
      "cityName": null,
      "cityNameTranslations": null,
      "placeType": "quarter"
    },
    {
      "id": "ibaraki_unknown_竹原中郷",
      "osmId": 7922772165,
      "name": "竹原中郷",
      "nameKana": null,
      "nameTranslations": null,
      "latitude": 36.2010489,
      "longitude": 140.3238416,
      "lines": null,
      "prefectureId": "ibaraki",
      "cityId": null,
      "countryCode": "jp",
      "prefectureName": "茨城県",
      "prefectureNameTranslations": null,
      "cityName": null,
      "cityNameTranslations": null,
      "placeType": "quarter"
    },
    {
      "id": "ibaraki_unknown_中延",
      "osmId": 7922772166,
      "name": "中延",
      "nameKana": null,
      "nameTranslations": null,
      "latitude": 36.1996983,
      "longitude": 140.3607487,
      "lines": null,
      "prefectureId": "ibaraki",
      "cityId": null,
      "countryCode": "jp",
      "prefectureName": "茨城県",
      "prefectureNameTranslations": null,
      "cityName": null,
      "cityNameTranslations": null,
      "placeType": "quarter"
    },
    {
      "id": "ibaraki_unknown_野田",
      "osmId": 7922772167,
      "name": "野田",
      "nameKana": null,
      "nameTranslations": null,
      "latitude": 36.1972222,
      "longitude": 140.3729367,
      "lines": null,
      "prefectureId": "ibaraki",
      "cityId": null,
      "countryCode": "jp",
      "prefectureName": "茨城県",
      "prefectureNameTranslations": null,
      "cityName": null,
      "cityNameTranslations": null,
      "placeType": "quarter"
    },
    {
      "id": "ibaraki_unknown_羽鳥",
      "osmId": 7926685725,
      "name": "羽鳥",
      "nameKana": null,
      "nameTranslations": null,
      "latitude": 36.2480977,
      "longitude": 140.2910971,
      "lines": null,
      "prefectureId": "ibaraki",
      "cityId": null,
      "countryCode": "jp",
      "prefectureName": "茨城県",
      "prefectureNameTranslations": null,
      "cityName": null,
      "cityNameTranslations": null,
      "placeType": "quarter"
    },
    {
      "id": "ibaraki_unknown_羽刈",
      "osmId": 7926685726,
      "name": "羽刈",
      "nameKana": null,
      "nameTranslations": null,
      "latitude": 36.2552096,
      "longitude": 140.3012681,
      "lines": null,
      "prefectureId": "ibaraki",
      "cityId": null,
      "countryCode": "jp",
      "prefectureName": "茨城県",
      "prefectureNameTranslations": null,
      "cityName": null,
      "cityNameTranslations": null,
      "placeType": "quarter"
    },
    {
      "id": "ibaraki_unknown_納場",
      "osmId": 7926685727,
      "name": "納場",
      "nameKana": null,
      "nameTranslations": null,
      "latitude": 36.2580516,
      "longitude": 140.3219962,
      "lines": null,
      "prefectureId": "ibaraki",
      "cityId": null,
      "countryCode": "jp",
      "prefectureName": "茨城県",
      "prefectureNameTranslations": null,
      "cityName": null,
      "cityNameTranslations": null,
      "placeType": "quarter"
    },
    {
      "id": "ibaraki_unknown_江戸",
      "osmId": 7926685728,
      "name": "江戸",
      "nameKana": null,
      "nameTranslations": null,
      "latitude": 36.2539638,
      "longitude": 140.3118467,
      "lines": null,
      "prefectureId": "ibaraki",
      "cityId": null,
      "countryCode": "jp",
      "prefectureName": "茨城県",
      "prefectureNameTranslations": null,
      "cityName": null,
      "cityNameTranslations": null,
      "placeType": "quarter"
    },
    {
      "id": "ibaraki_unknown_堅倉",
      "osmId": 7926697768,
      "name": "堅倉",
      "nameKana": null,
      "nameTranslations": null,
      "latitude": 36.2360526,
      "longitude": 140.345149,
      "lines": null,
      "prefectureId": "ibaraki",
      "cityId": null,
      "countryCode": "jp",
      "prefectureName": "茨城県",
      "prefectureNameTranslations": null,
      "cityName": null,
      "cityNameTranslations": null,
      "placeType": "quarter"
    },
    {
      "id": "ibaraki_unknown_部室",
      "osmId": 7926697769,
      "name": "部室",
      "nameKana": null,
      "nameTranslations": null,
      "latitude": 36.2455365,
      "longitude": 140.3240776,
      "lines": null,
      "prefectureId": "ibaraki",
      "cityId": null,
      "countryCode": "jp",
      "prefectureName": "茨城県",
      "prefectureNameTranslations": null,
      "cityName": null,
      "cityNameTranslations": null,
      "placeType": "quarter"
    },
    {
      "id": "ibaraki_unknown_中野谷",
      "osmId": 7926697895,
      "name": "中野谷",
      "nameKana": null,
      "nameTranslations": null,
      "latitude": 36.2277964,
      "longitude": 140.3277683,
      "lines": null,
      "prefectureId": "ibaraki",
      "cityId": null,
      "countryCode": "jp",
      "prefectureName": "茨城県",
      "prefectureNameTranslations": null,
      "cityName": null,
      "cityNameTranslations": null,
      "placeType": "quarter"
    },
    {
      "id": "ibaraki_unknown_張星",
      "osmId": 7926697897,
      "name": "張星",
      "nameKana": null,
      "nameTranslations": null,
      "latitude": 36.2409331,
      "longitude": 140.3149581,
      "lines": null,
      "prefectureId": "ibaraki",
      "cityId": null,
      "countryCode": "jp",
      "prefectureName": "茨城県",
      "prefectureNameTranslations": null,
      "cityName": null,
      "cityNameTranslations": null,
      "placeType": "quarter"
    },
    {
      "id": "ibaraki_unknown_町屋",
      "osmId": 7972164050,
      "name": "町屋町",
      "nameKana": null,
      "nameTranslations": null,
      "latitude": 36.6100161,
      "longitude": 140.5480098,
      "lines": null,
      "prefectureId": "ibaraki",
      "cityId": null,
      "countryCode": "jp",
      "prefectureName": "茨城県",
      "prefectureNameTranslations": null,
      "cityName": null,
      "cityNameTranslations": null,
      "placeType": "quarter"
    },
    {
      "id": "ibaraki_unknown_常福地",
      "osmId": 7972164051,
      "name": "常福地町",
      "nameKana": null,
      "nameTranslations": null,
      "latitude": 36.5868114,
      "longitude": 140.5353498,
      "lines": null,
      "prefectureId": "ibaraki",
      "cityId": null,
      "countryCode": "jp",
      "prefectureName": "茨城県",
      "prefectureNameTranslations": null,
      "cityName": null,
      "cityNameTranslations": null,
      "placeType": "quarter"
    },
    {
      "id": "ibaraki_unknown_馬場",
      "osmId": 7972164052,
      "name": "馬場町",
      "nameKana": null,
      "nameTranslations": null,
      "latitude": 36.5527411,
      "longitude": 140.5261659,
      "lines": null,
      "prefectureId": "ibaraki",
      "cityId": null,
      "countryCode": "jp",
      "prefectureName": "茨城県",
      "prefectureNameTranslations": null,
      "cityName": null,
      "cityNameTranslations": null,
      "placeType": "quarter"
    },
    {
      "id": "ibaraki_unknown_machiicho",
      "osmId": 7972164053,
      "name": "増井町",
      "nameKana": "ましいちょう",
      "nameTranslations": {
        "en": "Machiicho"
      },
      "latitude": 36.5576018,
      "longitude": 140.5138921,
      "lines": null,
      "prefectureId": "ibaraki",
      "cityId": null,
      "countryCode": "jp",
      "prefectureName": "茨城県",
      "prefectureNameTranslations": null,
      "cityName": null,
      "cityNameTranslations": null,
      "placeType": "quarter"
    },
    {
      "id": "ibaraki_unknown_瑞龍",
      "osmId": 7972164054,
      "name": "瑞龍町",
      "nameKana": null,
      "nameTranslations": null,
      "latitude": 36.5641339,
      "longitude": 140.5305218,
      "lines": null,
      "prefectureId": "ibaraki",
      "cityId": null,
      "countryCode": "jp",
      "prefectureName": "茨城県",
      "prefectureNameTranslations": null,
      "cityName": null,
      "cityNameTranslations": null,
      "placeType": "quarter"
    },
    {
      "id": "ibaraki_unknown_田渡",
      "osmId": 7972164055,
      "name": "田渡町",
      "nameKana": null,
      "nameTranslations": null,
      "latitude": 36.5590668,
      "longitude": 140.5475163,
      "lines": null,
      "prefectureId": "ibaraki",
      "cityId": null,
      "countryCode": "jp",
      "prefectureName": "茨城県",
      "prefectureNameTranslations": null,
      "cityName": null,
      "cityNameTranslations": null,
      "placeType": "quarter"
    },
    {
      "id": "ibaraki_unknown_里野宮",
      "osmId": 7972164056,
      "name": "里野宮町",
      "nameKana": null,
      "nameTranslations": null,
      "latitude": 36.5687527,
      "longitude": 140.5396199,
      "lines": null,
      "prefectureId": "ibaraki",
      "cityId": null,
      "countryCode": "jp",
      "prefectureName": "茨城県",
      "prefectureNameTranslations": null,
      "cityName": null,
      "cityNameTranslations": null,
      "placeType": "quarter"
    },
    {
      "id": "ibaraki_unknown_白羽",
      "osmId": 7972164057,
      "name": "白羽町",
      "nameKana": null,
      "nameTranslations": null,
      "latitude": 36.5693214,
      "longitude": 140.5493617,
      "lines": null,
      "prefectureId": "ibaraki",
      "cityId": null,
      "countryCode": "jp",
      "prefectureName": "茨城県",
      "prefectureNameTranslations": null,
      "cityName": null,
      "cityNameTranslations": null,
      "placeType": "quarter"
    },
    {
      "id": "ibaraki_unknown_茅根",
      "osmId": 7972392816,
      "name": "茅根町",
      "nameKana": null,
      "nameTranslations": null,
      "latitude": 36.5836583,
      "longitude": 140.5482673,
      "lines": null,
      "prefectureId": "ibaraki",
      "cityId": null,
      "countryCode": "jp",
      "prefectureName": "茨城県",
      "prefectureNameTranslations": null,
      "cityName": null,
      "cityNameTranslations": null,
      "placeType": "quarter"
    },
    {
      "id": "ibaraki_unknown_西染",
      "osmId": 7972392817,
      "name": "西染町",
      "nameKana": null,
      "nameTranslations": null,
      "latitude": 36.6286162,
      "longitude": 140.4687022,
      "lines": null,
      "prefectureId": "ibaraki",
      "cityId": null,
      "countryCode": "jp",
      "prefectureName": "茨城県",
      "prefectureNameTranslations": null,
      "cityName": null,
      "cityNameTranslations": null,
      "placeType": "quarter"
    },
    {
      "id": "ibaraki_unknown_町田",
      "osmId": 7972392818,
      "name": "町田町",
      "nameKana": null,
      "nameTranslations": null,
      "latitude": 36.6217967,
      "longitude": 140.4887008,
      "lines": null,
      "prefectureId": "ibaraki",
      "cityId": null,
      "countryCode": "jp",
      "prefectureName": "茨城県",
      "prefectureNameTranslations": null,
      "cityName": null,
      "cityNameTranslations": null,
      "placeType": "quarter"
    },
    {
      "id": "ibaraki_unknown_中染",
      "osmId": 7972392819,
      "name": "中染町",
      "nameKana": null,
      "nameTranslations": null,
      "latitude": 36.6408071,
      "longitude": 140.4821776,
      "lines": null,
      "prefectureId": "ibaraki",
      "cityId": null,
      "countryCode": "jp",
      "prefectureName": "茨城県",
      "prefectureNameTranslations": null,
      "cityName": null,
      "cityNameTranslations": null,
      "placeType": "quarter"
    },
    {
      "id": "ibaraki_unknown_東染",
      "osmId": 7972392820,
      "name": "東染町",
      "nameKana": null,
      "nameTranslations": null,
      "latitude": 36.6586079,
      "longitude": 140.5026912,
      "lines": null,
      "prefectureId": "ibaraki",
      "cityId": null,
      "countryCode": "jp",
      "prefectureName": "茨城県",
      "prefectureNameTranslations": null,
      "cityName": null,
      "cityNameTranslations": null,
      "placeType": "quarter"
    },
    {
      "id": "ibaraki_unknown_上深荻",
      "osmId": 7972392821,
      "name": "上深荻町",
      "nameKana": null,
      "nameTranslations": null,
      "latitude": 36.6656995,
      "longitude": 140.5268526,
      "lines": null,
      "prefectureId": "ibaraki",
      "cityId": null,
      "countryCode": "jp",
      "prefectureName": "茨城県",
      "prefectureNameTranslations": null,
      "cityName": null,
      "cityNameTranslations": null,
      "placeType": "quarter"
    },
    {
      "id": "ibaraki_unknown_shimofukaogicho",
      "osmId": 7972392822,
      "name": "下深荻町",
      "nameKana": "しもふかおぎちょう",
      "nameTranslations": {
        "en": "Shimofukaogicho"
      },
      "latitude": 36.6408415,
      "longitude": 140.5393838,
      "lines": null,
      "prefectureId": "ibaraki",
      "cityId": null,
      "countryCode": "jp",
      "prefectureName": "茨城県",
      "prefectureNameTranslations": null,
      "cityName": null,
      "cityNameTranslations": null,
      "placeType": "quarter"
    },
    {
      "id": "ibaraki_unknown_西河内上",
      "osmId": 7972392823,
      "name": "西河内上町",
      "nameKana": null,
      "nameTranslations": null,
      "latitude": 36.63237,
      "longitude": 140.5140209,
      "lines": null,
      "prefectureId": "ibaraki",
      "cityId": null,
      "countryCode": "jp",
      "prefectureName": "茨城県",
      "prefectureNameTranslations": null,
      "cityName": null,
      "cityNameTranslations": null,
      "placeType": "quarter"
    },
    {
      "id": "ibaraki_unknown_西河内下",
      "osmId": 7972392824,
      "name": "西河内下町",
      "nameKana": null,
      "nameTranslations": null,
      "latitude": 36.6156999,
      "longitude": 140.5345773,
      "lines": null,
      "prefectureId": "ibaraki",
      "cityId": null,
      "countryCode": "jp",
      "prefectureName": "茨城県",
      "prefectureNameTranslations": null,
      "cityName": null,
      "cityNameTranslations": null,
      "placeType": "quarter"
    },
    {
      "id": "ibaraki_unknown_西河内中",
      "osmId": 7972392825,
      "name": "西河内中町",
      "nameKana": null,
      "nameTranslations": null,
      "latitude": 36.6262741,
      "longitude": 140.5305433,
      "lines": null,
      "prefectureId": "ibaraki",
      "cityId": null,
      "countryCode": "jp",
      "prefectureName": "茨城県",
      "prefectureNameTranslations": null,
      "cityName": null,
      "cityNameTranslations": null,
      "placeType": "quarter"
    },
    {
      "id": "ibaraki_unknown_higashigodocho",
      "osmId": 7972392826,
      "name": "東河内町",
      "nameKana": "ひがしごうどちょう",
      "nameTranslations": {
        "en": "Higashigodocho"
      },
      "latitude": 36.6337821,
      "longitude": 140.5547904,
      "lines": null,
      "prefectureId": "ibaraki",
      "cityId": null,
      "countryCode": "jp",
      "prefectureName": "茨城県",
      "prefectureNameTranslations": null,
      "cityName": null,
      "cityNameTranslations": null,
      "placeType": "quarter"
    },
    {
      "id": "ibaraki_unknown_真壁町原方",
      "osmId": 7982647938,
      "name": "真壁町原方",
      "nameKana": null,
      "nameTranslations": null,
      "latitude": 36.299113,
      "longitude": 140.101304,
      "lines": null,
      "prefectureId": "ibaraki",
      "cityId": null,
      "countryCode": "jp",
      "prefectureName": "茨城県",
      "prefectureNameTranslations": null,
      "cityName": null,
      "cityNameTranslations": null,
      "placeType": "quarter"
    },
    {
      "id": "ibaraki_unknown_真壁町上小幡",
      "osmId": 7982647939,
      "name": "真壁町上小幡",
      "nameKana": null,
      "nameTranslations": null,
      "latitude": 36.3055286,
      "longitude": 140.118835,
      "lines": null,
      "prefectureId": "ibaraki",
      "cityId": null,
      "countryCode": "jp",
      "prefectureName": "茨城県",
      "prefectureNameTranslations": null,
      "cityName": null,
      "cityNameTranslations": null,
      "placeType": "quarter"
    },
    {
      "id": "ibaraki_unknown_真壁町下小幡",
      "osmId": 7982647940,
      "name": "真壁町下小幡",
      "nameKana": null,
      "nameTranslations": null,
      "latitude": 36.2987498,
      "longitude": 140.1168823,
      "lines": null,
      "prefectureId": "ibaraki",
      "cityId": null,
      "countryCode": "jp",
      "prefectureName": "茨城県",
      "prefectureNameTranslations": null,
      "cityName": null,
      "cityNameTranslations": null,
      "placeType": "quarter"
    },
    {
      "id": "ibaraki_unknown_真壁町桜井",
      "osmId": 7982647941,
      "name": "真壁町桜井",
      "nameKana": null,
      "nameTranslations": null,
      "latitude": 36.2779428,
      "longitude": 140.1135778,
      "lines": null,
      "prefectureId": "ibaraki",
      "cityId": null,
      "countryCode": "jp",
      "prefectureName": "茨城県",
      "prefectureNameTranslations": null,
      "cityName": null,
      "cityNameTranslations": null,
      "placeType": "quarter"
    },
    {
      "id": "ibaraki_unknown_真壁町白井",
      "osmId": 7982647942,
      "name": "真壁町白井",
      "nameKana": null,
      "nameTranslations": null,
      "latitude": 36.2849656,
      "longitude": 140.1155305,
      "lines": null,
      "prefectureId": "ibaraki",
      "cityId": null,
      "countryCode": "jp",
      "prefectureName": "茨城県",
      "prefectureNameTranslations": null,
      "cityName": null,
      "cityNameTranslations": null,
      "placeType": "quarter"
    },
    {
      "id": "ibaraki_unknown_真壁町長岡",
      "osmId": 7982647943,
      "name": "真壁町長岡",
      "nameKana": null,
      "nameTranslations": null,
      "latitude": 36.2922126,
      "longitude": 140.11729,
      "lines": null,
      "prefectureId": "ibaraki",
      "cityId": null,
      "countryCode": "jp",
      "prefectureName": "茨城県",
      "prefectureNameTranslations": null,
      "cityName": null,
      "cityNameTranslations": null,
      "placeType": "quarter"
    },
    {
      "id": "ibaraki_unknown_真壁町亀熊",
      "osmId": 7982647944,
      "name": "真壁町亀熊",
      "nameKana": null,
      "nameTranslations": null,
      "latitude": 36.2875082,
      "longitude": 140.0894379,
      "lines": null,
      "prefectureId": "ibaraki",
      "cityId": null,
      "countryCode": "jp",
      "prefectureName": "茨城県",
      "prefectureNameTranslations": null,
      "cityName": null,
      "cityNameTranslations": null,
      "placeType": "quarter"
    },
    {
      "id": "ibaraki_unknown_真壁町上谷貝",
      "osmId": 7982647945,
      "name": "真壁町上谷貝",
      "nameKana": null,
      "nameTranslations": null,
      "latitude": 36.3058226,
      "longitude": 140.0569725,
      "lines": null,
      "prefectureId": "ibaraki",
      "cityId": null,
      "countryCode": "jp",
      "prefectureName": "茨城県",
      "prefectureNameTranslations": null,
      "cityName": null,
      "cityNameTranslations": null,
      "placeType": "quarter"
    },
    {
      "id": "ibaraki_unknown_真壁町大塚新田",
      "osmId": 7982647946,
      "name": "真壁町大塚新田",
      "nameKana": null,
      "nameTranslations": null,
      "latitude": 36.3074999,
      "longitude": 140.0681948,
      "lines": null,
      "prefectureId": "ibaraki",
      "cityId": null,
      "countryCode": "jp",
      "prefectureName": "茨城県",
      "prefectureNameTranslations": null,
      "cityName": null,
      "cityNameTranslations": null,
      "placeType": "quarter"
    },
    {
      "id": "ibaraki_unknown_真壁町東矢貝",
      "osmId": 7982647947,
      "name": "真壁町東矢貝",
      "nameKana": null,
      "nameTranslations": null,
      "latitude": 36.2980062,
      "longitude": 140.0717997,
      "lines": null,
      "prefectureId": "ibaraki",
      "cityId": null,
      "countryCode": "jp",
      "prefectureName": "茨城県",
      "prefectureNameTranslations": null,
      "cityName": null,
      "cityNameTranslations": null,
      "placeType": "quarter"
    },
    {
      "id": "ibaraki_unknown_真壁町下谷貝",
      "osmId": 7982647948,
      "name": "真壁町下谷貝",
      "nameKana": null,
      "nameTranslations": null,
      "latitude": 36.2885978,
      "longitude": 140.0615859,
      "lines": null,
      "prefectureId": "ibaraki",
      "cityId": null,
      "countryCode": "jp",
      "prefectureName": "茨城県",
      "prefectureNameTranslations": null,
      "cityName": null,
      "cityNameTranslations": null,
      "placeType": "quarter"
    },
    {
      "id": "ibaraki_unknown_真壁町細芝",
      "osmId": 7982647949,
      "name": "真壁町細芝",
      "nameKana": null,
      "nameTranslations": null,
      "latitude": 36.2805029,
      "longitude": 140.0631094,
      "lines": null,
      "prefectureId": "ibaraki",
      "cityId": null,
      "countryCode": "jp",
      "prefectureName": "茨城県",
      "prefectureNameTranslations": null,
      "cityName": null,
      "cityNameTranslations": null,
      "placeType": "quarter"
    },
    {
      "id": "ibaraki_unknown_真壁町塙世",
      "osmId": 7982647950,
      "name": "真壁町塙世",
      "nameKana": null,
      "nameTranslations": null,
      "latitude": 36.2803472,
      "longitude": 140.0793314,
      "lines": null,
      "prefectureId": "ibaraki",
      "cityId": null,
      "countryCode": "jp",
      "prefectureName": "茨城県",
      "prefectureNameTranslations": null,
      "cityName": null,
      "cityNameTranslations": null,
      "placeType": "quarter"
    },
    {
      "id": "ibaraki_unknown_真壁町源法寺",
      "osmId": 7982647951,
      "name": "真壁町源法寺",
      "nameKana": null,
      "nameTranslations": null,
      "latitude": 36.2776661,
      "longitude": 140.0710058,
      "lines": null,
      "prefectureId": "ibaraki",
      "cityId": null,
      "countryCode": "jp",
      "prefectureName": "茨城県",
      "prefectureNameTranslations": null,
      "cityName": null,
      "cityNameTranslations": null,
      "placeType": "quarter"
    },
    {
      "id": "ibaraki_unknown_真壁町酒寄",
      "osmId": 7982647952,
      "name": "真壁町酒寄",
      "nameKana": null,
      "nameTranslations": null,
      "latitude": 36.2349968,
      "longitude": 140.0680661,
      "lines": null,
      "prefectureId": "ibaraki",
      "cityId": null,
      "countryCode": "jp",
      "prefectureName": "茨城県",
      "prefectureNameTranslations": null,
      "cityName": null,
      "cityNameTranslations": null,
      "placeType": "quarter"
    },
    {
      "id": "ibaraki_unknown_真壁町椎尾",
      "osmId": 7982647953,
      "name": "真壁町椎尾",
      "nameKana": null,
      "nameTranslations": null,
      "latitude": 36.2499147,
      "longitude": 140.0759625,
      "lines": null,
      "prefectureId": "ibaraki",
      "cityId": null,
      "countryCode": "jp",
      "prefectureName": "茨城県",
      "prefectureNameTranslations": null,
      "cityName": null,
      "cityNameTranslations": null,
      "placeType": "quarter"
    },
    {
      "id": "ibaraki_unknown_真壁町羽鳥",
      "osmId": 7982647954,
      "name": "真壁町羽鳥",
      "nameKana": null,
      "nameTranslations": null,
      "latitude": 36.2536696,
      "longitude": 140.0894594,
      "lines": null,
      "prefectureId": "ibaraki",
      "cityId": null,
      "countryCode": "jp",
      "prefectureName": "茨城県",
      "prefectureNameTranslations": null,
      "cityName": null,
      "cityNameTranslations": null,
      "placeType": "quarter"
    },
    {
      "id": "ibaraki_unknown_真壁町東山田",
      "osmId": 7982647955,
      "name": "真壁町東山田",
      "nameKana": null,
      "nameTranslations": null,
      "latitude": 36.2550366,
      "longitude": 140.0808334,
      "lines": null,
      "prefectureId": "ibaraki",
      "cityId": null,
      "countryCode": "jp",
      "prefectureName": "茨城県",
      "prefectureNameTranslations": null,
      "cityName": null,
      "cityNameTranslations": null,
      "placeType": "quarter"
    },
    {
      "id": "ibaraki_unknown_真壁町田",
      "osmId": 7982647956,
      "name": "真壁町田",
      "nameKana": null,
      "nameTranslations": null,
      "latitude": 36.2669404,
      "longitude": 140.0998878,
      "lines": null,
      "prefectureId": "ibaraki",
      "cityId": null,
      "countryCode": "jp",
      "prefectureName": "茨城県",
      "prefectureNameTranslations": null,
      "cityName": null,
      "cityNameTranslations": null,
      "placeType": "quarter"
    },
    {
      "id": "ibaraki_unknown_真壁町山尾",
      "osmId": 7982647957,
      "name": "真壁町山尾",
      "nameKana": null,
      "nameTranslations": null,
      "latitude": 36.2673729,
      "longitude": 140.1108312,
      "lines": null,
      "prefectureId": "ibaraki",
      "cityId": null,
      "countryCode": "jp",
      "prefectureName": "茨城県",
      "prefectureNameTranslations": null,
      "cityName": null,
      "cityNameTranslations": null,
      "placeType": "quarter"
    },
    {
      "id": "ibaraki_unknown_makabecho_furushiro",
      "osmId": 7982647958,
      "name": "真壁町古城",
      "nameKana": "まかべちょうふるしろ",
      "nameTranslations": {
        "en": "Makabecho Furushiro"
      },
      "latitude": 36.272684,
      "longitude": 140.1042223,
      "lines": null,
      "prefectureId": "ibaraki",
      "cityId": null,
      "countryCode": "jp",
      "prefectureName": "茨城県",
      "prefectureNameTranslations": null,
      "cityName": null,
      "cityNameTranslations": null,
      "placeType": "quarter"
    },
    {
      "id": "ibaraki_unknown_真壁町飯塚",
      "osmId": 7982647959,
      "name": "真壁町飯塚",
      "nameKana": null,
      "nameTranslations": null,
      "latitude": 36.2760919,
      "longitude": 140.095253,
      "lines": null,
      "prefectureId": "ibaraki",
      "cityId": null,
      "countryCode": "jp",
      "prefectureName": "茨城県",
      "prefectureNameTranslations": null,
      "cityName": null,
      "cityNameTranslations": null,
      "placeType": "quarter"
    },
    {
      "id": "ibaraki_unknown_inoue",
      "osmId": 8088435354,
      "name": "井上",
      "nameKana": "いのうえ",
      "nameTranslations": {
        "en": "Inoue"
      },
      "latitude": 36.0645497,
      "longitude": 140.4444131,
      "lines": null,
      "prefectureId": "ibaraki",
      "cityId": null,
      "countryCode": "jp",
      "prefectureName": "茨城県",
      "prefectureNameTranslations": null,
      "cityName": null,
      "cityNameTranslations": null,
      "placeType": "quarter"
    },
    {
      "id": "ibaraki_unknown_katsuragi_nesaki",
      "osmId": 8394127018,
      "name": "葛城根崎",
      "nameKana": "かつらぎねさき",
      "nameTranslations": {
        "en": "Katsuragi-Nesaki"
      },
      "latitude": 36.0808062,
      "longitude": 140.0880968,
      "lines": null,
      "prefectureId": "ibaraki",
      "cityId": null,
      "countryCode": "jp",
      "prefectureName": "茨城県",
      "prefectureNameTranslations": null,
      "cityName": null,
      "cityNameTranslations": null,
      "placeType": "quarter"
    },
    {
      "id": "ibaraki_unknown_nishiohashi",
      "osmId": 8394127019,
      "name": "西大橋",
      "nameKana": "にしおおはし",
      "nameTranslations": {
        "en": "Nishiohashi"
      },
      "latitude": 36.0757596,
      "longitude": 140.0926566,
      "lines": null,
      "prefectureId": "ibaraki",
      "cityId": null,
      "countryCode": "jp",
      "prefectureName": "茨城県",
      "prefectureNameTranslations": null,
      "cityName": null,
      "cityNameTranslations": null,
      "placeType": "quarter"
    },