{
  "fetchedAt": "2025-12-12T05:19:52.289Z",
  "prefecture": {
    "id": "miyagi",
    "name": "宮城県"
  },
  "cities": [
    {
      "id": "miyagi_ishinomaki",
      "osmId": 752184841,
      "prefectureId": "miyagi",
      "name": "石巻市",
      "nameKana": "いしのまきし",
      "nameTranslations": {
        "en": "Ishinomaki"
      },
      "type": "市",
      "countryCode": "jp",
      "latitude": 38.4341281,
      "longitude": 141.3028087
    },
    {
      "id": "miyagi_osaki",
      "osmId": 752184845,
      "prefectureId": "miyagi",
      "name": "大崎市",
      "nameKana": "おおさきし",
      "nameTranslations": {
        "en": "Osaki"
      },
      "type": "市",
      "countryCode": "jp",
      "latitude": 38.5776571,
      "longitude": 140.9557224
    },
    {
      "id": "miyagi_natori",
      "osmId": 752184849,
      "prefectureId": "miyagi",
      "name": "名取市",
      "nameKana": null,
      "nameTranslations": {
        "en": "Natori"
      },
      "type": "市",
      "countryCode": "jp",
      "latitude": 38.171499,
      "longitude": 140.8917335
    },
    {
      "id": "miyagi_kurihara",
      "osmId": 752184858,
      "prefectureId": "miyagi",
      "name": "栗原市",
      "nameKana": "くりはらし",
      "nameTranslations": {
        "en": "Kurihara"
      },
      "type": "市",
      "countryCode": "jp",
      "latitude": 38.7300697,
      "longitude": 141.0209417
    },
    {
      "id": "miyagi_sendai",
      "osmId": 752184864,
      "prefectureId": "miyagi",
      "name": "仙台市",
      "nameKana": null,
      "nameTranslations": {
        "en": "Sendai"
      },
      "type": "市",
      "countryCode": "jp",
      "latitude": 38.2677554,
      "longitude": 140.8691498
    },
    {
      "id": "miyagi_tagajo",
      "osmId": 752184868,
      "prefectureId": "miyagi",
      "name": "多賀城市",
      "nameKana": "たがじょうし",
      "nameTranslations": {
        "en": "Tagajo"
      },
      "type": "市",
      "countryCode": "jp",
      "latitude": 38.2938132,
      "longitude": 141.0042642
    },
    {
      "id": "miyagi_higashimatsushima",
      "osmId": 752184872,
      "prefectureId": "miyagi",
      "name": "東松島市",
      "nameKana": "ひがしまつしまし",
      "nameTranslations": {
        "en": "Higashimatsushima"
      },
      "type": "市",
      "countryCode": "jp",
      "latitude": 38.4263868,
      "longitude": 141.2110467
    },
    {
      "id": "miyagi_shiroishi",
      "osmId": 752184876,
      "prefectureId": "miyagi",
      "name": "白石市",
      "nameKana": "しろいしし",
      "nameTranslations": {
        "en": "Shiroishi"
      },
      "type": "市",
      "countryCode": "jp",
      "latitude": 38.0023671,
      "longitude": 140.6200214
    },
    {
      "id": "miyagi_iwanuma",
      "osmId": 752184879,
      "prefectureId": "miyagi",
      "name": "岩沼市",
      "nameKana": null,
      "nameTranslations": {
        "en": "Iwanuma"
      },
      "type": "市",
      "countryCode": "jp",
      "latitude": 38.1042874,
      "longitude": 140.8701494
    },
    {
      "id": "miyagi_kesennuma",
      "osmId": 752184881,
      "prefectureId": "miyagi",
      "name": "気仙沼市",
      "nameKana": "けせんぬまし",
      "nameTranslations": {
        "en": "Kesennuma"
      },
      "type": "市",
      "countryCode": "jp",
      "latitude": 38.9080078,
      "longitude": 141.5698223
    },
    {
      "id": "miyagi_shiogama",
      "osmId": 752184887,
      "prefectureId": "miyagi",
      "name": "塩竈市",
      "nameKana": "しおがまし",
      "nameTranslations": {
        "en": "Shiogama"
      },
      "type": "市",
      "countryCode": "jp",
      "latitude": 38.3143384,
      "longitude": 141.0218221
    },
    {
      "id": "miyagi_kakuda",
      "osmId": 752184893,
      "prefectureId": "miyagi",
      "name": "角田市",
      "nameKana": "かくだし",
      "nameTranslations": {
        "en": "Kakuda"
      },
      "type": "市",
      "countryCode": "jp",
      "latitude": 37.9770215,
      "longitude": 140.7820521
    },
    {
      "id": "miyagi_tome",
      "osmId": 3162509661,
      "prefectureId": "miyagi",
      "name": "登米市",
      "nameKana": "とめし",
      "nameTranslations": {
        "en": "Tome"
      },
      "type": "市",
      "countryCode": "jp",
      "latitude": 38.6918037,
      "longitude": 141.1877688
    },
    {
      "id": "miyagi_tomiya",
      "osmId": 3266471846,
      "prefectureId": "miyagi",
      "name": "富谷市",
      "nameKana": "とみやし",
      "nameTranslations": {
        "en": "Tomiya"
      },
      "type": "市",
      "countryCode": "jp",
      "latitude": 38.3998594,
      "longitude": 140.8953466
    }
  ],
  "machi": [
    {
      "id": "miyagi_unknown_台",
      "osmId": 1307505860,
      "name": "台",
      "nameKana": null,
      "nameTranslations": null,
      "latitude": 38.9363188,
      "longitude": 141.5188764,
      "lines": null,
      "prefectureId": "miyagi",
      "cityId": null,
      "countryCode": "jp",
      "prefectureName": "宮城県",
      "prefectureNameTranslations": null,
      "cityName": null,
      "cityNameTranslations": null,
      "placeType": "quarter"
    },
    {
      "id": "miyagi_unknown_新早稲谷",
      "osmId": 1307505861,
      "name": "新早稲谷",
      "nameKana": null,
      "nameTranslations": null,
      "latitude": 38.942005,
      "longitude": 141.5339521,
      "lines": null,
      "prefectureId": "miyagi",
      "cityId": null,
      "countryCode": "jp",
      "prefectureName": "宮城県",
      "prefectureNameTranslations": null,
      "cityName": null,
      "cityNameTranslations": null,
      "placeType": "quarter"
    },
    {
      "id": "miyagi_unknown_関根",
      "osmId": 1307505863,
      "name": "関根",
      "nameKana": null,
      "nameTranslations": null,
      "latitude": 38.9444416,
      "longitude": 141.5163568,
      "lines": null,
      "prefectureId": "miyagi",
      "cityId": null,
      "countryCode": "jp",
      "prefectureName": "宮城県",
      "prefectureNameTranslations": null,
      "cityName": null,
      "cityNameTranslations": null,
      "placeType": "quarter"
    },
    {
      "id": "miyagi_unknown_船岡土手内",
      "osmId": 3382307991,
      "name": "船岡土手内",
      "nameKana": null,
      "nameTranslations": null,
      "latitude": 38.0614477,
      "longitude": 140.7738035,
      "lines": null,
      "prefectureId": "miyagi",
      "cityId": null,
      "countryCode": "jp",
      "prefectureName": "宮城県",
      "prefectureNameTranslations": null,
      "cityName": null,
      "cityNameTranslations": null,
      "placeType": "quarter"
    },
    {
      "id": "miyagi_unknown_船岡中央",
      "osmId": 3382307992,
      "name": "船岡中央",
      "nameKana": null,
      "nameTranslations": null,
      "latitude": 38.0560336,
      "longitude": 140.7675052,
      "lines": null,
      "prefectureId": "miyagi",
      "cityId": null,
      "countryCode": "jp",
      "prefectureName": "宮城県",
      "prefectureNameTranslations": null,
      "cityName": null,
      "cityNameTranslations": null,
      "placeType": "quarter"
    },
    {
      "id": "miyagi_unknown_jinjiro",
      "osmId": 3382318804,
      "name": "神次郎",
      "nameKana": "じんじろう",
      "nameTranslations": {
        "en": "Jinjiro"
      },
      "latitude": 38.0378446,
      "longitude": 140.7900898,
      "lines": null,
      "prefectureId": "miyagi",
      "cityId": null,
      "countryCode": "jp",
      "prefectureName": "宮城県",
      "prefectureNameTranslations": null,
      "cityName": null,
      "cityNameTranslations": null,
      "placeType": "quarter"
    },
    {
      "id": "miyagi_unknown_船岡新栄",
      "osmId": 3382318805,
      "name": "船岡新栄",
      "nameKana": null,
      "nameTranslations": null,
      "latitude": 38.051138,
      "longitude": 140.7810893,
      "lines": null,
      "prefectureId": "miyagi",
      "cityId": null,
      "countryCode": "jp",
      "prefectureName": "宮城県",
      "prefectureNameTranslations": null,
      "cityName": null,
      "cityNameTranslations": null,
      "placeType": "quarter"
    },
    {
      "id": "miyagi_unknown_船岡東",
      "osmId": 3382318806,
      "name": "船岡東",
      "nameKana": null,
      "nameTranslations": null,
      "latitude": 38.0572207,
      "longitude": 140.7724848,
      "lines": null,
      "prefectureId": "miyagi",
      "cityId": null,
      "countryCode": "jp",
      "prefectureName": "宮城県",
      "prefectureNameTranslations": null,
      "cityName": null,
      "cityNameTranslations": null,
      "placeType": "quarter"
    },
    {
      "id": "miyagi_unknown_funaoka",
      "osmId": 3382318807,
      "name": "船岡",
      "nameKana": "ふなおか",
      "nameTranslations": {
        "en": "Funaoka"
      },
      "latitude": 38.0588871,
      "longitude": 140.7846111,
      "lines": null,
      "prefectureId": "miyagi",
      "cityId": null,
      "countryCode": "jp",
      "prefectureName": "宮城県",
      "prefectureNameTranslations": null,
      "cityName": null,
      "cityNameTranslations": null,
      "placeType": "quarter"
    },
    {
      "id": "miyagi_unknown_kaminomyo",
      "osmId": 3382318809,
      "name": "上名生",
      "nameKana": "かみのみょう",
      "nameTranslations": {
        "en": "Kaminomyo"
      },
      "latitude": 38.0573641,
      "longitude": 140.7927419,
      "lines": null,
      "prefectureId": "miyagi",
      "cityId": null,
      "countryCode": "jp",
      "prefectureName": "宮城県",
      "prefectureNameTranslations": null,
      "cityName": null,
      "cityNameTranslations": null,
      "placeType": "quarter"
    },
    {
      "id": "miyagi_unknown_剣崎",
      "osmId": 3382318810,
      "name": "剣崎",
      "nameKana": null,
      "nameTranslations": null,
      "latitude": 38.0622174,
      "longitude": 140.8009172,
      "lines": null,
      "prefectureId": "miyagi",
      "cityId": null,
      "countryCode": "jp",
      "prefectureName": "宮城県",
      "prefectureNameTranslations": null,
      "cityName": null,
      "cityNameTranslations": null,
      "placeType": "quarter"
    },
    {
      "id": "miyagi_unknown_shimonomyo",
      "osmId": 3382318811,
      "name": "下名生",
      "nameKana": "しものみょう",
      "nameTranslations": {
        "en": "Shimonomyo"
      },
      "latitude": 38.0602613,
      "longitude": 140.8059421,
      "lines": null,
      "prefectureId": "miyagi",
      "cityId": null,
      "countryCode": "jp",
      "prefectureName": "宮城県",
      "prefectureNameTranslations": null,
      "cityName": null,
      "cityNameTranslations": null,
      "placeType": "quarter"
    },
    {
      "id": "miyagi_unknown_osaka",
      "osmId": 3382318812,
      "name": "小坂",
      "nameKana": "おさか",
      "nameTranslations": {
        "en": "Osaka"
      },
      "latitude": 38.0432814,
      "longitude": 140.8069893,
      "lines": null,
      "prefectureId": "miyagi",
      "cityId": null,
      "countryCode": "jp",
      "prefectureName": "宮城県",
      "prefectureNameTranslations": null,
      "cityName": null,
      "cityNameTranslations": null,
      "placeType": "quarter"
    },
    {
      "id": "miyagi_unknown_船岡南",
      "osmId": 3382318813,
      "name": "船岡南",
      "nameKana": null,
      "nameTranslations": null,
      "latitude": 38.0519802,
      "longitude": 140.7698975,
      "lines": null,
      "prefectureId": "miyagi",
      "cityId": null,
      "countryCode": "jp",
      "prefectureName": "宮城県",
      "prefectureNameTranslations": null,
      "cityName": null,
      "cityNameTranslations": null,
      "placeType": "quarter"
    },
    {
      "id": "miyagi_unknown_船岡西",
      "osmId": 3382318814,
      "name": "船岡西",
      "nameKana": null,
      "nameTranslations": null,
      "latitude": 38.0563783,
      "longitude": 140.7632474,
      "lines": null,
      "prefectureId": "miyagi",
      "cityId": null,
      "countryCode": "jp",
      "prefectureName": "宮城県",
      "prefectureNameTranslations": null,
      "cityName": null,
      "cityNameTranslations": null,
      "placeType": "quarter"
    },
    {
      "id": "miyagi_unknown_北船岡",
      "osmId": 3382318815,
      "name": "北船岡",
      "nameKana": null,
      "nameTranslations": null,
      "latitude": 38.061859,
      "longitude": 140.763091,
      "lines": null,
      "prefectureId": "miyagi",
      "cityId": null,
      "countryCode": "jp",
      "prefectureName": "宮城県",
      "prefectureNameTranslations": null,
      "cityName": null,
      "cityNameTranslations": null,
      "placeType": "quarter"
    },
    {
      "id": "miyagi_unknown_西船迫",
      "osmId": 3382318816,
      "name": "西船迫",
      "nameKana": null,
      "nameTranslations": null,
      "latitude": 38.0654179,
      "longitude": 140.7616096,
      "lines": null,
      "prefectureId": "miyagi",
      "cityId": null,
      "countryCode": "jp",
      "prefectureName": "宮城県",
      "prefectureNameTranslations": null,
      "cityName": null,
      "cityNameTranslations": null,
      "placeType": "quarter"
    },
    {
      "id": "miyagi_unknown_東船迫",
      "osmId": 3382318817,
      "name": "東船迫",
      "nameKana": null,
      "nameTranslations": null,
      "latitude": 38.0654898,
      "longitude": 140.7821198,
      "lines": null,
      "prefectureId": "miyagi",
      "cityId": null,
      "countryCode": "jp",
      "prefectureName": "宮城県",
      "prefectureNameTranslations": null,
      "cityName": null,
      "cityNameTranslations": null,
      "placeType": "quarter"
    },
    {
      "id": "miyagi_unknown_funabasama",
      "osmId": 3382318818,
      "name": "船迫",
      "nameKana": "ふなばさま",
      "nameTranslations": {
        "en": "Funabasama"
      },
      "latitude": 38.0801215,
      "longitude": 140.7837893,
      "lines": null,
      "prefectureId": "miyagi",
      "cityId": null,
      "countryCode": "jp",
      "prefectureName": "宮城県",
      "prefectureNameTranslations": null,
      "cityName": null,
      "cityNameTranslations": null,
      "placeType": "quarter"
    },
    {
      "id": "miyagi_unknown_槻木白幡",
      "osmId": 3382318819,
      "name": "槻木白幡",
      "nameKana": null,
      "nameTranslations": null,
      "latitude": 38.0731277,
      "longitude": 140.80942,
      "lines": null,
      "prefectureId": "miyagi",
      "cityId": null,
      "countryCode": "jp",
      "prefectureName": "宮城県",
      "prefectureNameTranslations": null,
      "cityName": null,
      "cityNameTranslations": null,
      "placeType": "quarter"
    },
    {
      "id": "miyagi_unknown_槻木西",
      "osmId": 3382318820,
      "name": "槻木西",
      "nameKana": null,
      "nameTranslations": null,
      "latitude": 38.0734994,
      "longitude": 140.8036479,
      "lines": null,
      "prefectureId": "miyagi",
      "cityId": null,
      "countryCode": "jp",
      "prefectureName": "宮城県",
      "prefectureNameTranslations": null,
      "cityName": null,
      "cityNameTranslations": null,
      "placeType": "quarter"
    },
    {
      "id": "miyagi_unknown_槻木上",
      "osmId": 3382318821,
      "name": "槻木上町",
      "nameKana": null,
      "nameTranslations": null,
      "latitude": 38.0772413,
      "longitude": 140.8124105,
      "lines": null,
      "prefectureId": "miyagi",
      "cityId": null,
      "countryCode": "jp",
      "prefectureName": "宮城県",
      "prefectureNameTranslations": null,
      "cityName": null,
      "cityNameTranslations": null,
      "placeType": "quarter"
    },
    {
      "id": "miyagi_unknown_槻木下",
      "osmId": 3382318822,
      "name": "槻木下町",
      "nameKana": null,
      "nameTranslations": null,
      "latitude": 38.0799269,
      "longitude": 140.8147746,
      "lines": null,
      "prefectureId": "miyagi",
      "cityId": null,
      "countryCode": "jp",
      "prefectureName": "宮城県",
      "prefectureNameTranslations": null,
      "cityName": null,
      "cityNameTranslations": null,
      "placeType": "quarter"
    },
    {
      "id": "miyagi_unknown_槻木東",
      "osmId": 3382318823,
      "name": "槻木東",
      "nameKana": null,
      "nameTranslations": null,
      "latitude": 38.0818021,
      "longitude": 140.8164292,
      "lines": null,
      "prefectureId": "miyagi",
      "cityId": null,
      "countryCode": "jp",
      "prefectureName": "宮城県",
      "prefectureNameTranslations": null,
      "cityName": null,
      "cityNameTranslations": null,
      "placeType": "quarter"
    },
    {
      "id": "miyagi_unknown_槻木駅西",
      "osmId": 3382318824,
      "name": "槻木駅西",
      "nameKana": null,
      "nameTranslations": null,
      "latitude": 38.0811108,
      "longitude": 140.8089487,
      "lines": null,
      "prefectureId": "miyagi",
      "cityId": null,
      "countryCode": "jp",
      "prefectureName": "宮城県",
      "prefectureNameTranslations": null,
      "cityName": null,
      "cityNameTranslations": null,
      "placeType": "quarter"
    },
    {
      "id": "miyagi_unknown_tsukinoki",
      "osmId": 3382318825,
      "name": "槻木",
      "nameKana": "つきのき",
      "nameTranslations": {
        "en": "Tsukinoki"
      },
      "latitude": 38.0797528,
      "longitude": 140.8041757,
      "lines": null,
      "prefectureId": "miyagi",
      "cityId": null,
      "countryCode": "jp",
      "prefectureName": "宮城県",
      "prefectureNameTranslations": null,
      "cityName": null,
      "cityNameTranslations": null,
      "placeType": "quarter"
    },
    {
      "id": "miyagi_unknown_yokkaichiba",
      "osmId": 3382318826,
      "name": "四日市場",
      "nameKana": "よっかいちば",
      "nameTranslations": {
        "en": "Yokkaichiba"
      },
      "latitude": 38.0873844,
      "longitude": 140.818366,
      "lines": null,
      "prefectureId": "miyagi",
      "cityId": null,
      "countryCode": "jp",
      "prefectureName": "宮城県",
      "prefectureNameTranslations": null,
      "cityName": null,
      "cityNameTranslations": null,
      "placeType": "quarter"
    },
    {
      "id": "miyagi_unknown_kamikawana",
      "osmId": 3382318827,
      "name": "上川名",
      "nameKana": "かみかわな",
      "nameTranslations": {
        "en": "Kamikawana"
      },
      "latitude": 38.101534,
      "longitude": 140.8125507,
      "lines": null,
      "prefectureId": "miyagi",
      "cityId": null,
      "countryCode": "jp",
      "prefectureName": "宮城県",
      "prefectureNameTranslations": null,
      "cityName": null,
      "cityNameTranslations": null,
      "placeType": "quarter"
    },
    {
      "id": "miyagi_unknown_松ヶ越",
      "osmId": 3382318828,
      "name": "松ヶ越",
      "nameKana": null,
      "nameTranslations": null,
      "latitude": 38.0863306,
      "longitude": 140.7973357,
      "lines": null,
      "prefectureId": "miyagi",
      "cityId": null,
      "countryCode": "jp",
      "prefectureName": "宮城県",
      "prefectureNameTranslations": null,
      "cityName": null,
      "cityNameTranslations": null,
      "placeType": "quarter"
    },
    {
      "id": "miyagi_unknown_narita",
      "osmId": 3382318829,
      "name": "成田",
      "nameKana": "なりた",
      "nameTranslations": {
        "en": "Narita"
      },
      "latitude": 38.0861311,
      "longitude": 140.7634348,
      "lines": null,
      "prefectureId": "miyagi",
      "cityId": null,
      "countryCode": "jp",
      "prefectureName": "宮城県",
      "prefectureNameTranslations": null,
      "cityName": null,
      "cityNameTranslations": null,
      "placeType": "quarter"
    },
    {
      "id": "miyagi_unknown_irimada",
      "osmId": 3382318831,
      "name": "入間田",
      "nameKana": "いりまだ",
      "nameTranslations": {
        "en": "Irimada"
      },
      "latitude": 38.110948,
      "longitude": 140.7903152,
      "lines": null,
      "prefectureId": "miyagi",
      "cityId": null,
      "countryCode": "jp",
      "prefectureName": "宮城県",
      "prefectureNameTranslations": null,
      "cityName": null,
      "cityNameTranslations": null,
      "placeType": "quarter"
    },
    {
      "id": "miyagi_unknown_hazaka",
      "osmId": 3382318832,
      "name": "葉坂",
      "nameKana": "はざか",
      "nameTranslations": {
        "en": "Hazaka"
      },
      "latitude": 38.1039334,
      "longitude": 140.7757288,
      "lines": null,
      "prefectureId": "miyagi",
      "cityId": null,
      "countryCode": "jp",
      "prefectureName": "宮城県",
      "prefectureNameTranslations": null,
      "cityName": null,
      "cityNameTranslations": null,
      "placeType": "quarter"
    },
    {
      "id": "miyagi_unknown_tomizawa",
      "osmId": 3382318833,
      "name": "富沢",
      "nameKana": "とみざわ",
      "nameTranslations": {
        "en": "Tomizawa"
      },
      "latitude": 38.1116438,
      "longitude": 140.8086187,
      "lines": null,
      "prefectureId": "miyagi",
      "cityId": null,
      "countryCode": "jp",
      "prefectureName": "宮城県",
      "prefectureNameTranslations": null,
      "cityName": null,
      "cityNameTranslations": null,
      "placeType": "quarter"
    },
    {
      "id": "miyagi_unknown_西住",
      "osmId": 3382318835,
      "name": "西住町",
      "nameKana": null,
      "nameTranslations": null,
      "latitude": 38.0479818,
      "longitude": 140.7458095,
      "lines": null,
      "prefectureId": "miyagi",
      "cityId": null,
      "countryCode": "jp",
      "prefectureName": "宮城県",
      "prefectureNameTranslations": null,
      "cityName": null,
      "cityNameTranslations": null,
      "placeType": "quarter"
    },
    {
      "id": "miyagi_unknown_大住",
      "osmId": 3382318838,
      "name": "大住町",
      "nameKana": null,
      "nameTranslations": null,
      "latitude": 38.0449267,
      "longitude": 140.7518161,
      "lines": null,
      "prefectureId": "miyagi",
      "cityId": null,
      "countryCode": "jp",
      "prefectureName": "宮城県",
      "prefectureNameTranslations": null,
      "cityName": null,
      "cityNameTranslations": null,
      "placeType": "quarter"
    },
    {
      "id": "miyagi_unknown_nakanomyo",
      "osmId": 3385471246,
      "name": "中名生",
      "nameKana": "なかのみょう",
      "nameTranslations": {
        "en": "Nakanomyo"
      },
      "latitude": 38.0575668,
      "longitude": 140.7969889,
      "lines": null,
      "prefectureId": "miyagi",
      "cityId": null,
      "countryCode": "jp",
      "prefectureName": "宮城県",
      "prefectureNameTranslations": null,
      "cityName": null,
      "cityNameTranslations": null,
      "placeType": "quarter"
    },
    {
      "id": "miyagi_unknown_tashiro_shore",
      "osmId": 4564967900,
      "name": "田代浜",
      "nameKana": "たしろ はま",
      "nameTranslations": {
        "en": "Tashiro shore"
      },
      "latitude": 38.299912,
      "longitude": 141.4215745,
      "lines": null,
      "prefectureId": "miyagi",
      "cityId": null,
      "countryCode": "jp",
      "prefectureName": "宮城県",
      "prefectureNameTranslations": null,
      "cityName": null,
      "cityNameTranslations": null,
      "placeType": "quarter"
    },
    {
      "id": "miyagi_unknown_enoshima",
      "osmId": 4594265235,
      "name": "江島",
      "nameKana": "えのしま",
      "nameTranslations": {
        "en": "Enoshima"
      },
      "latitude": 38.3992269,
      "longitude": 141.5941954,
      "lines": null,
      "prefectureId": "miyagi",
      "cityId": null,
      "countryCode": "jp",
      "prefectureName": "宮城県",
      "prefectureNameTranslations": null,
      "cityName": null,
      "cityNameTranslations": null,
      "placeType": "quarter"
    },
    {
      "id": "miyagi_unknown_urato_sabusawa",
      "osmId": 4628761836,
      "name": "浦戸寒風沢",
      "nameKana": "うらとさぶさわ",
      "nameTranslations": {
        "en": "Urato-Sabusawa"
      },
      "latitude": 38.3363527,
      "longitude": 141.119923,
      "lines": null,
      "prefectureId": "miyagi",
      "cityId": null,
      "countryCode": "jp",
      "prefectureName": "宮城県",
      "prefectureNameTranslations": null,
      "cityName": null,
      "cityNameTranslations": null,
      "placeType": "quarter"
    },
    {
      "id": "miyagi_unknown_nobiru",
      "osmId": 6305498096,
      "name": "野蒜",
      "nameKana": "のびる",
      "nameTranslations": {
        "en": "Nobiru"
      },
      "latitude": 38.3768346,
      "longitude": 141.155557,
      "lines": null,
      "prefectureId": "miyagi",
      "cityId": null,
      "countryCode": "jp",
      "prefectureName": "宮城県",
      "prefectureNameTranslations": null,
      "cityName": null,
      "cityNameTranslations": null,
      "placeType": "quarter"
    },
    {
      "id": "miyagi_unknown_長磯浜",
      "osmId": 7170923824,
      "name": "長磯浜",
      "nameKana": null,
      "nameTranslations": null,
      "latitude": 38.8382551,
      "longitude": 141.5883825,
      "lines": null,
      "prefectureId": "miyagi",
      "cityId": null,
      "countryCode": "jp",
      "prefectureName": "宮城県",
      "prefectureNameTranslations": null,
      "cityName": null,
      "cityNameTranslations": null,
      "placeType": "quarter"
    },
    {
      "id": "miyagi_unknown_南郷",
      "osmId": 7181858958,
      "name": "南郷",
      "nameKana": null,
      "nameTranslations": null,
      "latitude": 38.8928067,
      "longitude": 141.5728653,
      "lines": null,
      "prefectureId": "miyagi",
      "cityId": null,
      "countryCode": "jp",
      "prefectureName": "宮城県",
      "prefectureNameTranslations": null,
      "cityName": null,
      "cityNameTranslations": null,
      "placeType": "quarter"
    },
    {
      "id": "miyagi_unknown_神山",
      "osmId": 7181858962,
      "name": "神山",
      "nameKana": null,
      "nameTranslations": null,
      "latitude": 38.8915416,
      "longitude": 141.5674794,
      "lines": null,
      "prefectureId": "miyagi",
      "cityId": null,
      "countryCode": "jp",
      "prefectureName": "宮城県",
      "prefectureNameTranslations": null,
      "cityName": null,
      "cityNameTranslations": null,
      "placeType": "quarter"
    },
    {
      "id": "miyagi_unknown_田中",
      "osmId": 7183676891,
      "name": "田中",
      "nameKana": null,
      "nameTranslations": null,
      "latitude": 38.8877336,
      "longitude": 141.5506298,
      "lines": null,
      "prefectureId": "miyagi",
      "cityId": null,
      "countryCode": "jp",
      "prefectureName": "宮城県",
      "prefectureNameTranslations": null,
      "cityName": null,
      "cityNameTranslations": null,
      "placeType": "quarter"
    },
    {
      "id": "miyagi_unknown_常楽",
      "osmId": 7183676892,
      "name": "常楽",
      "nameKana": null,
      "nameTranslations": null,
      "latitude": 38.8927023,
      "longitude": 141.5551198,
      "lines": null,
      "prefectureId": "miyagi",
      "cityId": null,
      "countryCode": "jp",
      "prefectureName": "宮城県",
      "prefectureNameTranslations": null,
      "cityName": null,
      "cityNameTranslations": null,
      "placeType": "quarter"
    },
    {
      "id": "miyagi_unknown_田谷",
      "osmId": 7183676893,
      "name": "田谷",
      "nameKana": null,
      "nameTranslations": null,
      "latitude": 38.8966102,
      "longitude": 141.5652934,
      "lines": null,
      "prefectureId": "miyagi",
      "cityId": null,
      "countryCode": "jp",
      "prefectureName": "宮城県",
      "prefectureNameTranslations": null,
      "cityName": null,
      "cityNameTranslations": null,
      "placeType": "quarter"
    },
    {
      "id": "miyagi_unknown_本郷",
      "osmId": 7183676894,
      "name": "本郷",
      "nameKana": null,
      "nameTranslations": null,
      "latitude": 38.8970779,
      "longitude": 141.5677556,
      "lines": null,
      "prefectureId": "miyagi",
      "cityId": null,
      "countryCode": "jp",
      "prefectureName": "宮城県",
      "prefectureNameTranslations": null,
      "cityName": null,
      "cityNameTranslations": null,
      "placeType": "quarter"
    },
    {
      "id": "miyagi_unknown_川畑",
      "osmId": 7183676897,
      "name": "川畑",
      "nameKana": null,
      "nameTranslations": null,
      "latitude": 38.8993281,
      "longitude": 141.5668866,
      "lines": null,
      "prefectureId": "miyagi",
      "cityId": null,
      "countryCode": "jp",
      "prefectureName": "宮城県",
      "prefectureNameTranslations": null,
      "cityName": null,
      "cityNameTranslations": null,
      "placeType": "quarter"
    },
    {
      "id": "miyagi_unknown_田谷前",
      "osmId": 7183676898,
      "name": "田谷前",
      "nameKana": null,
      "nameTranslations": null,
      "latitude": 38.900042,
      "longitude": 141.563668,
      "lines": null,
      "prefectureId": "miyagi",
      "cityId": null,
      "countryCode": "jp",
      "prefectureName": "宮城県",
      "prefectureNameTranslations": null,
      "cityName": null,
      "cityNameTranslations": null,
      "placeType": "quarter"
    },
    {
      "id": "miyagi_unknown_四反田",
      "osmId": 7183676930,
      "name": "四反田",
      "nameKana": null,
      "nameTranslations": null,
      "latitude": 38.9007653,
      "longitude": 141.558266,
      "lines": null,
      "prefectureId": "miyagi",
      "cityId": null,
      "countryCode": "jp",
      "prefectureName": "宮城県",
      "prefectureNameTranslations": null,
      "cityName": null,
      "cityNameTranslations": null,
      "placeType": "quarter"
    },
    {
      "id": "miyagi_unknown_岩ヶ崎",
      "osmId": 7183676945,
      "name": "岩ヶ崎",
      "nameKana": null,
      "nameTranslations": null,
      "latitude": 38.906306,
      "longitude": 141.547969,
      "lines": null,
      "prefectureId": "miyagi",
      "cityId": null,
      "countryCode": "jp",
      "prefectureName": "宮城県",
      "prefectureNameTranslations": null,
      "cityName": null,
      "cityNameTranslations": null,
      "placeType": "quarter"
    },
    {
      "id": "miyagi_unknown_川原崎",
      "osmId": 7183676946,
      "name": "川原崎",
      "nameKana": null,
      "nameTranslations": null,
      "latitude": 38.907262,
      "longitude": 141.545201,
      "lines": null,
      "prefectureId": "miyagi",
      "cityId": null,
      "countryCode": "jp",
      "prefectureName": "宮城県",
      "prefectureNameTranslations": null,
      "cityName": null,
      "cityNameTranslations": null,
      "placeType": "quarter"
    },
    {
      "id": "miyagi_unknown_新田",
      "osmId": 7183676947,
      "name": "新田",
      "nameKana": null,
      "nameTranslations": null,
      "latitude": 38.9111483,
      "longitude": 141.5496105,
      "lines": null,
      "prefectureId": "miyagi",
      "cityId": null,
      "countryCode": "jp",
      "prefectureName": "宮城県",
      "prefectureNameTranslations": null,
      "cityName": null,
      "cityNameTranslations": null,
      "placeType": "quarter"
    },
    {
      "id": "miyagi_unknown_下新田",
      "osmId": 7183676948,
      "name": "下新田",
      "nameKana": null,
      "nameTranslations": null,
      "latitude": 38.9111984,
      "longitude": 141.5484089,
      "lines": null,
      "prefectureId": "miyagi",
      "cityId": null,
      "countryCode": "jp",
      "prefectureName": "宮城県",
      "prefectureNameTranslations": null,
      "cityName": null,
      "cityNameTranslations": null,
      "placeType": "quarter"
    },
    {
      "id": "miyagi_unknown_松川前",
      "osmId": 7183676949,
      "name": "松川前",
      "nameKana": null,
      "nameTranslations": null,
      "latitude": 38.9155352,
      "longitude": 141.5447074,
      "lines": null,
      "prefectureId": "miyagi",
      "cityId": null,
      "countryCode": "jp",
      "prefectureName": "宮城県",
      "prefectureNameTranslations": null,
      "cityName": null,
      "cityNameTranslations": null,
      "placeType": "quarter"
    },
    {
      "id": "miyagi_unknown_松川",
      "osmId": 7183676950,
      "name": "松川",
      "nameKana": null,
      "nameTranslations": null,
      "latitude": 38.9156896,
      "longitude": 141.5481997,
      "lines": null,
      "prefectureId": "miyagi",
      "cityId": null,
      "countryCode": "jp",
      "prefectureName": "宮城県",
      "prefectureNameTranslations": null,
      "cityName": null,
      "cityNameTranslations": null,
      "placeType": "quarter"
    },
    {
      "id": "miyagi_unknown_古",
      "osmId": 7183676951,
      "name": "古町",
      "nameKana": null,
      "nameTranslations": null,
      "latitude": 38.9121459,
      "longitude": 141.5579897,
      "lines": null,
      "prefectureId": "miyagi",
      "cityId": null,
      "countryCode": "jp",
      "prefectureName": "宮城県",
      "prefectureNameTranslations": null,
      "cityName": null,
      "cityNameTranslations": null,
      "placeType": "quarter"
    },
    {
      "id": "miyagi_unknown_内ノ脇",
      "osmId": 7183676974,
      "name": "内ノ脇",
      "nameKana": null,
      "nameTranslations": null,
      "latitude": 38.8910489,
      "longitude": 141.5791604,
      "lines": null,
      "prefectureId": "miyagi",
      "cityId": null,
      "countryCode": "jp",
      "prefectureName": "宮城県",
      "prefectureNameTranslations": null,
      "cityName": null,
      "cityNameTranslations": null,
      "placeType": "quarter"
    },
    {
      "id": "miyagi_unknown_aoi",
      "osmId": 7341774828,
      "name": "あおい",
      "nameKana": "あおい",
      "nameTranslations": {
        "en": "Aoi"
      },
      "latitude": 38.4299503,
      "longitude": 141.2216359,
      "lines": null,
      "prefectureId": "miyagi",
      "cityId": null,
      "countryCode": "jp",
      "prefectureName": "宮城県",
      "prefectureNameTranslations": null,
      "cityName": null,
      "cityNameTranslations": null,
      "placeType": "quarter"
    },
    {
      "id": "miyagi_unknown_明戸",
      "osmId": 7622281365,
      "name": "明戸",
      "nameKana": null,
      "nameTranslations": null,
      "latitude": 38.9019485,
      "longitude": 141.5519303,
      "lines": null,
      "prefectureId": "miyagi",
      "cityId": null,
      "countryCode": "jp",
      "prefectureName": "宮城県",
      "prefectureNameTranslations": null,
      "cityName": null,
      "cityNameTranslations": null,
      "placeType": "quarter"
    },
    {
      "id": "miyagi_unknown_maeamihama",
      "osmId": 7722585643,
      "name": "前網浜",
      "nameKana": "まえあみはま",
      "nameTranslations": {
        "en": "Maeamihama"
      },
      "latitude": 38.3923298,
      "longitude": 141.5163839,
      "lines": null,
      "prefectureId": "miyagi",
      "cityId": null,
      "countryCode": "jp",
      "prefectureName": "宮城県",
      "prefectureNameTranslations": null,
      "cityName": null,
      "cityNameTranslations": null,
      "placeType": "quarter"
    },
    {
      "id": "miyagi_unknown_yoriisohama",
      "osmId": 7722585645,
      "name": "寄磯浜",
      "nameKana": "よりいそはま",
      "nameTranslations": {
        "en": "Yoriisohama"
      },
      "latitude": 38.393238,
      "longitude": 141.5243983,
      "lines": null,
      "prefectureId": "miyagi",
      "cityId": null,
      "countryCode": "jp",
      "prefectureName": "宮城県",
      "prefectureNameTranslations": null,
      "cityName": null,
      "cityNameTranslations": null,
      "placeType": "quarter"
    },
    {
      "id": "miyagi_unknown_samenoura",
      "osmId": 7724752480,
      "name": "鮫浦",
      "nameKana": "さめのうら",
      "nameTranslations": {
        "en": "Samenoura"
      },
      "latitude": 38.3840885,
      "longitude": 141.4866865,
      "lines": null,
      "prefectureId": "miyagi",
      "cityId": null,
      "countryCode": "jp",
      "prefectureName": "宮城県",
      "prefectureNameTranslations": null,
      "cityName": null,
      "cityNameTranslations": null,
      "placeType": "quarter"
    },
    {
      "id": "miyagi_unknown_kugunarihama",
      "osmId": 7725818175,
      "name": "十八成浜",
      "nameKana": "くぐなりはま",
      "nameTranslations": {
        "en": "Kugunarihama"
      },
      "latitude": 38.3171647,
      "longitude": 141.4986276,
      "lines": null,
      "prefectureId": "miyagi",
      "cityId": null,
      "countryCode": "jp",
      "prefectureName": "宮城県",
      "prefectureNameTranslations": null,
      "cityName": null,
      "cityNameTranslations": null,
      "placeType": "quarter"
    },
    {
      "id": "miyagi_unknown_odawara_shimizunumadori",
      "osmId": 8042058073,
      "name": "小田原清水沼通",
      "nameKana": "おだわらしみずぬまどおり",
      "nameTranslations": {
        "en": "Odawara-shimizunumadori"
      },
      "latitude": 38.2641283,
      "longitude": 140.8949348,
      "lines": null,
      "prefectureId": "miyagi",
      "cityId": null,
      "countryCode": "jp",
      "prefectureName": "宮城県",
      "prefectureNameTranslations": null,
      "cityName": null,
      "cityNameTranslations": null,
      "placeType": "quarter"
    },
    {
      "id": "miyagi_unknown_odawara_ushigoyacho",
      "osmId": 8042058074,
      "name": "小田原牛小屋丁",
      "nameKana": "おだわらうしごやちょう",
      "nameTranslations": {
        "en": "Odawara-ushigoyacho"
      },
      "latitude": 38.2644189,
      "longitude": 140.8947793,
      "lines": null,
      "prefectureId": "miyagi",
      "cityId": null,
      "countryCode": "jp",
      "prefectureName": "宮城県",
      "prefectureNameTranslations": null,
      "cityName": null,
      "cityNameTranslations": null,
      "placeType": "quarter"
    },
    {
      "id": "miyagi_unknown_odawara_yuminomachi",
      "osmId": 8042058075,
      "name": "小田原弓ノ町",
      "nameKana": "おだわらゆみのまち",
      "nameTranslations": {
        "en": "Odawara-yuminomachi"
      },
      "latitude": 38.2643599,
      "longitude": 140.8923706,
      "lines": null,
      "prefectureId": "miyagi",
      "cityId": null,
      "countryCode": "jp",
      "prefectureName": "宮城県",
      "prefectureNameTranslations": null,
      "cityName": null,
      "cityNameTranslations": null,
      "placeType": "quarter"
    },
    {
      "id": "miyagi_unknown_odawara_daigyoincho",
      "osmId": 8042058076,
      "name": "小田原大行院丁",
      "nameKana": "おだわらだいぎょういんちょう",
      "nameTranslations": {
        "en": "Odawara-daigyoincho"
      },
      "latitude": 38.2647622,
      "longitude": 140.8913541,
      "lines": null,
      "prefectureId": "miyagi",
      "cityId": null,
      "countryCode": "jp",
      "prefectureName": "宮城県",
      "prefectureNameTranslations": null,
      "cityName": null,
      "cityNameTranslations": null,
      "placeType": "quarter"
    },
    {
      "id": "miyagi_unknown_odawara_hirocho",
      "osmId": 8042058077,
      "name": "小田原広丁",
      "nameKana": "おだわらひろちょう",
      "nameTranslations": {
        "en": "Odawara-hirocho"
      },
      "latitude": 38.2648653,
      "longitude": 140.890139,
      "lines": null,
      "prefectureId": "miyagi",
      "cityId": null,
      "countryCode": "jp",
      "prefectureName": "宮城県",
      "prefectureNameTranslations": null,
      "cityName": null,
      "cityNameTranslations": null,
      "placeType": "quarter"
    },
    {
      "id": "miyagi_unknown_odawara_kongoincho",
      "osmId": 8042058078,
      "name": "小田原金剛院丁",
      "nameKana": "おだわらこんごういんちょう",
      "nameTranslations": {
        "en": "Odawara-kongoincho"
      },
      "latitude": 38.2648843,
      "longitude": 140.8887121,
      "lines": null,
      "prefectureId": "miyagi",
      "cityId": null,
      "countryCode": "jp",
      "prefectureName": "宮城県",
      "prefectureNameTranslations": null,
      "cityName": null,
      "cityNameTranslations": null,
      "placeType": "quarter"
    },
    {
      "id": "miyagi_unknown_odawara_yamamotocho",
      "osmId": 8042058079,
      "name": "小田原山本丁",
      "nameKana": "おだわらやまもとちょう",
      "nameTranslations": {
        "en": "Odawara-yamamotocho"
      },
      "latitude": 38.2647221,
      "longitude": 140.8871859,
      "lines": null,
      "prefectureId": "miyagi",
      "cityId": null,
      "countryCode": "jp",
      "prefectureName": "宮城県",
      "prefectureNameTranslations": null,
      "cityName": null,
      "cityNameTranslations": null,
      "placeType": "quarter"
    },
    {
      "id": "miyagi_unknown_nijuninmachidori",
      "osmId": 8042058080,
      "name": "二十人町通",
      "nameKana": "にじゅうにんまちどおり",
      "nameTranslations": {
        "en": "Nijuninmachidori"
      },
      "latitude": 38.2625424,
      "longitude": 140.897322,
      "lines": null,
      "prefectureId": "miyagi",
      "cityId": null,
      "countryCode": "jp",
      "prefectureName": "宮城県",
      "prefectureNameTranslations": null,
      "cityName": null,
      "cityNameTranslations": null,
      "placeType": "quarter"
    },
    {
      "id": "miyagi_unknown_teppomachi",
      "osmId": 8042058081,
      "name": "鉄砲町",
      "nameKana": "てっぽうまち",
      "nameTranslations": {
        "en": "Teppomachi"
      },
      "latitude": 38.2630416,
      "longitude": 140.8961418,
      "lines": null,
      "prefectureId": "miyagi",
      "cityId": null,
      "countryCode": "jp",
      "prefectureName": "宮城県",
      "prefectureNameTranslations": null,
      "cityName": null,
      "cityNameTranslations": null,
      "placeType": "quarter"
    },
    {
      "id": "miyagi_unknown_teppomachi_higashi",
      "osmId": 8042058082,
      "name": "鉄砲町東",
      "nameKana": "てっぽうまちひがし",
      "nameTranslations": {
        "en": "Teppomachi-higashi"
      },
      "latitude": 38.2634438,
      "longitude": 140.8941355,
      "lines": null,
      "prefectureId": "miyagi",
      "cityId": null,
      "countryCode": "jp",
      "prefectureName": "宮城県",
      "prefectureNameTranslations": null,
      "cityName": null,
      "cityNameTranslations": null,
      "placeType": "quarter"
    },
    {
      "id": "miyagi_unknown_teppomachi_naka",
      "osmId": 8042058083,
      "name": "鉄砲町中",
      "nameKana": "てっぽうまちなか",
      "nameTranslations": {
        "en": "Teppomachi-naka"
      },
      "latitude": 38.2636839,
      "longitude": 140.8902866,
      "lines": null,
      "prefectureId": "miyagi",
      "cityId": null,
      "countryCode": "jp",
      "prefectureName": "宮城県",
      "prefectureNameTranslations": null,
      "cityName": null,
      "cityNameTranslations": null,
      "placeType": "quarter"
    },
    {
      "id": "miyagi_unknown_teppomachi_nishi",
      "osmId": 8042058084,
      "name": "鉄砲町西",
      "nameKana": "てっぽうまちにし",
      "nameTranslations": {
        "en": "Teppomachi-nishi"
      },
      "latitude": 38.2639029,
      "longitude": 140.8863974,
      "lines": null,
      "prefectureId": "miyagi",
      "cityId": null,
      "countryCode": "jp",
      "prefectureName": "宮城県",
      "prefectureNameTranslations": null,
      "cityName": null,
      "cityNameTranslations": null,
      "placeType": "quarter"
    },
    {
      "id": "miyagi_unknown_nijuninmachi",
      "osmId": 8042143390,
      "name": "二十人町",
      "nameKana": "にじゅうにんまち",
      "nameTranslations": {
        "en": "Nijuninmachi"
      },
      "latitude": 38.2622729,
      "longitude": 140.8912146,
      "lines": null,
      "prefectureId": "miyagi",
      "cityId": null,
      "countryCode": "jp",
      "prefectureName": "宮城県",
      "prefectureNameTranslations": null,
      "cityName": null,
      "cityNameTranslations": null,
      "placeType": "quarter"
    },
    {
      "id": "miyagi_unknown_fukuoka",
      "osmId": 8070657927,
      "name": "福岡",
      "nameKana": "ふくおか",
      "nameTranslations": {
        "en": "Fukuoka"
      },
      "latitude": 38.3585669,
      "longitude": 140.768426,
      "lines": null,
      "prefectureId": "miyagi",
      "cityId": null,
      "countryCode": "jp",
      "prefectureName": "宮城県",
      "prefectureNameTranslations": null,
      "cityName": null,
      "cityNameTranslations": null,
      "placeType": "quarter"
    },
    {
      "id": "miyagi_unknown_nenoshiroishi",
      "osmId": 8070657928,
      "name": "根白石",
      "nameKana": "ねのしろいし",
      "nameTranslations": {
        "en": "Nenoshiroishi"
      },
      "latitude": 38.3534249,
      "longitude": 140.808567,
      "lines": null,
      "prefectureId": "miyagi",
      "cityId": null,
      "countryCode": "jp",
      "prefectureName": "宮城県",
      "prefectureNameTranslations": null,
      "cityName": null,
      "cityNameTranslations": null,
      "placeType": "quarter"
    },
    {
      "id": "miyagi_unknown_住吉台",
      "osmId": 8070657929,
      "name": "住吉台",
      "nameKana": null,
      "nameTranslations": null,
      "latitude": 38.3300899,
      "longitude": 140.78355,
      "lines": null,
      "prefectureId": "miyagi",
      "cityId": null,
      "countryCode": "jp",
      "prefectureName": "宮城県",
      "prefectureNameTranslations": null,
      "cityName": null,
      "cityNameTranslations": null,
      "placeType": "quarter"
    },
    {
      "id": "miyagi_unknown_館",
      "osmId": 8070657930,
      "name": "館",
      "nameKana": null,
      "nameTranslations": null,
      "latitude": 38.3172138,
      "longitude": 140.7992378,
      "lines": null,
      "prefectureId": "miyagi",
      "cityId": null,
      "countryCode": "jp",
      "prefectureName": "宮城県",
      "prefectureNameTranslations": null,
      "cityName": null,
      "cityNameTranslations": null,
      "placeType": "quarter"
    },
    {
      "id": "miyagi_unknown_北中山",
      "osmId": 8070657931,
      "name": "北中山",
      "nameKana": null,
      "nameTranslations": null,
      "latitude": 38.3153265,
      "longitude": 140.8146961,
      "lines": null,
      "prefectureId": "miyagi",
      "cityId": null,
      "countryCode": "jp",
      "prefectureName": "宮城県",
      "prefectureNameTranslations": null,
      "cityName": null,
      "cityNameTranslations": null,
      "placeType": "quarter"
    },
    {
      "id": "miyagi_unknown_西中山",
      "osmId": 8070657932,
      "name": "西中山",
      "nameKana": null,
      "nameTranslations": null,
      "latitude": 38.3071861,
      "longitude": 140.8061273,
      "lines": null,
      "prefectureId": "miyagi",
      "cityId": null,
      "countryCode": "jp",
      "prefectureName": "宮城県",
      "prefectureNameTranslations": null,
      "cityName": null,
      "cityNameTranslations": null,
      "placeType": "quarter"
    },
    {
      "id": "miyagi_unknown_中山台",
      "osmId": 8070657933,
      "name": "中山台",
      "nameKana": null,
      "nameTranslations": null,
      "latitude": 38.3005487,
      "longitude": 140.8152695,
      "lines": null,
      "prefectureId": "miyagi",
      "cityId": null,
      "countryCode": "jp",
      "prefectureName": "宮城県",
      "prefectureNameTranslations": null,
      "cityName": null,
      "cityNameTranslations": null,
      "placeType": "quarter"
    },
    {
      "id": "miyagi_unknown_中山吉成",
      "osmId": 8070657934,
      "name": "中山吉成",
      "nameKana": null,
      "nameTranslations": null,
      "latitude": 38.2990571,
      "longitude": 140.819411,
      "lines": null,
      "prefectureId": "miyagi",
      "cityId": null,
      "countryCode": "jp",
      "prefectureName": "宮城県",
      "prefectureNameTranslations": null,
      "cityName": null,
      "cityNameTranslations": null,
      "placeType": "quarter"
    },
    {
      "id": "miyagi_unknown_吉成台",
      "osmId": 8070657935,
      "name": "吉成台",
      "nameKana": null,
      "nameTranslations": null,
      "latitude": 38.2946997,
      "longitude": 140.8232192,
      "lines": null,
      "prefectureId": "miyagi",
      "cityId": null,
      "countryCode": "jp",
      "prefectureName": "宮城県",
      "prefectureNameTranslations": null,
      "cityName": null,
      "cityNameTranslations": null,
      "placeType": "quarter"
    },
    {
      "id": "miyagi_unknown_吉成",
      "osmId": 8070657936,
      "name": "吉成",
      "nameKana": null,
      "nameTranslations": null,
      "latitude": 38.2917496,
      "longitude": 140.8195906,
      "lines": null,
      "prefectureId": "miyagi",
      "cityId": null,
      "countryCode": "jp",
      "prefectureName": "宮城県",
      "prefectureNameTranslations": null,
      "cityName": null,
      "cityNameTranslations": null,
      "placeType": "quarter"
    },
    {
      "id": "miyagi_unknown_南吉成",
      "osmId": 8070657937,
      "name": "南吉成",
      "nameKana": null,
      "nameTranslations": null,
      "latitude": 38.2850048,
      "longitude": 140.8145219,
      "lines": null,
      "prefectureId": "miyagi",
      "cityId": null,
      "countryCode": "jp",
      "prefectureName": "宮城県",
      "prefectureNameTranslations": null,
      "cityName": null,
      "cityNameTranslations": null,
      "placeType": "quarter"
    },
    {
      "id": "miyagi_unknown_国見ヶ丘",
      "osmId": 8070657938,
      "name": "国見ヶ丘",
      "nameKana": null,
      "nameTranslations": null,
      "latitude": 38.287916,
      "longitude": 140.8303365,
      "lines": null,
      "prefectureId": "miyagi",
      "cityId": null,
      "countryCode": "jp",
      "prefectureName": "宮城県",
      "prefectureNameTranslations": null,
      "cityName": null,
      "cityNameTranslations": null,
      "placeType": "quarter"
    },
    {
      "id": "miyagi_unknown_国見",
      "osmId": 8070657939,
      "name": "国見",
      "nameKana": null,
      "nameTranslations": null,
      "latitude": 38.2784735,
      "longitude": 140.8427576,
      "lines": null,
      "prefectureId": "miyagi",
      "cityId": null,
      "countryCode": "jp",
      "prefectureName": "宮城県",
      "prefectureNameTranslations": null,
      "cityName": null,
      "cityNameTranslations": null,
      "placeType": "quarter"
    },
    {
      "id": "miyagi_unknown_八幡",
      "osmId": 8070657940,
      "name": "八幡",
      "nameKana": null,
      "nameTranslations": null,
      "latitude": 38.2700763,
      "longitude": 140.8466195,
      "lines": null,
      "prefectureId": "miyagi",
      "cityId": null,
      "countryCode": "jp",
      "prefectureName": "宮城県",
      "prefectureNameTranslations": null,
      "cityName": null,
      "cityNameTranslations": null,
      "placeType": "quarter"
    },
    {
      "id": "miyagi_unknown_寺岡",
      "osmId": 8070846644,
      "name": "寺岡",
      "nameKana": null,
      "nameTranslations": null,
      "latitude": 38.3393038,
      "longitude": 140.8314723,
      "lines": null,
      "prefectureId": "miyagi",
      "cityId": null,
      "countryCode": "jp",
      "prefectureName": "宮城県",
      "prefectureNameTranslations": null,
      "cityName": null,
      "cityNameTranslations": null,
      "placeType": "quarter"
    },
    {
      "id": "miyagi_unknown_紫山",
      "osmId": 8070846645,
      "name": "紫山",
      "nameKana": null,
      "nameTranslations": null,
      "latitude": 38.3492423,
      "longitude": 140.8254728,
      "lines": null,
      "prefectureId": "miyagi",
      "cityId": null,
      "countryCode": "jp",
      "prefectureName": "宮城県",
      "prefectureNameTranslations": null,
      "cityName": null,
      "cityNameTranslations": null,
      "placeType": "quarter"
    },
    {
      "id": "miyagi_unknown_富ケ丘",
      "osmId": 8074985256,
      "name": "富ケ丘",
      "nameKana": null,
      "nameTranslations": null,
      "latitude": 38.3656216,
      "longitude": 140.8651123,
      "lines": null,
      "prefectureId": "miyagi",
      "cityId": null,
      "countryCode": "jp",
      "prefectureName": "宮城県",
      "prefectureNameTranslations": null,
      "cityName": null,
      "cityNameTranslations": null,
      "placeType": "quarter"
    },
    {
      "id": "miyagi_unknown_鷹乃杜",
      "osmId": 8075116455,
      "name": "鷹乃杜",
      "nameKana": null,
      "nameTranslations": null,
      "latitude": 38.3668797,
      "longitude": 140.8713448,
      "lines": null,
      "prefectureId": "miyagi",
      "cityId": null,
      "countryCode": "jp",
      "prefectureName": "宮城県",
      "prefectureNameTranslations": null,
      "cityName": null,
      "cityNameTranslations": null,
      "placeType": "quarter"
    },
    {
      "id": "miyagi_unknown_杜乃橋",
      "osmId": 8075116456,
      "name": "杜乃橋",
      "nameKana": null,
      "nameTranslations": null,
      "latitude": 38.3856339,
      "longitude": 140.8711645,
      "lines": null,
      "prefectureId": "miyagi",
      "cityId": null,
      "countryCode": "jp",
      "prefectureName": "宮城県",
      "prefectureNameTranslations": null,
      "cityName": null,
      "cityNameTranslations": null,
      "placeType": "quarter"
    },
    {
      "id": "miyagi_unknown_杜の丘",
      "osmId": 8075116457,
      "name": "杜の丘",
      "nameKana": null,
      "nameTranslations": null,
      "latitude": 38.3859759,
      "longitude": 140.8662305,
      "lines": null,
      "prefectureId": "miyagi",
      "cityId": null,
      "countryCode": "jp",
      "prefectureName": "宮城県",
      "prefectureNameTranslations": null,
      "cityName": null,
      "cityNameTranslations": null,
      "placeType": "quarter"
    },
    {
      "id": "miyagi_unknown_あけの平",
      "osmId": 8075116458,
      "name": "あけの平",
      "nameKana": null,
      "nameTranslations": null,
      "latitude": 38.3779861,
      "longitude": 140.8760192,
      "lines": null,
      "prefectureId": "miyagi",
      "cityId": null,
      "countryCode": "jp",
      "prefectureName": "宮城県",
      "prefectureNameTranslations": null,
      "cityName": null,
      "cityNameTranslations": null,
      "placeType": "quarter"
    },
    {
      "id": "miyagi_unknown_日吉台",
      "osmId": 8075116465,
      "name": "日吉台",
      "nameKana": null,
      "nameTranslations": null,
      "latitude": 38.3766629,
      "longitude": 140.8650672,
      "lines": null,
      "prefectureId": "miyagi",
      "cityId": null,
      "countryCode": "jp",
      "prefectureName": "宮城県",
      "prefectureNameTranslations": null,
      "cityName": null,
      "cityNameTranslations": null,
      "placeType": "quarter"
    },
    {
      "id": "miyagi_unknown_もみじが丘",
      "osmId": 8075116466,
      "name": "もみじが丘",
      "nameKana": null,
      "nameTranslations": null,
      "latitude": 38.381464,
      "longitude": 140.8605467,
      "lines": null,
      "prefectureId": "miyagi",
      "cityId": null,
      "countryCode": "jp",
      "prefectureName": "宮城県",
      "prefectureNameTranslations": null,
      "cityName": null,
      "cityNameTranslations": null,
      "placeType": "quarter"
    },
    {
      "id": "miyagi_unknown_tokura",
      "osmId": 8390701951,
      "name": "戸倉",
      "nameKana": "とくら",
      "nameTranslations": {
        "en": "Tokura"
      },
      "latitude": 38.6397603,
      "longitude": 141.4385462,
      "lines": null,
      "prefectureId": "miyagi",
      "cityId": null,
      "countryCode": "jp",
      "prefectureName": "宮城県",
      "prefectureNameTranslations": null,
      "cityName": null,
      "cityNameTranslations": null,
      "placeType": "quarter"
    },
    {
      "id": "miyagi_unknown_shizugawa",
      "osmId": 8390701952,
      "name": "志津川",
      "nameKana": "しづがわ",
      "nameTranslations": {
        "en": "Shizugawa"
      },
      "latitude": 38.6829135,
      "longitude": 141.4450478,
      "lines": null,
      "prefectureId": "miyagi",
      "cityId": null,
      "countryCode": "jp",
      "prefectureName": "宮城県",
      "prefectureNameTranslations": null,
      "cityName": null,
      "cityNameTranslations": null,
      "placeType": "quarter"
    },
    {
      "id": "miyagi_unknown_shizugawa_quarter",
      "osmId": 8390701953,
      "name": "志津川",
      "nameKana": "しづがわ",
      "nameTranslations": {
        "en": "Shizugawa"
      },
      "latitude": 38.7004154,
      "longitude": 141.487062,
      "lines": null,
      "prefectureId": "miyagi",
      "cityId": null,
      "countryCode": "jp",
      "prefectureName": "宮城県",
      "prefectureNameTranslations": null,
      "cityName": null,
      "cityNameTranslations": null,
      "placeType": "quarter"
    },
    {
      "id": "miyagi_unknown_iriya",
      "osmId": 8390701954,
      "name": "入谷",
      "nameKana": "いりや",
      "nameTranslations": {
        "en": "Iriya"
      },
      "latitude": 38.665843,
      "longitude": 141.3976264,
      "lines": null,
      "prefectureId": "miyagi",
      "cityId": null,
      "countryCode": "jp",
      "prefectureName": "宮城県",
      "prefectureNameTranslations": null,
      "cityName": null,
      "cityNameTranslations": null,
      "placeType": "quarter"
    },
    {
      "id": "miyagi_unknown_utatsu",
      "osmId": 8390701955,
      "name": "歌津",
      "nameKana": "うたつ",
      "nameTranslations": {
        "en": "Utatsu"
      },
      "latitude": 38.7232869,
      "longitude": 141.5098071,
      "lines": null,
      "prefectureId": "miyagi",
      "cityId": null,
      "countryCode": "jp",
      "prefectureName": "宮城県",
      "prefectureNameTranslations": null,
      "cityName": null,
      "cityNameTranslations": null,
      "placeType": "quarter"
    },
    {
      "id": "miyagi_unknown_rinzaiin",
      "osmId": 8392483182,
      "name": "臨済院",
      "nameKana": "りんざいいん",
      "nameTranslations": {
        "en": "Rinzaiin"
      },
      "latitude": 38.2852923,
      "longitude": 140.8278447,
      "lines": null,
      "prefectureId": "miyagi",
      "cityId": null,
      "countryCode": "jp",
      "prefectureName": "宮城県",
      "prefectureNameTranslations": null,
      "cityName": null,
      "cityNameTranslations": null,
      "placeType": "quarter"
    },
    {
      "id": "miyagi_unknown_nakayamadai_nishi",
      "osmId": 8392483192,
      "name": "中山台西",
      "nameKana": "なかやまだいにし",
      "nameTranslations": {
        "en": "Nakayamadai-nishi"
      },
      "latitude": 38.3040024,
      "longitude": 140.8112097,
      "lines": null,
      "prefectureId": "miyagi",
      "cityId": null,
      "countryCode": "jp",
      "prefectureName": "宮城県",
      "prefectureNameTranslations": null,
      "cityName": null,
      "cityNameTranslations": null,
      "placeType": "quarter"
    },
    {
      "id": "miyagi_unknown_nishikatsuyama",
      "osmId": 8392490318,
      "name": "西勝山",
      "nameKana": "にしかつやま",
      "nameTranslations": {
        "en": "Nishikatsuyama"
      },
      "latitude": 38.3005819,
      "longitude": 140.8392119,
      "lines": null,
      "prefectureId": "miyagi",
      "cityId": null,
      "countryCode": "jp",
      "prefectureName": "宮城県",
      "prefectureNameTranslations": null,
      "cityName": null,
      "cityNameTranslations": null,
      "placeType": "quarter"
    },
    {
      "id": "miyagi_unknown_takimichi",
      "osmId": 8392490327,
      "name": "滝道",
      "nameKana": "たきみち",
      "nameTranslations": {
        "en": "Takimichi"
      },
      "latitude": 38.2936101,
      "longitude": 140.8498791,
      "lines": null,
      "prefectureId": "miyagi",
      "cityId": null,
      "countryCode": "jp",
      "prefectureName": "宮城県",
      "prefectureNameTranslations": null,
      "cityName": null,
      "cityNameTranslations": null,
      "placeType": "quarter"
    },
    {
      "id": "miyagi_unknown_chiyodamachi",
      "osmId": 8392490332,
      "name": "千代田町",
      "nameKana": "ちよだまち",
      "nameTranslations": {
        "en": "Chiyodamachi"
      },
      "latitude": 38.2823237,
      "longitude": 140.8478487,
      "lines": null,
      "prefectureId": "miyagi",
      "cityId": null,
      "countryCode": "jp",
      "prefectureName": "宮城県",
      "prefectureNameTranslations": null,
      "cityName": null,
      "cityNameTranslations": null,
      "placeType": "quarter"
    },
    {
      "id": "miyagi_unknown_yamatemachi",
      "osmId": 8392490333,
      "name": "山手町",
      "nameKana": "やまてまち",
      "nameTranslations": {
        "en": "Yamatemachi"
      },
      "latitude": 38.2872419,
      "longitude": 140.8522207,
      "lines": null,
      "prefectureId": "miyagi",
      "cityId": null,
      "countryCode": "jp",
      "prefectureName": "宮城県",
      "prefectureNameTranslations": null,
      "cityName": null,
      "cityNameTranslations": null,
      "placeType": "quarter"
    },
    {
      "id": "miyagi_unknown_kikutamachi",
      "osmId": 8392490334,
      "name": "菊田町",
      "nameKana": "きくたまち",
      "nameTranslations": {
        "en": "Kikutamachi"
      },
      "latitude": 38.2847112,
      "longitude": 140.8477387,
      "lines": null,
      "prefectureId": "miyagi",
      "cityId": null,
      "countryCode": "jp",
      "prefectureName": "宮城県",
      "prefectureNameTranslations": null,
      "cityName": null,
      "cityNameTranslations": null,
      "placeType": "quarter"
    },
    {
      "id": "miyagi_unknown_aramaki_chuo",
      "osmId": 8392490335,
      "name": "荒巻中央",
      "nameKana": "あらまきちゅうおう",
      "nameTranslations": {
        "en": "Aramaki-chuo"
      },
      "latitude": 38.2908839,
      "longitude": 140.8585775,
      "lines": null,
      "prefectureId": "miyagi",
      "cityId": null,
      "countryCode": "jp",
      "prefectureName": "宮城県",
      "prefectureNameTranslations": null,
      "cityName": null,
      "cityNameTranslations": null,
      "placeType": "quarter"
    },
    {
      "id": "miyagi_unknown_aramaki_shinmeimachi",
      "osmId": 8392490336,
      "name": "荒巻神明町",
      "nameKana": "あらまきしんめいまち",
      "nameTranslations": {
        "en": "Aramaki-Shinmeimachi"
      },
      "latitude": 38.2874503,
      "longitude": 140.8595914,
      "lines": null,
      "prefectureId": "miyagi",
      "cityId": null,
      "countryCode": "jp",
      "prefectureName": "宮城県",
      "prefectureNameTranslations": null,
      "cityName": null,
      "cityNameTranslations": null,
      "placeType": "quarter"
    },
    {
      "id": "miyagi_unknown_akebonomachi",
      "osmId": 8392490337,
      "name": "あけぼの町",
      "nameKana": "あけぼのまち",
      "nameTranslations": {
        "en": "Akebonomachi"
      },
      "latitude": 38.2882629,
      "longitude": 140.8644247,
      "lines": null,
      "prefectureId": "miyagi",
      "cityId": null,
      "countryCode": "jp",
      "prefectureName": "宮城県",
      "prefectureNameTranslations": null,
      "cityName": null,
      "cityNameTranslations": null,
      "placeType": "quarter"
    },
    {
      "id": "miyagi_unknown_hayamamachi",
      "osmId": 8392490338,
      "name": "葉山町",
      "nameKana": "はやままち",
      "nameTranslations": {
        "en": "Hayamamachi"
      },
      "latitude": 38.2851239,
      "longitude": 140.8648378,
      "lines": null,
      "prefectureId": "miyagi",
      "cityId": null,
      "countryCode": "jp",
      "prefectureName": "宮城県",
      "prefectureNameTranslations": null,
      "cityName": null,
      "cityNameTranslations": null,
      "placeType": "quarter"
    },
    {
      "id": "miyagi_unknown_aobamachi",
      "osmId": 8392490339,
      "name": "青葉町",
      "nameKana": "あおばまち",
      "nameTranslations": {
        "en": "Aobamachi"
      },
      "latitude": 38.2830269,
      "longitude": 140.8648324,
      "lines": null,
      "prefectureId": "miyagi",
      "cityId": null,
      "countryCode": "jp",
      "prefectureName": "宮城県",
      "prefectureNameTranslations": null,
      "cityName": null,
      "cityNameTranslations": null,
      "placeType": "quarter"
    },
    {
      "id": "miyagi_unknown_sanjomachi",
      "osmId": 8392490340,
      "name": "三条町",
      "nameKana": "さんじょうまち",
      "nameTranslations": {
        "en": "Sanjomachi"
      },
      "latitude": 38.2800603,
      "longitude": 140.8531004,
      "lines": null,
      "prefectureId": "miyagi",
      "cityId": null,
      "countryCode": "jp",
      "prefectureName": "宮城県",
      "prefectureNameTranslations": null,
      "cityName": null,
      "cityNameTranslations": null,
      "placeType": "quarter"
    },
    {
      "id": "miyagi_unknown_shiheimachi",
      "osmId": 8392490341,
      "name": "子平町",
      "nameKana": "しへいまち",
      "nameTranslations": {
        "en": "Shiheimachi"
      },
      "latitude": 38.2767019,
      "longitude": 140.8494258,
      "lines": null,
      "prefectureId": "miyagi",
      "cityId": null,
      "countryCode": "jp",
      "prefectureName": "宮城県",
      "prefectureNameTranslations": null,
      "cityName": null,
      "cityNameTranslations": null,
      "placeType": "quarter"
    },
    {
      "id": "miyagi_unknown_niizakamachi",
      "osmId": 8392490342,
      "name": "新坂町",
      "nameKana": "にいざかまち",
      "nameTranslations": {
        "en": "Niizakamachi"
      },
      "latitude": 38.2788707,
      "longitude": 140.8562171,
      "lines": null,
      "prefectureId": "miyagi",
      "cityId": null,
      "countryCode": "jp",
      "prefectureName": "宮城県",
      "prefectureNameTranslations": null,
      "cityName": null,
      "cityNameTranslations": null,
      "placeType": "quarter"
    },
    {
      "id": "miyagi_unknown_kimachi",
      "osmId": 8392490343,
      "name": "木町",
      "nameKana": "きまち",
      "nameTranslations": {
        "en": "Kimachi"
      },
      "latitude": 38.2783211,
      "longitude": 140.8615145,
      "lines": null,
      "prefectureId": "miyagi",
      "cityId": null,
      "countryCode": "jp",
      "prefectureName": "宮城県",
      "prefectureNameTranslations": null,
      "cityName": null,
      "cityNameTranslations": null,
      "placeType": "quarter"
    },
    {
      "id": "miyagi_unknown_fujimatsu",
      "osmId": 8392490359,
      "name": "藤松",
      "nameKana": "ふじまつ",
      "nameTranslations": {
        "en": "Fujimatsu"
      },
      "latitude": 38.2970856,
      "longitude": 140.8733886,
      "lines": null,
      "prefectureId": "miyagi",
      "cityId": null,
      "countryCode": "jp",
      "prefectureName": "宮城県",
      "prefectureNameTranslations": null,
      "cityName": null,
      "cityNameTranslations": null,
      "placeType": "quarter"
    },
    {
      "id": "miyagi_unknown_kitane_kuromatsu",
      "osmId": 8392490369,
      "name": "北根黒松",
      "nameKana": "きたねくろまつ",
      "nameTranslations": {
        "en": "Kitane-Kuromatsu"
      },
      "latitude": 38.3050463,
      "longitude": 140.8799761,
      "lines": null,
      "prefectureId": "miyagi",
      "cityId": null,
      "countryCode": "jp",
      "prefectureName": "宮城県",
      "prefectureNameTranslations": null,
      "cityName": null,
      "cityNameTranslations": null,
      "placeType": "quarter"
    },
    {
      "id": "miyagi_unknown_komatsu_shintsutsumi",
      "osmId": 8392490376,
      "name": "小松島新堤",
      "nameKana": "こまつしましんつつみ",
      "nameTranslations": {
        "en": "Komatsu-Shintsutsumi"
      },
      "latitude": 38.2851913,
      "longitude": 140.8942777,
      "lines": null,
      "prefectureId": "miyagi",
      "cityId": null,
      "countryCode": "jp",
      "prefectureName": "宮城県",
      "prefectureNameTranslations": null,
      "cityName": null,
      "cityNameTranslations": null,
      "placeType": "quarter"
    },
    {
      "id": "miyagi_unknown_fukuzawamachi",
      "osmId": 8392490384,
      "name": "福沢町",
      "nameKana": "ふくざわまち",
      "nameTranslations": {
        "en": "Fukuzawamachi"
      },
      "latitude": 38.274251,
      "longitude": 140.887261,
      "lines": null,
      "prefectureId": "miyagi",
      "cityId": null,
      "countryCode": "jp",
      "prefectureName": "宮城県",
      "prefectureNameTranslations": null,
      "cityName": null,
      "cityNameTranslations": null,
      "placeType": "quarter"
    },
    {
      "id": "miyagi_unknown_seiryomachi",
      "osmId": 8392490399,
      "name": "星陵町",
      "nameKana": "せいりょうまち",
      "nameTranslations": {
        "en": "Seiryomachi"
      },
      "latitude": 38.2728549,
      "longitude": 140.85935,
      "lines": null,
      "prefectureId": "miyagi",
      "cityId": null,
      "countryCode": "jp",
      "prefectureName": "宮城県",
      "prefectureNameTranslations": null,
      "cityName": null,
      "cityNameTranslations": null,
      "placeType": "quarter"
    },
    {
      "id": "miyagi_unknown_futsukamachi",
      "osmId": 8392490409,
      "name": "二日町",
      "nameKana": "ふつかまち",
      "nameTranslations": {
        "en": "Futsukamachi"
      },
      "latitude": 38.2701406,
      "longitude": 140.867579,
      "lines": null,
      "prefectureId": "miyagi",
      "cityId": null,
      "countryCode": "jp",
      "prefectureName": "宮城県",
      "prefectureNameTranslations": null,
      "cityName": null,
      "cityNameTranslations": null,
      "placeType": "quarter"
    },
    {
      "id": "miyagi_unknown_hirosemachi",
      "osmId": 8392490410,
      "name": "広瀬町",
      "nameKana": "ひろせまち",
      "nameTranslations": {
        "en": "Hirosemachi"
      },
      "latitude": 38.2684264,
      "longitude": 140.8581752,
      "lines": null,
      "prefectureId": "miyagi",
      "cityId": null,
      "countryCode": "jp",
      "prefectureName": "宮城県",
      "prefectureNameTranslations": null,
      "cityName": null,
      "cityNameTranslations": null,
      "placeType": "quarter"
    },
    {
      "id": "miyagi_unknown_kasugamachi",
      "osmId": 8392490411,
      "name": "春日町",
      "nameKana": "かすがまち",
      "nameTranslations": {
        "en": "Kasugamachi"
      },
      "latitude": 38.266409,
      "longitude": 140.8649799,
      "lines": null,
      "prefectureId": "miyagi",
      "cityId": null,
      "countryCode": "jp",
      "prefectureName": "宮城県",
      "prefectureNameTranslations": null,
      "cityName": null,
      "cityNameTranslations": null,
      "placeType": "quarter"
    },
    {
      "id": "miyagi_unknown_hasekuramachi",
      "osmId": 8392490412,
      "name": "支倉町",
      "nameKana": "はせくらまち",
      "nameTranslations": {
        "en": "Hasekuramachi"
      },
      "latitude": 38.268298,
      "longitude": 140.8615547,
      "lines": null,
      "prefectureId": "miyagi",
      "cityId": null,
      "countryCode": "jp",
      "prefectureName": "宮城県",
      "prefectureNameTranslations": null,
      "cityName": null,
      "cityNameTranslations": null,
      "placeType": "quarter"
    },
    {
      "id": "miyagi_unknown_sakuragaoka_koen",
      "osmId": 8392490413,
      "name": "桜ケ岡公園",
      "nameKana": "さくらがおかこうえん",
      "nameTranslations": {
        "en": "Sakuragaoka-koen"
      },
      "latitude": 38.2611272,
      "longitude": 140.8614045,
      "lines": null,
      "prefectureId": "miyagi",
      "cityId": null,
      "countryCode": "jp",
      "prefectureName": "宮城県",
      "prefectureNameTranslations": null,
      "cityName": null,
      "cityNameTranslations": null,
      "placeType": "quarter"
    },
    {
      "id": "miyagi_unknown_tachimachi",
      "osmId": 8392490414,
      "name": "立町",
      "nameKana": "たちまち",
      "nameTranslations": {
        "en": "Tachimachi"
      },
      "latitude": 38.2630321,
      "longitude": 140.8644448,
      "lines": null,
      "prefectureId": "miyagi",
      "cityId": null,
      "countryCode": "jp",
      "prefectureName": "宮城県",
      "prefectureNameTranslations": null,
      "cityName": null,
      "cityNameTranslations": null,
      "placeType": "quarter"
    },
    {
      "id": "miyagi_unknown_goroku",
      "osmId": 8392490427,
      "name": "郷六",
      "nameKana": "ごうろく",
      "nameTranslations": {
        "en": "Goroku"
      },
      "latitude": 38.2641683,
      "longitude": 140.8192563,
      "lines": null,
      "prefectureId": "miyagi",
      "cityId": null,
      "countryCode": "jp",
      "prefectureName": "宮城県",
      "prefectureNameTranslations": null,
      "cityName": null,
      "cityNameTranslations": null,
      "placeType": "quarter"
    },
    {
      "id": "miyagi_unknown_moniwa",
      "osmId": 8392490428,
      "name": "茂庭",
      "nameKana": "もにわ",
      "nameTranslations": {
        "en": "Moniwa"
      },
      "latitude": 38.2498926,
      "longitude": 140.7994938,
      "lines": null,
      "prefectureId": "miyagi",
      "cityId": null,
      "countryCode": "jp",
      "prefectureName": "宮城県",
      "prefectureNameTranslations": null,
      "cityName": null,
      "cityNameTranslations": null,
      "placeType": "quarter"
    },
    {
      "id": "miyagi_unknown_aramaki",
      "osmId": 8392490429,
      "name": "荒巻",
      "nameKana": "あらまき",
      "nameTranslations": {
        "en": "Aramaki"
      },
      "latitude": 38.2577069,
      "longitude": 140.8342284,
      "lines": null,
      "prefectureId": "miyagi",
      "cityId": null,
      "countryCode": "jp",
      "prefectureName": "宮城県",
      "prefectureNameTranslations": null,
      "cityName": null,
      "cityNameTranslations": null,
      "placeType": "quarter"
    },
    {
      "id": "miyagi_unknown_kawauchi_sanjuninmachi",
      "osmId": 8392490430,
      "name": "川内三十人町",
      "nameKana": "かわうちさんじゅうにんまち",
      "nameTranslations": {
        "en": "Kawauchi-Sanjuninmachi"
      },
      "latitude": 38.2631785,
      "longitude": 140.8445737,
      "lines": null,
      "prefectureId": "miyagi",
      "cityId": null,
      "countryCode": "jp",
      "prefectureName": "宮城県",
      "prefectureNameTranslations": null,
      "cityName": null,
      "cityNameTranslations": null,
      "placeType": "quarter"
    },
    {
      "id": "miyagi_unknown_kawauchi_kameokacho",
      "osmId": 8392490431,
      "name": "川内亀岡町",
      "nameKana": "かわうちかめおかちょう",
      "nameTranslations": {
        "en": "Kawauchi-Kameokacho"
      },
      "latitude": 38.2606912,
      "longitude": 140.8465049,
      "lines": null,
      "prefectureId": "miyagi",
      "cityId": null,
      "countryCode": "jp",
      "prefectureName": "宮城県",
      "prefectureNameTranslations": null,
      "cityName": null,
      "cityNameTranslations": null,
      "placeType": "quarter"
    },
    {
      "id": "miyagi_unknown_kawauchi_kameoka_kitauracho",
      "osmId": 8392490432,
      "name": "川内亀岡北裏丁",
      "nameKana": "かわうちかめおかきたうらちょう",
      "nameTranslations": {
        "en": "Kawauchi-Kameoka-Kitauracho"
      },
      "latitude": 38.2622855,
      "longitude": 140.8471915,
      "lines": null,
      "prefectureId": "miyagi",
      "cityId": null,
      "countryCode": "jp",
      "prefectureName": "宮城県",
      "prefectureNameTranslations": null,
      "cityName": null,
      "cityNameTranslations": null,
      "placeType": "quarter"
    },
    {
      "id": "miyagi_unknown_kawauchi_yamayashiki",
      "osmId": 8392490433,
      "name": "川内山屋敷",
      "nameKana": "かわうちやまやしき",
      "nameTranslations": {
        "en": "Kawauchi-Yamayashiki"
      },
      "latitude": 38.2583977,
      "longitude": 140.8468348,
      "lines": null,
      "prefectureId": "miyagi",
      "cityId": null,
      "countryCode": "jp",
      "prefectureName": "宮城県",
      "prefectureNameTranslations": null,
      "cityName": null,
      "cityNameTranslations": null,
      "placeType": "quarter"
    },
    {
      "id": "miyagi_unknown_kawauchi",
      "osmId": 8392490434,
      "name": "川内",
      "nameKana": null,
      "nameTranslations": {
        "en": "Kawauchi"
      },
      "latitude": 38.256877,
      "longitude": 140.8524352,
      "lines": null,
      "prefectureId": "miyagi",
      "cityId": null,
      "countryCode": "jp",
      "prefectureName": "宮城県",
      "prefectureNameTranslations": null,
      "cityName": null,
      "cityNameTranslations": null,
      "placeType": "quarter"
    },
    {
      "id": "miyagi_unknown_kawauchi_motohasekura",
      "osmId": 8392490435,
      "name": "川内元支倉",
      "nameKana": "かわうちもとはせくら",
      "nameTranslations": {
        "en": "Kawauchi-Motohasekura"
      },
      "latitude": 38.2632079,
      "longitude": 140.853079,
      "lines": null,
      "prefectureId": "miyagi",
      "cityId": null,
      "countryCode": "jp",
      "prefectureName": "宮城県",
      "prefectureNameTranslations": null,
      "cityName": null,
      "cityNameTranslations": null,
      "placeType": "quarter"
    },
    {
      "id": "miyagi_unknown_kawauchi_yodomibashidori",
      "osmId": 8392490436,
      "name": "川内澱橋通",
      "nameKana": "かわうちよどみばしどおり",
      "nameTranslations": {
        "en": "Kawauchi-Yodomibashidori"
      },
      "latitude": 38.2651612,
      "longitude": 140.8572887,
      "lines": null,
      "prefectureId": "miyagi",
      "cityId": null,
      "countryCode": "jp",
      "prefectureName": "宮城県",
      "prefectureNameTranslations": null,
      "cityName": null,
      "cityNameTranslations": null,
      "placeType": "quarter"
    },
    {
      "id": "miyagi_unknown_kawauchi_myojin_yokocho",
      "osmId": 8392490437,
      "name": "川内明神横丁",
      "nameKana": "かわうちみょうじんよこちょう",
      "nameTranslations": {
        "en": "Kawauchi-Myojin-Yokocho"
      },
      "latitude": 38.265316,
      "longitude": 140.8597416,
      "lines": null,
      "prefectureId": "miyagi",
      "cityId": null,
      "countryCode": "jp",
      "prefectureName": "宮城県",
      "prefectureNameTranslations": null,
      "cityName": null,
      "cityNameTranslations": null,
      "placeType": "quarter"
    },
    {
      "id": "miyagi_unknown_kawauchi_kawamaecho",
      "osmId": 8392490438,
      "name": "川内川前丁",
      "nameKana": "かわうちかわまえちょう",
      "nameTranslations": {
        "en": "Kawauchi-Kawamaecho"
      },
      "latitude": 38.2642483,
      "longitude": 140.8610129,
      "lines": null,
      "prefectureId": "miyagi",
      "cityId": null,
      "countryCode": "jp",
      "prefectureName": "宮城県",
      "prefectureNameTranslations": null,
      "cityName": null,
      "cityNameTranslations": null,
      "placeType": "quarter"
    },
    {
      "id": "miyagi_unknown_kawauchi_daikumachi",
      "osmId": 8392490439,
      "name": "川内大工町",
      "nameKana": "かわうちだいくまち",
      "nameTranslations": {
        "en": "Kawauchi-Daikumachi"
      },
      "latitude": 38.2634901,
      "longitude": 140.8587411,
      "lines": null,
      "prefectureId": "miyagi",
      "cityId": null,
      "countryCode": "jp",
      "prefectureName": "宮城県",
      "prefectureNameTranslations": null,
      "cityName": null,
      "cityNameTranslations": null,
      "placeType": "quarter"
    },
    {
      "id": "miyagi_unknown_kawauchi_nakanosemachi",
      "osmId": 8392490440,
      "name": "川内中ノ瀬町",
      "nameKana": "かわうちなかのせまち",
      "nameTranslations": {
        "en": "Kawauchi-Nakanosemachi"
      },
      "latitude": 38.2603606,
      "longitude": 140.8584058,
      "lines": null,
      "prefectureId": "miyagi",
      "cityId": null,
      "countryCode": "jp",
      "prefectureName": "宮城県",
      "prefectureNameTranslations": null,
      "cityName": null,
      "cityNameTranslations": null,
      "placeType": "quarter"
    },
    {
      "id": "miyagi_unknown_kawauchi_oimawashi",
      "osmId": 8392490441,
      "name": "川内追廻",
      "nameKana": "かわうちおいまわし",
      "nameTranslations": {
        "en": "Kawauchi-Oimawashi"
      },
      "latitude": 38.2552215,
      "longitude": 140.8599776,
      "lines": null,
      "prefectureId": "miyagi",
      "cityId": null,
      "countryCode": "jp",
      "prefectureName": "宮城県",
      "prefectureNameTranslations": null,
      "cityName": null,
      "cityNameTranslations": null,
      "placeType": "quarter"
    },
    {
      "id": "miyagi_unknown_otemachi",
      "osmId": 8392490442,
      "name": "大手町",
      "nameKana": "おおてまち",
      "nameTranslations": {
        "en": "Otemachi"
      },
      "latitude": 38.2567043,
      "longitude": 140.8615252,
      "lines": null,
      "prefectureId": "miyagi",
      "cityId": null,
      "countryCode": "jp",
      "prefectureName": "宮城県",
      "prefectureNameTranslations": null,
      "cityName": null,
      "cityNameTranslations": null,
      "placeType": "quarter"
    },
    {
      "id": "miyagi_unknown_kadan",
      "osmId": 8392490443,
      "name": "花壇",
      "nameKana": "かだん",
      "nameTranslations": {
        "en": "Kadan"
      },
      "latitude": 38.2539641,
      "longitude": 140.8633089,
      "lines": null,
      "prefectureId": "miyagi",
      "cityId": null,
      "countryCode": "jp",
      "prefectureName": "宮城県",
      "prefectureNameTranslations": null,
      "cityName": null,
      "cityNameTranslations": null,
      "placeType": "quarter"
    },
    {
      "id": "miyagi_unknown_otamayashita",
      "osmId": 8392490444,
      "name": "霊屋下",
      "nameKana": "おたまやした",
      "nameTranslations": {
        "en": "Otamayashita"
      },
      "latitude": 38.2524602,
      "longitude": 140.8665651,
      "lines": null,
      "prefectureId": "miyagi",
      "cityId": null,
      "countryCode": "jp",
      "prefectureName": "宮城県",
      "prefectureNameTranslations": null,
      "cityName": null,
      "cityNameTranslations": null,
      "placeType": "quarter"
    },
    {
      "id": "miyagi_unknown_kitamemachi",
      "osmId": 8392490450,
      "name": "北目町",
      "nameKana": "きためまち",
      "nameTranslations": {
        "en": "Kitamemachi"
      },
      "latitude": 38.2544275,
      "longitude": 140.877251,
      "lines": null,
      "prefectureId": "miyagi",
      "cityId": null,
      "countryCode": "jp",
      "prefectureName": "宮城県",
      "prefectureNameTranslations": null,
      "cityName": null,
      "cityNameTranslations": null,
      "placeType": "quarter"
    },
    {
      "id": "miyagi_unknown_dainohara_shinrinkoen",
      "osmId": 8392493805,
      "name": "台原森林公園",
      "nameKana": "だいのはらしんりんこうえん",
      "nameTranslations": {
        "en": "Dainohara-shinrinkoen"
      },
      "latitude": 38.2938859,
      "longitude": 140.8798259,
      "lines": null,
      "prefectureId": "miyagi",
      "cityId": null,
      "countryCode": "jp",
      "prefectureName": "宮城県",
      "prefectureNameTranslations": null,
      "cityName": null,
      "cityNameTranslations": null,
      "placeType": "quarter"
    },
    {
      "id": "miyagi_unknown_aobayama",
      "osmId": 8392493806,
      "name": "青葉山",
      "nameKana": "あおばやま",
      "nameTranslations": {
        "en": "Aobayama"
      },
      "latitude": 38.2596614,
      "longitude": 140.8569588,
      "lines": null,
      "prefectureId": "miyagi",
      "cityId": null,
      "countryCode": "jp",
      "prefectureName": "宮城県",
      "prefectureNameTranslations": null,
      "cityName": null,
      "cityNameTranslations": null,
      "placeType": "quarter"
    },
    {
      "id": "miyagi_unknown_umedamachi",
      "osmId": 8392493807,
      "name": "梅田町",
      "nameKana": "うめだまち",
      "nameTranslations": {
        "en": "Umedamachi"
      },
      "latitude": 38.2778642,
      "longitude": 140.8807138,
      "lines": null,
      "prefectureId": "miyagi",
      "cityId": null,
      "countryCode": "jp",
      "prefectureName": "宮城県",
      "prefectureNameTranslations": null,
      "cityName": null,
      "cityNameTranslations": null,
      "placeType": "quarter"
    },
    {
      "id": "miyagi_unknown_nikkawa",
      "osmId": 8392493808,
      "name": "新川",
      "nameKana": "にっかわ",
      "nameTranslations": {
        "en": "Nikkawa"
      },
      "latitude": 38.3216428,
      "longitude": 140.6068253,
      "lines": null,
      "prefectureId": "miyagi",
      "cityId": null,
      "countryCode": "jp",
      "prefectureName": "宮城県",
      "prefectureNameTranslations": null,
      "cityName": null,
      "cityNameTranslations": null,
      "placeType": "quarter"
    },
    {
      "id": "miyagi_unknown_sakunami",
      "osmId": 8392493809,
      "name": "作並",
      "nameKana": "さくなみ",
      "nameTranslations": {
        "en": "Sakunami"
      },
      "latitude": 38.3334933,
      "longitude": 140.6150436,
      "lines": null,
      "prefectureId": "miyagi",
      "cityId": null,
      "countryCode": "jp",
      "prefectureName": "宮城県",
      "prefectureNameTranslations": null,
      "cityName": null,
      "cityNameTranslations": null,
      "placeType": "quarter"
    },
    {
      "id": "miyagi_unknown_sakunami_quarter",
      "osmId": 8392493810,
      "name": "作並",
      "nameKana": "さくなみ",
      "nameTranslations": {
        "en": "Sakunami"
      },
      "latitude": 38.3130904,
      "longitude": 140.6414366,
      "lines": null,
      "prefectureId": "miyagi",
      "cityId": null,
      "countryCode": "jp",
      "prefectureName": "宮城県",
      "prefectureNameTranslations": null,
      "cityName": null,
      "cityNameTranslations": null,
      "placeType": "quarter"
    },
    {
      "id": "miyagi_unknown_nikkawa_quarter",
      "osmId": 8392493811,
      "name": "新川",
      "nameKana": "にっかわ",
      "nameTranslations": {
        "en": "Nikkawa"
      },
      "latitude": 38.3052947,
      "longitude": 140.6256437,
      "lines": null,
      "prefectureId": "miyagi",
      "cityId": null,
      "countryCode": "jp",
      "prefectureName": "宮城県",
      "prefectureNameTranslations": null,
      "cityName": null,
      "cityNameTranslations": null,
      "placeType": "quarter"
    },
    {
      "id": "miyagi_unknown_nikka",
      "osmId": 8392493812,
      "name": "ニッカ",
      "nameKana": "にっか",
      "nameTranslations": {
        "en": "Nikka"
      },
      "latitude": 38.3094957,
      "longitude": 140.6501913,
      "lines": null,
      "prefectureId": "miyagi",
      "cityId": null,
      "countryCode": "jp",
      "prefectureName": "宮城県",
      "prefectureNameTranslations": null,
      "cityName": null,
      "cityNameTranslations": null,
      "placeType": "quarter"
    },
    {
      "id": "miyagi_unknown_okura",
      "osmId": 8392493813,
      "name": "大倉",
      "nameKana": "おおくら",
      "nameTranslations": {
        "en": "Okura"
      },
      "latitude": 38.3635989,
      "longitude": 140.6746959,
      "lines": null,
      "prefectureId": "miyagi",
      "cityId": null,
      "countryCode": "jp",
      "prefectureName": "宮城県",
      "prefectureNameTranslations": null,
      "cityName": null,
      "cityNameTranslations": null,
      "placeType": "quarter"
    },
    {
      "id": "miyagi_unknown_okura_quarter",
      "osmId": 8392493814,
      "name": "大倉",
      "nameKana": "おおくら",
      "nameTranslations": {
        "en": "Okura"
      },
      "latitude": 38.3176529,
      "longitude": 140.6975162,
      "lines": null,
      "prefectureId": "miyagi",
      "cityId": null,
      "countryCode": "jp",
      "prefectureName": "宮城県",
      "prefectureNameTranslations": null,
      "cityName": null,
      "cityNameTranslations": null,
      "placeType": "quarter"
    },
    {
      "id": "miyagi_unknown_kumagane",
      "osmId": 8392493815,
      "name": "熊ケ根",
      "nameKana": "かわうち",
      "nameTranslations": {
        "en": "Kumagane"
      },
      "latitude": 38.2960583,
      "longitude": 140.6872487,
      "lines": null,
      "prefectureId": "miyagi",
      "cityId": null,
      "countryCode": "jp",
      "prefectureName": "宮城県",
      "prefectureNameTranslations": null,
      "cityName": null,
      "cityNameTranslations": null,
      "placeType": "quarter"
    },
    {
      "id": "miyagi_unknown_imozawa",
      "osmId": 8392516939,
      "name": "芋沢",
      "nameKana": "いもざわ",
      "nameTranslations": {
        "en": "Imozawa"
      },
      "latitude": 38.2979024,
      "longitude": 140.7718563,
      "lines": null,
      "prefectureId": "miyagi",
      "cityId": null,
      "countryCode": "jp",
      "prefectureName": "宮城県",
      "prefectureNameTranslations": null,
      "cityName": null,
      "cityNameTranslations": null,
      "placeType": "quarter"
    },
    {
      "id": "miyagi_unknown_mukaida",
      "osmId": 8392516940,
      "name": "向田",
      "nameKana": "むかいだ",
      "nameTranslations": {
        "en": "Mukaida"
      },
      "latitude": 38.2801361,
      "longitude": 140.792689,
      "lines": null,
      "prefectureId": "miyagi",
      "cityId": null,
      "countryCode": "jp",
      "prefectureName": "宮城県",
      "prefectureNameTranslations": null,
      "cityName": null,
      "cityNameTranslations": null,
      "placeType": "quarter"
    },
    {
      "id": "miyagi_unknown_shimo_ayashi",
      "osmId": 8392516941,
      "name": "下愛子",
      "nameKana": "しもあやし",
      "nameTranslations": {
        "en": "Shimo-Ayashi"
      },
      "latitude": 38.2698837,
      "longitude": 140.7691955,
      "lines": null,
      "prefectureId": "miyagi",
      "cityId": null,
      "countryCode": "jp",
      "prefectureName": "宮城県",
      "prefectureNameTranslations": null,
      "cityName": null,
      "cityNameTranslations": null,
      "placeType": "quarter"
    },
    {
      "id": "miyagi_unknown_kami_ayashi",
      "osmId": 8392516942,
      "name": "上愛子",
      "nameKana": "かみあやし",
      "nameTranslations": {
        "en": "Kami-Ayashi"
      },
      "latitude": 38.2701111,
      "longitude": 140.7557309,
      "lines": null,
      "prefectureId": "miyagi",
      "cityId": null,
      "countryCode": "jp",
      "prefectureName": "宮城県",
      "prefectureNameTranslations": null,
      "cityName": null,
      "cityNameTranslations": null,
      "placeType": "quarter"
    },
    {
      "id": "miyagi_unknown_toguhama",
      "osmId": 8393062527,
      "name": "東宮浜",
      "nameKana": "とうぐうはま",
      "nameTranslations": {
        "en": "Toguhama"
      },
      "latitude": 38.3050253,
      "longitude": 141.053102,
      "lines": null,
      "prefectureId": "miyagi",
      "cityId": null,
      "countryCode": "jp",
      "prefectureName": "宮城県",
      "prefectureNameTranslations": null,
      "cityName": null,
      "cityNameTranslations": null,
      "placeType": "quarter"
    },
    {
      "id": "miyagi_unknown_yogasakihama",
      "osmId": 8393062528,
      "name": "代ヶ崎浜",
      "nameKana": "よがさきはま",
      "nameTranslations": {
        "en": "Yogasakihama"
      },
      "latitude": 38.3149424,
      "longitude": 141.0664916,
      "lines": null,
      "prefectureId": "miyagi",
      "cityId": null,
      "countryCode": "jp",
      "prefectureName": "宮城県",
      "prefectureNameTranslations": null,
      "cityName": null,
      "cityNameTranslations": null,
      "placeType": "quarter"
    },
    {
      "id": "miyagi_unknown_yoshidahama",
      "osmId": 8393062529,
      "name": "吉田浜",
      "nameKana": "よしだはま",
      "nameTranslations": {
        "en": "Yoshidahama"
      },
      "latitude": 38.3093695,
      "longitude": 141.0754394,
      "lines": null,
      "prefectureId": "miyagi",
      "cityId": null,
      "countryCode": "jp",
      "prefectureName": "宮城県",
      "prefectureNameTranslations": null,
      "cityName": null,
      "cityNameTranslations": null,
      "placeType": "quarter"
    },
    {
      "id": "miyagi_unknown_hanabuchihama",
      "osmId": 8393062530,
      "name": "花渕浜",
      "nameKana": "はなぶちはま",
      "nameTranslations": {
        "en": "Hanabuchihama"
      },
      "latitude": 38.2985254,
      "longitude": 141.0736477,
      "lines": null,
      "prefectureId": "miyagi",
      "cityId": null,
      "countryCode": "jp",
      "prefectureName": "宮城県",
      "prefectureNameTranslations": null,
      "cityName": null,
      "cityNameTranslations": null,
      "placeType": "quarter"
    },
    {
      "id": "miyagi_unknown_sasayama",
      "osmId": 8393062531,
      "name": "笹山",
      "nameKana": "ささやま",
      "nameTranslations": {
        "en": "Sasayama"
      },
      "latitude": 38.2960752,
      "longitude": 141.0694689,
      "lines": null,
      "prefectureId": "miyagi",
      "cityId": null,
      "countryCode": "jp",
      "prefectureName": "宮城県",
      "prefectureNameTranslations": null,
      "cityName": null,
      "cityNameTranslations": null,
      "placeType": "quarter"
    },
    {
      "id": "miyagi_unknown_shobutahama",
      "osmId": 8393062532,
      "name": "菖蒲田浜",
      "nameKana": "しょうぶたはま",
      "nameTranslations": {
        "en": "Shobutahama"
      },
      "latitude": 38.284387,
      "longitude": 141.0590887,
      "lines": null,
      "prefectureId": "miyagi",
      "cityId": null,
      "countryCode": "jp",
      "prefectureName": "宮城県",
      "prefectureNameTranslations": null,
      "cityName": null,
      "cityNameTranslations": null,
      "placeType": "quarter"
    },
    {
      "id": "miyagi_unknown_matsugahama",
      "osmId": 8393062533,
      "name": "松ヶ浜",
      "nameKana": "まつがはま",
      "nameTranslations": {
        "en": "Matsugahama"
      },
      "latitude": 38.2855323,
      "longitude": 141.0520077,
      "lines": null,
      "prefectureId": "miyagi",
      "cityId": null,
      "countryCode": "jp",
      "prefectureName": "宮城県",
      "prefectureNameTranslations": null,
      "cityName": null,
      "cityNameTranslations": null,
      "placeType": "quarter"
    },
    {
      "id": "miyagi_unknown_minatohama",
      "osmId": 8393062534,
      "name": "湊浜",
      "nameKana": "みなとはま",
      "nameTranslations": {
        "en": "Minatohama"
      },
      "latitude": 38.2847576,
      "longitude": 141.0444653,
      "lines": null,
      "prefectureId": "miyagi",
      "cityId": null,
      "countryCode": "jp",
      "prefectureName": "宮城県",
      "prefectureNameTranslations": null,
      "cityName": null,
      "cityNameTranslations": null,
      "placeType": "quarter"
    },
    {
      "id": "miyagi_unknown_yuriage",
      "osmId": 8505614591,
      "name": "閖上",
      "nameKana": "ゆりあげ",
      "nameTranslations": {
        "en": "Yuriage"
      },
      "latitude": 38.1752405,
      "longitude": 140.9430021,
      "lines": null,
      "prefectureId": "miyagi",
      "cityId": null,
      "countryCode": "jp",
      "prefectureName": "宮城県",
      "prefectureNameTranslations": null,
      "cityName": null,
      "cityNameTranslations": null,
      "placeType": "quarter"
    },
    {
      "id": "miyagi_unknown_mitazono_kita",
      "osmId": 8512905103,
      "name": "美田園北",
      "nameKana": "みたぞのきた",
      "nameTranslations": {
        "en": "Mitazono-Kita"
      },
      "latitude": 38.1617459,
      "longitude": 140.918203,
      "lines": null,
      "prefectureId": "miyagi",
      "cityId": null,
      "countryCode": "jp",
      "prefectureName": "宮城県",
      "prefectureNameTranslations": null,
      "cityName": null,
      "cityNameTranslations": null,
      "placeType": "quarter"
    },
    {
      "id": "miyagi_unknown_urashukuhama",
      "osmId": 8521058430,
      "name": "浦宿浜",
      "nameKana": "うらしゅくはま",
      "nameTranslations": {
        "en": "Urashukuhama"
      },
      "latitude": 38.4413215,
      "longitude": 141.4174199,
      "lines": null,
      "prefectureId": "miyagi",
      "cityId": null,
      "countryCode": "jp",
      "prefectureName": "宮城県",
      "prefectureNameTranslations": null,
      "cityName": null,
      "cityNameTranslations": null,
      "placeType": "quarter"
    },
    {
      "id": "miyagi_unknown_konorihama",
      "osmId": 8521058431,
      "name": "小乗浜",
      "nameKana": "このりはま",
      "nameTranslations": {
        "en": "Konorihama"
      },
      "latitude": 38.4333746,
      "longitude": 141.4518983,
      "lines": null,
      "prefectureId": "miyagi",
      "cityId": null,
      "countryCode": "jp",
      "prefectureName": "宮城県",
      "prefectureNameTranslations": null,
      "cityName": null,
      "cityNameTranslations": null,
      "placeType": "quarter"
    },
    {
      "id": "miyagi_unknown_yokoura",
      "osmId": 8521058432,
      "name": "横浦",
      "nameKana": "よこうら",
      "nameTranslations": {
        "en": "Yokoura"
      },
      "latitude": 38.4090783,
      "longitude": 141.467434,
      "lines": null,
      "prefectureId": "miyagi",
      "cityId": null,
      "countryCode": "jp",
      "prefectureName": "宮城県",
      "prefectureNameTranslations": null,
      "cityName": null,
      "cityNameTranslations": null,
      "placeType": "quarter"
    },
    {
      "id": "miyagi_unknown_sakuragaoka",
      "osmId": 8521058434,
      "name": "桜ケ丘",
      "nameKana": "さくらがおか",
      "nameTranslations": {
        "en": "Sakuragaoka"
      },
      "latitude": 38.4389884,
      "longitude": 141.4414963,
      "lines": null,
      "prefectureId": "miyagi",
      "cityId": null,
      "countryCode": "jp",
      "prefectureName": "宮城県",
      "prefectureNameTranslations": null,
      "cityName": null,
      "cityNameTranslations": null,
      "placeType": "quarter"
    },
    {
      "id": "miyagi_unknown_miyagasaki",
      "osmId": 8521058436,
      "name": "宮ケ崎",
      "nameKana": "みやがさき",
      "nameTranslations": {
        "en": "Miyagasaki"
      },
      "latitude": 38.4474791,
      "longitude": 141.4523584,
      "lines": null,
      "prefectureId": "miyagi",
      "cityId": null,
      "countryCode": "jp",
      "prefectureName": "宮城県",
      "prefectureNameTranslations": null,
      "cityName": null,
      "cityNameTranslations": null,
      "placeType": "quarter"
    },
    {
      "id": "miyagi_unknown_ishihama",
      "osmId": 8521058437,
      "name": "石浜",
      "nameKana": "いしはま",
      "nameTranslations": {
        "en": "Ishihama"
      },
      "latitude": 38.4487675,
      "longitude": 141.4614851,
      "lines": null,
      "prefectureId": "miyagi",
      "cityId": null,
      "countryCode": "jp",
      "prefectureName": "宮城県",
      "prefectureNameTranslations": null,
      "cityName": null,
      "cityNameTranslations": null,
      "placeType": "quarter"
    },
    {
      "id": "miyagi_unknown_kirigasaki",
      "osmId": 8521058439,
      "name": "桐ケ崎",
      "nameKana": "きりがさき",
      "nameTranslations": {
        "en": "Kirigasaki"
      },
      "latitude": 38.4426232,
      "longitude": 141.4765875,
      "lines": null,
      "prefectureId": "miyagi",
      "cityId": null,
      "countryCode": "jp",
      "prefectureName": "宮城県",
      "prefectureNameTranslations": null,
      "cityName": null,
      "cityNameTranslations": null,
      "placeType": "quarter"
    },
    {
      "id": "miyagi_unknown_tsukahama",
      "osmId": 8521058440,
      "name": "塚浜",
      "nameKana": "つかはま",
      "nameTranslations": {
        "en": "Tsukahama"
      },
      "latitude": 38.4066912,
      "longitude": 141.4945544,
      "lines": null,
      "prefectureId": "miyagi",
      "cityId": null,
      "countryCode": "jp",
      "prefectureName": "宮城県",
      "prefectureNameTranslations": null,
      "cityName": null,
      "cityNameTranslations": null,
      "placeType": "quarter"
    },
    {
      "id": "miyagi_unknown_onmaehama",
      "osmId": 8521058441,
      "name": "御前浜",
      "nameKana": "おんまえはま",
      "nameTranslations": {
        "en": "Onmaehama"
      },
      "latitude": 38.4654251,
      "longitude": 141.4724941,
      "lines": null,
      "prefectureId": "miyagi",
      "cityId": null,
      "countryCode": "jp",
      "prefectureName": "宮城県",
      "prefectureNameTranslations": null,
      "cityName": null,
      "cityNameTranslations": null,
      "placeType": "quarter"
    },
    {
      "id": "miyagi_unknown_oishiharahama",
      "osmId": 8521058442,
      "name": "大石原浜",
      "nameKana": "おおいしはらはま",
      "nameTranslations": {
        "en": "Oishiharahama"
      },
      "latitude": 38.4002328,
      "longitude": 141.4656676,
      "lines": null,
      "prefectureId": "miyagi",
      "cityId": null,
      "countryCode": "jp",
      "prefectureName": "宮城県",
      "prefectureNameTranslations": null,
      "cityName": null,
      "cityNameTranslations": null,
      "placeType": "quarter"
    },
    {
      "id": "miyagi_unknown_izushima",
      "osmId": 8521058443,
      "name": "出島",
      "nameKana": "いずしま",
      "nameTranslations": {
        "en": "Izushima"
      },
      "latitude": 38.4503713,
      "longitude": 141.5242361,
      "lines": null,
      "prefectureId": "miyagi",
      "cityId": null,
      "countryCode": "jp",
      "prefectureName": "宮城県",
      "prefectureNameTranslations": null,
      "cityName": null,
      "cityNameTranslations": null,
      "placeType": "quarter"
    },
    {
      "id": "miyagi_unknown_kogane",
      "osmId": 8521058444,
      "name": "黄金",
      "nameKana": "こがね",
      "nameTranslations": {
        "en": "Kogane"
      },