{
  "fetchedAt": "2025-12-09T12:16:56.713Z",
  "prefecture": {
    "id": "tokyo",
    "name": "東京都"
  },
  "cities": [
    {
      "id": "tokyo_meguro",
      "osmId": 57542483,
      "prefectureId": "tokyo",
      "name": "目黒区",
      "nameKana": "めぐろく",
      "nameTranslations": {
        "en": "Meguro"
      },
      "type": "区",
      "countryCode": "jp",
      "latitude": 35.6412891,
      "longitude": 139.6983834
    },
    {
      "id": "tokyo_musashino",
      "osmId": 509904081,
      "prefectureId": "tokyo",
      "name": "武蔵野市",
      "nameKana": null,
      "nameTranslations": {
        "en": "Musashino"
      },
      "type": "市",
      "countryCode": "jp",
      "latitude": 35.7177239,
      "longitude": 139.5659802
    },
    {
      "id": "tokyo_mitaka",
      "osmId": 527555169,
      "prefectureId": "tokyo",
      "name": "三鷹市",
      "nameKana": null,
      "nameTranslations": {
        "en": "Mitaka"
      },
      "type": "市",
      "countryCode": "jp",
      "latitude": 35.6833926,
      "longitude": 139.5592421
    },
    {
      "id": "tokyo_komae",
      "osmId": 602527728,
      "prefectureId": "tokyo",
      "name": "狛江市",
      "nameKana": null,
      "nameTranslations": {
        "en": "Komae"
      },
      "type": "市",
      "countryCode": "jp",
      "latitude": 35.6347642,
      "longitude": 139.5787343
    },
    {
      "id": "tokyo_chofu",
      "osmId": 621286703,
      "prefectureId": "tokyo",
      "name": "調布市",
      "nameKana": null,
      "nameTranslations": {
        "en": "Chofu"
      },
      "type": "市",
      "countryCode": "jp",
      "latitude": 35.6506036,
      "longitude": 139.5407066
    },
    {
      "id": "tokyo_fuchu",
      "osmId": 621890744,
      "prefectureId": "tokyo",
      "name": "府中市",
      "nameKana": null,
      "nameTranslations": {
        "en": "Fuchu"
      },
      "type": "市",
      "countryCode": "jp",
      "latitude": 35.6693751,
      "longitude": 139.4774094
    },
    {
      "id": "tokyo_hachioji",
      "osmId": 622423997,
      "prefectureId": "tokyo",
      "name": "八王子市",
      "nameKana": "はちおうじし",
      "nameTranslations": {
        "en": "Hachioji"
      },
      "type": "市",
      "countryCode": "jp",
      "latitude": 35.6663595,
      "longitude": 139.3163653
    },
    {
      "id": "tokyo_hino",
      "osmId": 622424880,
      "prefectureId": "tokyo",
      "name": "日野市",
      "nameKana": null,
      "nameTranslations": {
        "en": "Hino"
      },
      "type": "市",
      "countryCode": "jp",
      "latitude": 35.6713394,
      "longitude": 139.3949801
    },
    {
      "id": "tokyo_inagi",
      "osmId": 622640333,
      "prefectureId": "tokyo",
      "name": "稲城市",
      "nameKana": "いなぎし",
      "nameTranslations": {
        "en": "Inagi"
      },
      "type": "市",
      "countryCode": "jp",
      "latitude": 35.6379674,
      "longitude": 139.5046754
    },
    {
      "id": "tokyo_tama",
      "osmId": 622642835,
      "prefectureId": "tokyo",
      "name": "多摩市",
      "nameKana": null,
      "nameTranslations": {
        "en": "Tama"
      },
      "type": "市",
      "countryCode": "jp",
      "latitude": 35.6370223,
      "longitude": 139.4463569
    },
    {
      "id": "tokyo_nakano",
      "osmId": 622866764,
      "prefectureId": "tokyo",
      "name": "中野区",
      "nameKana": "なかのく",
      "nameTranslations": {
        "en": "Nakano"
      },
      "type": "区",
      "countryCode": "jp",
      "latitude": 35.7086179,
      "longitude": 139.6629399
    },
    {
      "id": "tokyo_nerima",
      "osmId": 622868305,
      "prefectureId": "tokyo",
      "name": "練馬区",
      "nameKana": "ねりまく",
      "nameTranslations": {
        "en": "Nerima"
      },
      "type": "区",
      "countryCode": "jp",
      "latitude": 35.7357808,
      "longitude": 139.6521325
    },
    {
      "id": "tokyo_machida",
      "osmId": 623797057,
      "prefectureId": "tokyo",
      "name": "町田市",
      "nameKana": null,
      "nameTranslations": {
        "en": "Machida"
      },
      "type": "市",
      "countryCode": "jp",
      "latitude": 35.5466803,
      "longitude": 139.4386999
    },
    {
      "id": "tokyo_kokubunji",
      "osmId": 623801472,
      "prefectureId": "tokyo",
      "name": "国分寺市",
      "nameKana": null,
      "nameTranslations": {
        "en": "Kokubunji"
      },
      "type": "市",
      "countryCode": "jp",
      "latitude": 35.709674,
      "longitude": 139.454224
    },
    {
      "id": "tokyo_kunitachi",
      "osmId": 623805032,
      "prefectureId": "tokyo",
      "name": "国立市",
      "nameKana": null,
      "nameTranslations": {
        "en": "Kunitachi"
      },
      "type": "市",
      "countryCode": "jp",
      "latitude": 35.681991,
      "longitude": 139.43624
    },
    {
      "id": "tokyo_toshima",
      "osmId": 656246516,
      "prefectureId": "tokyo",
      "name": "豊島区",
      "nameKana": "としまく",
      "nameTranslations": {
        "en": "Toshima"
      },
      "type": "区",
      "countryCode": "jp",
      "latitude": 35.725913,
      "longitude": 139.7166365
    },
    {
      "id": "tokyo_bunkyo",
      "osmId": 664479961,
      "prefectureId": "tokyo",
      "name": "文京区",
      "nameKana": "ぶんきょうく",
      "nameTranslations": {
        "en": "Bunkyo"
      },
      "type": "区",
      "countryCode": "jp",
      "latitude": 35.7080255,
      "longitude": 139.7523066
    },
    {
      "id": "tokyo_itabashi",
      "osmId": 714895390,
      "prefectureId": "tokyo",
      "name": "板橋区",
      "nameKana": "いたばしく",
      "nameTranslations": {
        "en": "Itabashi"
      },
      "type": "区",
      "countryCode": "jp",
      "latitude": 35.7512814,
      "longitude": 139.7087794
    },
    {
      "id": "tokyo_suginami",
      "osmId": 718383251,
      "prefectureId": "tokyo",
      "name": "杉並区",
      "nameKana": "すぎなみく",
      "nameTranslations": {
        "en": "Suginami"
      },
      "type": "区",
      "countryCode": "jp",
      "latitude": 35.6994929,
      "longitude": 139.6362876
    },
    {
      "id": "tokyo_sumida",
      "osmId": 721772119,
      "prefectureId": "tokyo",
      "name": "墨田区",
      "nameKana": "すみだく",
      "nameTranslations": {
        "en": "Sumida"
      },
      "type": "区",
      "countryCode": "jp",
      "latitude": 35.7104196,
      "longitude": 139.8017421
    },
    {
      "id": "tokyo_edogawa",
      "osmId": 721783580,
      "prefectureId": "tokyo",
      "name": "江戸川区",
      "nameKana": "えどがわく",
      "nameTranslations": {
        "en": "Edogawa"
      },
      "type": "区",
      "countryCode": "jp",
      "latitude": 35.7066318,
      "longitude": 139.868677
    },
    {
      "id": "tokyo_katsushika",
      "osmId": 721783585,
      "prefectureId": "tokyo",
      "name": "葛飾区",
      "nameKana": "かつしかく",
      "nameTranslations": {
        "en": "Katsushika"
      },
      "type": "区",
      "countryCode": "jp",
      "latitude": 35.7433912,
      "longitude": 139.8473472
    },
    {
      "id": "tokyo_koto",
      "osmId": 721916368,
      "prefectureId": "tokyo",
      "name": "江東区",
      "nameKana": "こうとうく",
      "nameTranslations": {
        "en": "Koto"
      },
      "type": "区",
      "countryCode": "jp",
      "latitude": 35.6727747,
      "longitude": 139.8169621
    },
    {
      "id": "tokyo_kita",
      "osmId": 722053207,
      "prefectureId": "tokyo",
      "name": "北区",
      "nameKana": "きたく",
      "nameTranslations": {
        "en": "Kita"
      },
      "type": "区",
      "countryCode": "jp",
      "latitude": 35.7528821,
      "longitude": 139.7338331
    },
    {
      "id": "tokyo_kodaira",
      "osmId": 771323155,
      "prefectureId": "tokyo",
      "name": "小平市",
      "nameKana": null,
      "nameTranslations": {
        "en": "Kodaira"
      },
      "type": "市",
      "countryCode": "jp",
      "latitude": 35.72522,
      "longitude": 139.476606
    },
    {
      "id": "tokyo_taito",
      "osmId": 1042491447,
      "prefectureId": "tokyo",
      "name": "台東区",
      "nameKana": "たいとうく",
      "nameTranslations": {
        "en": "Taito"
      },
      "type": "区",
      "countryCode": "jp",
      "latitude": 35.7125805,
      "longitude": 139.7800712
    },
    {
      "id": "tokyo_chiyoda",
      "osmId": 1042516435,
      "prefectureId": "tokyo",
      "name": "千代田区",
      "nameKana": "ちよだく",
      "nameTranslations": {
        "en": "Chiyoda"
      },
      "type": "区",
      "countryCode": "jp",
      "latitude": 35.6938097,
      "longitude": 139.7532163
    },
    {
      "id": "tokyo_akishima",
      "osmId": 1054320920,
      "prefectureId": "tokyo",
      "name": "昭島市",
      "nameKana": "あきしまし",
      "nameTranslations": {
        "en": "Akishima"
      },
      "type": "市",
      "countryCode": "jp",
      "latitude": 35.7058081,
      "longitude": 139.3536109
    },
    {
      "id": "tokyo_chuo",
      "osmId": 1111454595,
      "prefectureId": "tokyo",
      "name": "中央区",
      "nameKana": "ちゅうおうく",
      "nameTranslations": {
        "en": "Chuo"
      },
      "type": "区",
      "countryCode": "jp",
      "latitude": 35.6706436,
      "longitude": 139.7719923
    },
    {
      "id": "tokyo_arakawa",
      "osmId": 1111454600,
      "prefectureId": "tokyo",
      "name": "荒川区",
      "nameKana": "あらかわく",
      "nameTranslations": {
        "en": "Arakawa"
      },
      "type": "区",
      "countryCode": "jp",
      "latitude": 35.737529,
      "longitude": 139.78131
    },
    {
      "id": "tokyo_ota",
      "osmId": 1111454606,
      "prefectureId": "tokyo",
      "name": "大田区",
      "nameKana": "おおたく",
      "nameTranslations": {
        "en": "Ota"
      },
      "type": "区",
      "countryCode": "jp",
      "latitude": 35.561206,
      "longitude": 139.715843
    },
    {
      "id": "tokyo_adachi",
      "osmId": 1111454619,
      "prefectureId": "tokyo",
      "name": "足立区",
      "nameKana": "あだちく",
      "nameTranslations": {
        "en": "Adachi"
      },
      "type": "区",
      "countryCode": "jp",
      "latitude": 35.7746029,
      "longitude": 139.8045163
    },
    {
      "id": "tokyo_minato",
      "osmId": 1111454640,
      "prefectureId": "tokyo",
      "name": "港区",
      "nameKana": "みなとく",
      "nameTranslations": {
        "en": "Minato"
      },
      "type": "区",
      "countryCode": "jp",
      "latitude": 35.6580089,
      "longitude": 139.7515137
    },
    {
      "id": "tokyo_setagaya",
      "osmId": 1111454647,
      "prefectureId": "tokyo",
      "name": "世田谷区",
      "nameKana": "せたがやく",
      "nameTranslations": {
        "en": "Setagaya"
      },
      "type": "区",
      "countryCode": "jp",
      "latitude": 35.6469025,
      "longitude": 139.652531
    },
    {
      "id": "tokyo_shinagawa",
      "osmId": 1111454665,
      "prefectureId": "tokyo",
      "name": "品川区",
      "nameKana": "しながわく",
      "nameTranslations": {
        "en": "Shinagawa"
      },
      "type": "区",
      "countryCode": "jp",
      "latitude": 35.6092008,
      "longitude": 139.7301982
    },
    {
      "id": "tokyo_shibuya",
      "osmId": 1438867377,
      "prefectureId": "tokyo",
      "name": "渋谷区",
      "nameKana": "しぶやく",
      "nameTranslations": {
        "en": "Shibuya"
      },
      "type": "区",
      "countryCode": "jp",
      "latitude": 35.6633709,
      "longitude": 139.6964952
    },
    {
      "id": "tokyo_tachikawa",
      "osmId": 1440311172,
      "prefectureId": "tokyo",
      "name": "立川市",
      "nameKana": "たちかわし",
      "nameTranslations": {
        "en": "Tachikawa"
      },
      "type": "市",
      "countryCode": "jp",
      "latitude": 35.7139057,
      "longitude": 139.4077701
    },
    {
      "id": "tokyo_ome",
      "osmId": 1440354068,
      "prefectureId": "tokyo",
      "name": "青梅市",
      "nameKana": "おうめし",
      "nameTranslations": {
        "en": "Ome"
      },
      "type": "市",
      "countryCode": "jp",
      "latitude": 35.7880531,
      "longitude": 139.2753553
    },
    {
      "id": "tokyo_musashimurayama",
      "osmId": 1513641959,
      "prefectureId": "tokyo",
      "name": "武蔵村山市",
      "nameKana": "むさしむらやまし",
      "nameTranslations": {
        "en": "Musashimurayama"
      },
      "type": "市",
      "countryCode": "jp",
      "latitude": 35.756509,
      "longitude": 139.385637
    },
    {
      "id": "tokyo_akiruno",
      "osmId": 1513663376,
      "prefectureId": "tokyo",
      "name": "あきる野市",
      "nameKana": null,
      "nameTranslations": {
        "en": "Akiruno"
      },
      "type": "市",
      "countryCode": "jp",
      "latitude": 35.7289031,
      "longitude": 139.2941912
    },
    {
      "id": "tokyo_fussa",
      "osmId": 1513663390,
      "prefectureId": "tokyo",
      "name": "福生市",
      "nameKana": null,
      "nameTranslations": {
        "en": "Fussa"
      },
      "type": "市",
      "countryCode": "jp",
      "latitude": 35.7386772,
      "longitude": 139.3267856
    },
    {
      "id": "tokyo_hamura",
      "osmId": 1513663393,
      "prefectureId": "tokyo",
      "name": "羽村市",
      "nameKana": null,
      "nameTranslations": {
        "en": "Hamura"
      },
      "type": "市",
      "countryCode": "jp",
      "latitude": 35.764833,
      "longitude": 139.307862
    },
    {
      "id": "tokyo_koganei",
      "osmId": 1619811558,
      "prefectureId": "tokyo",
      "name": "小金井市",
      "nameKana": null,
      "nameTranslations": {
        "en": "Koganei"
      },
      "type": "市",
      "countryCode": "jp",
      "latitude": 35.7041083,
      "longitude": 139.5106759
    },
    {
      "id": "tokyo_higashikurume",
      "osmId": 1673414219,
      "prefectureId": "tokyo",
      "name": "東久留米市",
      "nameKana": null,
      "nameTranslations": {
        "en": "Higashikurume"
      },
      "type": "市",
      "countryCode": "jp",
      "latitude": 35.752546,
      "longitude": 139.519089
    },
    {
      "id": "tokyo_higashimurayama",
      "osmId": 1673414230,
      "prefectureId": "tokyo",
      "name": "東村山市",
      "nameKana": null,
      "nameTranslations": {
        "en": "Higashimurayama"
      },
      "type": "市",
      "countryCode": "jp",
      "latitude": 35.768929,
      "longitude": 139.484539
    },
    {
      "id": "tokyo_kiyose",
      "osmId": 1673414233,
      "prefectureId": "tokyo",
      "name": "清瀬市",
      "nameKana": "きよせし",
      "nameTranslations": {
        "en": "Kiyose"
      },
      "type": "市",
      "countryCode": "jp",
      "latitude": 35.785483,
      "longitude": 139.531253
    },
    {
      "id": "tokyo_higashiyamato",
      "osmId": 1717099673,
      "prefectureId": "tokyo",
      "name": "東大和市",
      "nameKana": null,
      "nameTranslations": {
        "en": "Higashiyamato"
      },
      "type": "市",
      "countryCode": "jp",
      "latitude": 35.740869,
      "longitude": 139.428831
    },
    {
      "id": "tokyo_akihabara_crossfield",
      "osmId": 1936275653,
      "prefectureId": "tokyo",
      "name": "秋葉原クロスフィールド",
      "nameKana": null,
      "nameTranslations": {
        "en": "Akihabara Crossfield"
      },
      "type": null,
      "countryCode": "jp",
      "latitude": 35.7004109,
      "longitude": 139.7725311
    },
    {
      "id": "tokyo_nishitokyo",
      "osmId": 2039121337,
      "prefectureId": "tokyo",
      "name": "西東京市",
      "nameKana": null,
      "nameTranslations": {
        "en": "Nishitokyo"
      },
      "type": "市",
      "countryCode": "jp",
      "latitude": 35.7261366,
      "longitude": 139.5380347
    },
    {
      "id": "tokyo_shinjuku",
      "osmId": 2389061853,
      "prefectureId": "tokyo",
      "name": "新宿区",
      "nameKana": "しんじゅくく",
      "nameTranslations": {
        "en": "Shinjuku"
      },
      "type": "区",
      "countryCode": "jp",
      "latitude": 35.6937632,
      "longitude": 139.7036319
    },
    {
      "id": "tokyo_canal_court",
      "osmId": 3127839795,
      "prefectureId": "tokyo",
      "name": "キャナルコート",
      "nameKana": "きゃなるこーと",
      "nameTranslations": {
        "en": "Canal court"
      },
      "type": null,
      "countryCode": "jp",
      "latitude": 35.6476905,
      "longitude": 139.8035878
    },
    {
      "id": "tokyo_大むさし",
      "osmId": 7095184392,
      "prefectureId": "tokyo",
      "name": "大むさし",
      "nameKana": null,
      "nameTranslations": null,
      "type": null,
      "countryCode": "jp",
      "latitude": 35.7530566,
      "longitude": 139.7156865
    }
  ],
  "machi": [
    {
      "id": "tokyo_unknown_kagurazaka",
      "osmId": 57519541,
      "name": "神楽坂",
      "nameKana": "かぐらざか",
      "nameTranslations": {
        "en": "Kagurazaka"
      },
      "latitude": 35.7010851,
      "longitude": 139.7412287,
      "lines": null,
      "prefectureId": "tokyo",
      "cityId": null,
      "countryCode": "jp",
      "prefectureName": "東京都",
      "prefectureNameTranslations": null,
      "cityName": null,
      "cityNameTranslations": null,
      "placeType": "quarter"
    },
    {
      "id": "tokyo_unknown_ebisu",
      "osmId": 57533371,
      "name": "恵比寿",
      "nameKana": "えびす",
      "nameTranslations": {
        "en": "Ebisu"
      },
      "latitude": 35.6462954,
      "longitude": 139.714385,
      "lines": null,
      "prefectureId": "tokyo",
      "cityId": null,
      "countryCode": "jp",
      "prefectureName": "東京都",
      "prefectureNameTranslations": null,
      "cityName": null,
      "cityNameTranslations": null,
      "placeType": "quarter"
    },
    {
      "id": "tokyo_unknown_hiroo",
      "osmId": 57534062,
      "name": "広尾",
      "nameKana": "ひろお",
      "nameTranslations": {
        "en": "Hiroo"
      },
      "latitude": 35.6522569,
      "longitude": 139.7175844,
      "lines": null,
      "prefectureId": "tokyo",
      "cityId": null,
      "countryCode": "jp",
      "prefectureName": "東京都",
      "prefectureNameTranslations": null,
      "cityName": null,
      "cityNameTranslations": null,
      "placeType": "quarter"
    },
    {
      "id": "tokyo_unknown_shinbashi",
      "osmId": 57536180,
      "name": "新橋",
      "nameKana": "しんばし",
      "nameTranslations": {
        "en": "Shinbashi"
      },
      "latitude": 35.6651059,
      "longitude": 139.7561163,
      "lines": null,
      "prefectureId": "tokyo",
      "cityId": null,
      "countryCode": "jp",
      "prefectureName": "東京都",
      "prefectureNameTranslations": null,
      "cityName": null,
      "cityNameTranslations": null,
      "placeType": "quarter"
    },
    {
      "id": "tokyo_unknown_gotanda",
      "osmId": 57542928,
      "name": "五反田",
      "nameKana": "ごたんだ",
      "nameTranslations": {
        "en": "Gotanda"
      },
      "latitude": 35.6283773,
      "longitude": 139.721783,
      "lines": null,
      "prefectureId": "tokyo",
      "cityId": null,
      "countryCode": "jp",
      "prefectureName": "東京都",
      "prefectureNameTranslations": null,
      "cityName": null,
      "cityNameTranslations": null,
      "placeType": "quarter"
    },
    {
      "id": "tokyo_unknown_uehara",
      "osmId": 661127358,
      "name": "上原",
      "nameKana": "うえはら",
      "nameTranslations": {
        "en": "Uehara"
      },
      "latitude": 35.6669782,
      "longitude": 139.6806824,
      "lines": null,
      "prefectureId": "tokyo",
      "cityId": null,
      "countryCode": "jp",
      "prefectureName": "東京都",
      "prefectureNameTranslations": null,
      "cityName": null,
      "cityNameTranslations": null,
      "placeType": "quarter"
    },
    {
      "id": "tokyo_nakano_higashi_nakano",
      "osmId": 777895924,
      "name": "東中野",
      "nameKana": "ひがしなかの",
      "nameTranslations": {
        "en": "Higashi-Nakano"
      },
      "latitude": 35.7044839,
      "longitude": 139.6832333,
      "lines": null,
      "prefectureId": "tokyo",
      "cityId": "tokyo_nakano",
      "countryCode": "jp",
      "prefectureName": "東京都",
      "prefectureNameTranslations": null,
      "cityName": "中野区",
      "cityNameTranslations": null,
      "placeType": "quarter"
    },
    {
      "id": "tokyo_nerima_旭",
      "osmId": 790014996,
      "name": "旭町",
      "nameKana": null,
      "nameTranslations": null,
      "latitude": 35.7698455,
      "longitude": 139.6250974,
      "lines": null,
      "prefectureId": "tokyo",
      "cityId": "tokyo_nerima",
      "countryCode": "jp",
      "prefectureName": "東京都",
      "prefectureNameTranslations": null,
      "cityName": "練馬区",
      "cityNameTranslations": null,
      "placeType": "quarter"
    },
    {
      "id": "tokyo_unknown_shoto",
      "osmId": 790668011,
      "name": "松濤",
      "nameKana": "しょうとう",
      "nameTranslations": {
        "en": "Shoto"
      },
      "latitude": 35.6607632,
      "longitude": 139.6920068,
      "lines": null,
      "prefectureId": "tokyo",
      "cityId": null,
      "countryCode": "jp",
      "prefectureName": "東京都",
      "prefectureNameTranslations": null,
      "cityName": null,
      "cityNameTranslations": null,
      "placeType": "quarter"
    },
    {
      "id": "tokyo_unknown_arai",
      "osmId": 790668142,
      "name": "新井",
      "nameKana": "あらい",
      "nameTranslations": {
        "en": "Arai"
      },
      "latitude": 35.7133664,
      "longitude": 139.66418,
      "lines": null,
      "prefectureId": "tokyo",
      "cityId": null,
      "countryCode": "jp",
      "prefectureName": "東京都",
      "prefectureNameTranslations": null,
      "cityName": null,
      "cityNameTranslations": null,
      "placeType": "quarter"
    },
    {
      "id": "tokyo_nerima_takamatsu",
      "osmId": 790670718,
      "name": "高松",
      "nameKana": null,
      "nameTranslations": {
        "en": "Takamatsu"
      },
      "latitude": 35.7504853,
      "longitude": 139.6298966,
      "lines": null,
      "prefectureId": "tokyo",
      "cityId": "tokyo_nerima",
      "countryCode": "jp",
      "prefectureName": "東京都",
      "prefectureNameTranslations": null,
      "cityName": "練馬区",
      "cityNameTranslations": null,
      "placeType": "quarter"
    },
    {
      "id": "tokyo_shinjuku_kami_ochiai",
      "osmId": 790757596,
      "name": "上落合",
      "nameKana": null,
      "nameTranslations": {
        "en": "Kami-ochiai"
      },
      "latitude": 35.7114276,
      "longitude": 139.6836606,
      "lines": null,
      "prefectureId": "tokyo",
      "cityId": "tokyo_shinjuku",
      "countryCode": "jp",
      "prefectureName": "東京都",
      "prefectureNameTranslations": null,
      "cityName": "新宿区",
      "cityNameTranslations": null,
      "placeType": "quarter"
    },
    {
      "id": "tokyo_unknown_honcho",
      "osmId": 792571518,
      "name": "本町",
      "nameKana": "ほんちょう",
      "nameTranslations": {
        "en": "Honcho"
      },
      "latitude": 35.6959247,
      "longitude": 139.6742379,
      "lines": null,
      "prefectureId": "tokyo",
      "cityId": null,
      "countryCode": "jp",
      "prefectureName": "東京都",
      "prefectureNameTranslations": null,
      "cityName": null,
      "cityNameTranslations": null,
      "placeType": "quarter"
    },
    {
      "id": "tokyo_unknown_yayoicho",
      "osmId": 792571529,
      "name": "弥生町",
      "nameKana": "やよいちょう",
      "nameTranslations": {
        "en": "Yayoicho"
      },
      "latitude": 35.6908488,
      "longitude": 139.6755198,
      "lines": null,
      "prefectureId": "tokyo",
      "cityId": null,
      "countryCode": "jp",
      "prefectureName": "東京都",
      "prefectureNameTranslations": null,
      "cityName": null,
      "cityNameTranslations": null,
      "placeType": "quarter"
    },
    {
      "id": "tokyo_nakano_wakamiya",
      "osmId": 806413872,
      "name": "若宮",
      "nameKana": "わかみや",
      "nameTranslations": {
        "en": "Wakamiya"
      },
      "latitude": 35.7185235,
      "longitude": 139.6456514,
      "lines": null,
      "prefectureId": "tokyo",
      "cityId": "tokyo_nakano",
      "countryCode": "jp",
      "prefectureName": "東京都",
      "prefectureNameTranslations": null,
      "cityName": "中野区",
      "cityNameTranslations": null,
      "placeType": "quarter"
    },
    {
      "id": "tokyo_unknown_k_enji_north",
      "osmId": 806413957,
      "name": "高円寺北",
      "nameKana": "こうえんじきた",
      "nameTranslations": {
        "en": "Kōenji-north"
      },
      "latitude": 35.7073164,
      "longitude": 139.6548546,
      "lines": null,
      "prefectureId": "tokyo",
      "cityId": null,
      "countryCode": "jp",
      "prefectureName": "東京都",
      "prefectureNameTranslations": null,
      "cityName": null,
      "cityNameTranslations": null,
      "placeType": "quarter"
    },
    {
      "id": "tokyo_nakano_kamitakada",
      "osmId": 809692508,
      "name": "上高田",
      "nameKana": "かみたかだ",
      "nameTranslations": {
        "en": "Kamitakada"
      },
      "latitude": 35.712836,
      "longitude": 139.6747493,
      "lines": null,
      "prefectureId": "tokyo",
      "cityId": "tokyo_nakano",
      "countryCode": "jp",
      "prefectureName": "東京都",
      "prefectureNameTranslations": null,
      "cityName": "中野区",
      "cityNameTranslations": null,
      "placeType": "quarter"
    },
    {
      "id": "tokyo_nakano_kami_saginomiya",
      "osmId": 818944870,
      "name": "上鷺宮",
      "nameKana": "かみさぎのみや",
      "nameTranslations": {
        "en": "Kami-Saginomiya"
      },
      "latitude": 35.731639,
      "longitude": 139.6317433,
      "lines": null,
      "prefectureId": "tokyo",
      "cityId": "tokyo_nakano",
      "countryCode": "jp",
      "prefectureName": "東京都",
      "prefectureNameTranslations": null,
      "cityName": "中野区",
      "cityNameTranslations": null,
      "placeType": "quarter"
    },
    {
      "id": "tokyo_unknown_minamidai",
      "osmId": 876619057,
      "name": "南台",
      "nameKana": "みなみだい",
      "nameTranslations": {
        "en": "Minamidai"
      },
      "latitude": 35.683521,
      "longitude": 139.667254,
      "lines": null,
      "prefectureId": "tokyo",
      "cityId": null,
      "countryCode": "jp",
      "prefectureName": "東京都",
      "prefectureNameTranslations": null,
      "cityName": null,
      "cityNameTranslations": null,
      "placeType": "quarter"
    },
    {
      "id": "tokyo_unknown_honmachi",
      "osmId": 876619059,
      "name": "本町",
      "nameKana": "ほんまち",
      "nameTranslations": {
        "en": "Honmachi"
      },
      "latitude": 35.6841449,
      "longitude": 139.6806558,
      "lines": null,
      "prefectureId": "tokyo",
      "cityId": null,
      "countryCode": "jp",
      "prefectureName": "東京都",
      "prefectureNameTranslations": null,
      "cityName": null,
      "cityNameTranslations": null,
      "placeType": "quarter"
    },
    {
      "id": "tokyo_nerima_nakamura_minami",
      "osmId": 1067472644,
      "name": "中村南",
      "nameKana": null,
      "nameTranslations": {
        "en": "Nakamura Minami"
      },
      "latitude": 35.7280632,
      "longitude": 139.6441963,
      "lines": null,
      "prefectureId": "tokyo",
      "cityId": "tokyo_nerima",
      "countryCode": "jp",
      "prefectureName": "東京都",
      "prefectureNameTranslations": null,
      "cityName": "練馬区",
      "cityNameTranslations": null,
      "placeType": "quarter"
    },
    {
      "id": "tokyo_nakano_yamato_cho",
      "osmId": 1084868710,
      "name": "大和町",
      "nameKana": null,
      "nameTranslations": {
        "en": "Yamato-cho"
      },
      "latitude": 35.7125295,
      "longitude": 139.6494199,
      "lines": null,
      "prefectureId": "tokyo",
      "cityId": "tokyo_nakano",
      "countryCode": "jp",
      "prefectureName": "東京都",
      "prefectureNameTranslations": null,
      "cityName": "中野区",
      "cityNameTranslations": null,
      "placeType": "quarter"
    },
    {
      "id": "tokyo_setagaya_funabashi",
      "osmId": 1345401675,
      "name": "船橋",
      "nameKana": null,
      "nameTranslations": {
        "en": "Funabashi"
      },
      "latitude": 35.6485548,
      "longitude": 139.6207921,
      "lines": null,
      "prefectureId": "tokyo",
      "cityId": "tokyo_setagaya",
      "countryCode": "jp",
      "prefectureName": "東京都",
      "prefectureNameTranslations": null,
      "cityName": "世田谷区",
      "cityNameTranslations": null,
      "placeType": "quarter"
    },
    {
      "id": "tokyo_nishitokyo_izumi",
      "osmId": 1584387407,
      "name": "泉町",
      "nameKana": null,
      "nameTranslations": {
        "en": "Izumi"
      },
      "latitude": 35.7411935,
      "longitude": 139.55359,
      "lines": null,
      "prefectureId": "tokyo",
      "cityId": "tokyo_nishitokyo",
      "countryCode": "jp",
      "prefectureName": "東京都",
      "prefectureNameTranslations": null,
      "cityName": "西東京市",
      "cityNameTranslations": null,
      "placeType": "quarter"
    },
    {
      "id": "tokyo_nishitokyo_kitahara",
      "osmId": 1584390947,
      "name": "北原町",
      "nameKana": null,
      "nameTranslations": {
        "en": "Kitahara"
      },
      "latitude": 35.7333391,
      "longitude": 139.5462707,
      "lines": null,
      "prefectureId": "tokyo",
      "cityId": "tokyo_nishitokyo",
      "countryCode": "jp",
      "prefectureName": "東京都",
      "prefectureNameTranslations": null,
      "cityName": "西東京市",
      "cityNameTranslations": null,
      "placeType": "quarter"
    },
    {
      "id": "tokyo_unknown_kitamachi",
      "osmId": 1584391901,
      "name": "北町",
      "nameKana": null,
      "nameTranslations": {
        "en": "Kitamachi"
      },
      "latitude": 35.75626,
      "longitude": 139.5599647,
      "lines": null,
      "prefectureId": "tokyo",
      "cityId": null,
      "countryCode": "jp",
      "prefectureName": "東京都",
      "prefectureNameTranslations": null,
      "cityName": null,
      "cityNameTranslations": null,
      "placeType": "quarter"
    },
    {
      "id": "tokyo_nishitokyo_sakae",
      "osmId": 1584392702,
      "name": "栄町",
      "nameKana": null,
      "nameTranslations": {
        "en": "Sakae"
      },
      "latitude": 35.7502928,
      "longitude": 139.5542775,
      "lines": null,
      "prefectureId": "tokyo",
      "cityId": "tokyo_nishitokyo",
      "countryCode": "jp",
      "prefectureName": "東京都",
      "prefectureNameTranslations": null,
      "cityName": "西東京市",
      "cityNameTranslations": null,
      "placeType": "quarter"
    },
    {
      "id": "tokyo_nishitokyo_shibakubo",
      "osmId": 1584394582,
      "name": "芝久保町",
      "nameKana": null,
      "nameTranslations": {
        "en": "Shibakubo"
      },
      "latitude": 35.7291771,
      "longitude": 139.5257955,
      "lines": null,
      "prefectureId": "tokyo",
      "cityId": "tokyo_nishitokyo",
      "countryCode": "jp",
      "prefectureName": "東京都",
      "prefectureNameTranslations": null,
      "cityName": "西東京市",
      "cityNameTranslations": null,
      "placeType": "quarter"
    },
    {
      "id": "tokyo_nishitokyo_shimohoya",
      "osmId": 1584397148,
      "name": "下保谷",
      "nameKana": null,
      "nameTranslations": {
        "en": "Shimohoya"
      },
      "latitude": 35.7510848,
      "longitude": 139.5635879,
      "lines": null,
      "prefectureId": "tokyo",
      "cityId": "tokyo_nishitokyo",
      "countryCode": "jp",
      "prefectureName": "東京都",
      "prefectureNameTranslations": null,
      "cityName": "西東京市",
      "cityNameTranslations": null,
      "placeType": "quarter"
    },
    {
      "id": "tokyo_unknown_shinmachi",
      "osmId": 1584399832,
      "name": "新町",
      "nameKana": null,
      "nameTranslations": {
        "en": "Shinmachi"
      },
      "latitude": 35.7151418,
      "longitude": 139.5411434,
      "lines": null,
      "prefectureId": "tokyo",
      "cityId": null,
      "countryCode": "jp",
      "prefectureName": "東京都",
      "prefectureNameTranslations": null,
      "cityName": null,
      "cityNameTranslations": null,
      "placeType": "quarter"
    },
    {
      "id": "tokyo_nishitokyo_sumiyoshi",
      "osmId": 1584400983,
      "name": "住吉町",
      "nameKana": null,
      "nameTranslations": {
        "en": "Sumiyoshi"
      },
      "latitude": 35.7464544,
      "longitude": 139.5501347,
      "lines": null,
      "prefectureId": "tokyo",
      "cityId": "tokyo_nishitokyo",
      "countryCode": "jp",
      "prefectureName": "東京都",
      "prefectureNameTranslations": null,
      "cityName": "西東京市",
      "cityNameTranslations": null,
      "placeType": "quarter"
    },
    {
      "id": "tokyo_unknown_tanashi_cho",
      "osmId": 1584418653,
      "name": "田無町",
      "nameKana": "たなしちょう",
      "nameTranslations": {
        "en": "Tanashi-cho"
      },
      "latitude": 35.7287951,
      "longitude": 139.5400411,
      "lines": null,
      "prefectureId": "tokyo",
      "cityId": null,
      "countryCode": "jp",
      "prefectureName": "東京都",
      "prefectureNameTranslations": null,
      "cityName": null,
      "cityNameTranslations": null,
      "placeType": "quarter"
    },
    {
      "id": "tokyo_nishitokyo_nakamachi",
      "osmId": 1584421583,
      "name": "中町",
      "nameKana": null,
      "nameTranslations": {
        "en": "Nakamachi"
      },
      "latitude": 35.7390056,
      "longitude": 139.559644,
      "lines": null,
      "prefectureId": "tokyo",
      "cityId": "tokyo_nishitokyo",
      "countryCode": "jp",
      "prefectureName": "東京都",
      "prefectureNameTranslations": null,
      "cityName": "西東京市",
      "cityNameTranslations": null,
      "placeType": "quarter"
    },
    {
      "id": "tokyo_nishitokyo_nishihara",
      "osmId": 1584423446,
      "name": "西原町",
      "nameKana": null,
      "nameTranslations": {
        "en": "Nishihara"
      },
      "latitude": 35.7387192,
      "longitude": 139.5312468,
      "lines": null,
      "prefectureId": "tokyo",
      "cityId": "tokyo_nishitokyo",
      "countryCode": "jp",
      "prefectureName": "東京都",
      "prefectureNameTranslations": null,
      "cityName": "西東京市",
      "cityNameTranslations": null,
      "placeType": "quarter"
    },
    {
      "id": "tokyo_nishitokyo_higashicho",
      "osmId": 1584426679,
      "name": "東町",
      "nameKana": null,
      "nameTranslations": {
        "en": "Higashicho"
      },
      "latitude": 35.7431347,
      "longitude": 139.5651766,
      "lines": null,
      "prefectureId": "tokyo",
      "cityId": "tokyo_nishitokyo",
      "countryCode": "jp",
      "prefectureName": "東京都",
      "prefectureNameTranslations": null,
      "cityName": "西東京市",
      "cityNameTranslations": null,
      "placeType": "quarter"
    },
    {
      "id": "tokyo_nishitokyo_higashifushimi",
      "osmId": 1584427700,
      "name": "東伏見",
      "nameKana": null,
      "nameTranslations": {
        "en": "Higashifushimi"
      },
      "latitude": 35.7243928,
      "longitude": 139.5625199,
      "lines": null,
      "prefectureId": "tokyo",
      "cityId": "tokyo_nishitokyo",
      "countryCode": "jp",
      "prefectureName": "東京都",
      "prefectureNameTranslations": null,
      "cityName": "西東京市",
      "cityNameTranslations": null,
      "placeType": "quarter"
    },
    {
      "id": "tokyo_nishitokyo_hibarigaokakita",
      "osmId": 1584429752,
      "name": "ひばりが丘北",
      "nameKana": null,
      "nameTranslations": {
        "en": "Hibarigaokakita"
      },
      "latitude": 35.7527695,
      "longitude": 139.5483811,
      "lines": null,
      "prefectureId": "tokyo",
      "cityId": "tokyo_nishitokyo",
      "countryCode": "jp",
      "prefectureName": "東京都",
      "prefectureNameTranslations": null,
      "cityName": "西東京市",
      "cityNameTranslations": null,
      "placeType": "quarter"
    },
    {
      "id": "tokyo_nishitokyo_fujimachi",
      "osmId": 1584430346,
      "name": "富士町",
      "nameKana": null,
      "nameTranslations": {
        "en": "Fujimachi"
      },
      "latitude": 35.7308267,
      "longitude": 139.5638206,
      "lines": null,
      "prefectureId": "tokyo",
      "cityId": "tokyo_nishitokyo",
      "countryCode": "jp",
      "prefectureName": "東京都",
      "prefectureNameTranslations": null,
      "cityName": "西東京市",
      "cityNameTranslations": null,
      "placeType": "quarter"
    },
    {
      "id": "tokyo_nishitokyo_hoya",
      "osmId": 1584432887,
      "name": "保谷町",
      "nameKana": null,
      "nameTranslations": {
        "en": "Hoya"
      },
      "latitude": 35.7322182,
      "longitude": 139.5532586,
      "lines": null,
      "prefectureId": "tokyo",
      "cityId": "tokyo_nishitokyo",
      "countryCode": "jp",
      "prefectureName": "東京都",
      "prefectureNameTranslations": null,
      "cityName": "西東京市",
      "cityNameTranslations": null,
      "placeType": "quarter"
    },
    {
      "id": "tokyo_nishitokyo_midoricho",
      "osmId": 1584434762,
      "name": "緑町",
      "nameKana": null,
      "nameTranslations": {
        "en": "Midoricho"
      },
      "latitude": 35.7409491,
      "longitude": 139.5357447,
      "lines": null,
      "prefectureId": "tokyo",
      "cityId": "tokyo_nishitokyo",
      "countryCode": "jp",
      "prefectureName": "東京都",
      "prefectureNameTranslations": null,
      "cityName": "西東京市",
      "cityNameTranslations": null,
      "placeType": "quarter"
    },
    {
      "id": "tokyo_nishitokyo_minamicho",
      "osmId": 1584436192,
      "name": "南町",
      "nameKana": null,
      "nameTranslations": {
        "en": "Minamicho"
      },
      "latitude": 35.7260261,
      "longitude": 139.5434353,
      "lines": null,
      "prefectureId": "tokyo",
      "cityId": "tokyo_nishitokyo",
      "countryCode": "jp",
      "prefectureName": "東京都",
      "prefectureNameTranslations": null,
      "cityName": "西東京市",
      "cityNameTranslations": null,
      "placeType": "quarter"
    },
    {
      "id": "tokyo_unknown_mukodaicho",
      "osmId": 1584438241,
      "name": "向台町",
      "nameKana": null,
      "nameTranslations": {
        "en": "Mukodaicho"
      },
      "latitude": 35.7210462,
      "longitude": 139.5358856,
      "lines": null,
      "prefectureId": "tokyo",
      "cityId": null,
      "countryCode": "jp",
      "prefectureName": "東京都",
      "prefectureNameTranslations": null,
      "cityName": null,
      "cityNameTranslations": null,
      "placeType": "quarter"
    },
    {
      "id": "tokyo_nishitokyo_yagisawa",
      "osmId": 1584438428,
      "name": "柳沢",
      "nameKana": null,
      "nameTranslations": {
        "en": "Yagisawa"
      },
      "latitude": 35.7229618,
      "longitude": 139.5529357,
      "lines": null,
      "prefectureId": "tokyo",
      "cityId": "tokyo_nishitokyo",
      "countryCode": "jp",
      "prefectureName": "東京都",
      "prefectureNameTranslations": null,
      "cityName": "西東京市",
      "cityNameTranslations": null,
      "placeType": "quarter"
    },
    {
      "id": "tokyo_nishitokyo_yatocho",
      "osmId": 1584438975,
      "name": "谷戸町",
      "nameKana": null,
      "nameTranslations": {
        "en": "Yatocho"
      },
      "latitude": 35.7399323,
      "longitude": 139.545304,
      "lines": null,
      "prefectureId": "tokyo",
      "cityId": "tokyo_nishitokyo",
      "countryCode": "jp",
      "prefectureName": "東京都",
      "prefectureNameTranslations": null,
      "cityName": "西東京市",
      "cityNameTranslations": null,
      "placeType": "quarter"
    },
    {
      "id": "tokyo_unknown_kichijoji_kitamachi",
      "osmId": 1585706979,
      "name": "吉祥寺北町",
      "nameKana": null,
      "nameTranslations": {
        "en": "Kichijoji Kitamachi"
      },
      "latitude": 35.712295,
      "longitude": 139.5757678,
      "lines": null,
      "prefectureId": "tokyo",
      "cityId": null,
      "countryCode": "jp",
      "prefectureName": "東京都",
      "prefectureNameTranslations": null,
      "cityName": null,
      "cityNameTranslations": null,
      "placeType": "quarter"
    },
    {
      "id": "tokyo_musashino_kichijoji_higashicho",
      "osmId": 1585715457,
      "name": "吉祥寺東町",
      "nameKana": null,
      "nameTranslations": {
        "en": "Kichijoji Higashicho"
      },
      "latitude": 35.7088234,
      "longitude": 139.586782,
      "lines": null,
      "prefectureId": "tokyo",
      "cityId": "tokyo_musashino",
      "countryCode": "jp",
      "prefectureName": "東京都",
      "prefectureNameTranslations": null,
      "cityName": "武蔵野市",
      "cityNameTranslations": null,
      "placeType": "quarter"
    },
    {
      "id": "tokyo_musashino_kichijoji_honcho",
      "osmId": 1585720489,
      "name": "吉祥寺本町",
      "nameKana": null,
      "nameTranslations": {
        "en": "Kichijoji Honcho"
      },
      "latitude": 35.7043267,
      "longitude": 139.5775409,
      "lines": null,
      "prefectureId": "tokyo",
      "cityId": "tokyo_musashino",
      "countryCode": "jp",
      "prefectureName": "東京都",
      "prefectureNameTranslations": null,
      "cityName": "武蔵野市",
      "cityNameTranslations": null,
      "placeType": "quarter"
    },
    {
      "id": "tokyo_musashino_kichijoji_minamicho",
      "osmId": 1585749405,
      "name": "吉祥寺南町",
      "nameKana": null,
      "nameTranslations": {
        "en": "Kichijoji Minamicho"
      },
      "latitude": 35.6996526,
      "longitude": 139.5852469,
      "lines": null,
      "prefectureId": "tokyo",
      "cityId": "tokyo_musashino",
      "countryCode": "jp",
      "prefectureName": "東京都",
      "prefectureNameTranslations": null,
      "cityName": "武蔵野市",
      "cityNameTranslations": null,
      "placeType": "quarter"
    },
    {
      "id": "tokyo_musashino_kyonancho",
      "osmId": 1585759047,
      "name": "境南町",
      "nameKana": null,
      "nameTranslations": {
        "en": "Kyonancho"
      },
      "latitude": 35.6989464,
      "longitude": 139.5411554,
      "lines": null,
      "prefectureId": "tokyo",
      "cityId": "tokyo_musashino",
      "countryCode": "jp",
      "prefectureName": "東京都",
      "prefectureNameTranslations": null,
      "cityName": "武蔵野市",
      "cityNameTranslations": null,
      "placeType": "quarter"
    },
    {
      "id": "tokyo_musashino_gotenyama",
      "osmId": 1585763402,
      "name": "御殿山",
      "nameKana": null,
      "nameTranslations": {
        "en": "Gotenyama"
      },
      "latitude": 35.7023931,
      "longitude": 139.575435,
      "lines": null,
      "prefectureId": "tokyo",
      "cityId": "tokyo_musashino",
      "countryCode": "jp",
      "prefectureName": "東京都",
      "prefectureNameTranslations": null,
      "cityName": "武蔵野市",
      "cityNameTranslations": null,
      "placeType": "quarter"
    },
    {
      "id": "tokyo_musashino_sakai",
      "osmId": 1585767133,
      "name": "境",
      "nameKana": null,
      "nameTranslations": {
        "en": "Sakai"
      },
      "latitude": 35.7066696,
      "longitude": 139.543343,
      "lines": null,
      "prefectureId": "tokyo",
      "cityId": "tokyo_musashino",
      "countryCode": "jp",
      "prefectureName": "東京都",
      "prefectureNameTranslations": null,
      "cityName": "武蔵野市",
      "cityNameTranslations": null,
      "placeType": "quarter"
    },
    {
      "id": "tokyo_musashino_sakurazutsumi",
      "osmId": 1585780144,
      "name": "桜堤",
      "nameKana": null,
      "nameTranslations": {
        "en": "Sakurazutsumi"
      },
      "latitude": 35.711329,
      "longitude": 139.5319693,
      "lines": null,
      "prefectureId": "tokyo",
      "cityId": "tokyo_musashino",
      "countryCode": "jp",
      "prefectureName": "東京都",
      "prefectureNameTranslations": null,
      "cityName": "武蔵野市",
      "cityNameTranslations": null,
      "placeType": "quarter"
    },
    {
      "id": "tokyo_musashino_sekimae",
      "osmId": 1585789386,
      "name": "関前",
      "nameKana": null,
      "nameTranslations": {
        "en": "Sekimae"
      },
      "latitude": 35.7122046,
      "longitude": 139.5518286,
      "lines": null,
      "prefectureId": "tokyo",
      "cityId": "tokyo_musashino",
      "countryCode": "jp",
      "prefectureName": "東京都",
      "prefectureNameTranslations": null,
      "cityName": "武蔵野市",
      "cityNameTranslations": null,
      "placeType": "quarter"
    },
    {
      "id": "tokyo_musashino_nakacho",
      "osmId": 1585794173,
      "name": "中町",
      "nameKana": null,
      "nameTranslations": {
        "en": "Nakacho"
      },
      "latitude": 35.7037986,
      "longitude": 139.5662633,
      "lines": null,
      "prefectureId": "tokyo",
      "cityId": "tokyo_musashino",
      "countryCode": "jp",
      "prefectureName": "東京都",
      "prefectureNameTranslations": null,
      "cityName": "武蔵野市",
      "cityNameTranslations": null,
      "placeType": "quarter"
    },
    {
      "id": "tokyo_musashino_nishikubo",
      "osmId": 1585799278,
      "name": "西久保",
      "nameKana": null,
      "nameTranslations": {
        "en": "Nishikubo"
      },
      "latitude": 35.710347,
      "longitude": 139.5579926,
      "lines": null,
      "prefectureId": "tokyo",
      "cityId": "tokyo_musashino",
      "countryCode": "jp",
      "prefectureName": "東京都",
      "prefectureNameTranslations": null,
      "cityName": "武蔵野市",
      "cityNameTranslations": null,
      "placeType": "quarter"
    },
    {
      "id": "tokyo_musashino_midoricho",
      "osmId": 1585802569,
      "name": "緑町",
      "nameKana": null,
      "nameTranslations": {
        "en": "Midoricho"
      },
      "latitude": 35.7175922,
      "longitude": 139.562909,
      "lines": null,
      "prefectureId": "tokyo",
      "cityId": "tokyo_musashino",
      "countryCode": "jp",
      "prefectureName": "東京都",
      "prefectureNameTranslations": null,
      "cityName": "武蔵野市",
      "cityNameTranslations": null,
      "placeType": "quarter"
    },
    {
      "id": "tokyo_musashino_yahatacho",
      "osmId": 1585806859,
      "name": "八幡町",
      "nameKana": null,
      "nameTranslations": {
        "en": "Yahatacho"
      },
      "latitude": 35.7170546,
      "longitude": 139.5555091,
      "lines": null,
      "prefectureId": "tokyo",
      "cityId": "tokyo_musashino",
      "countryCode": "jp",
      "prefectureName": "東京都",
      "prefectureNameTranslations": null,
      "cityName": "武蔵野市",
      "cityNameTranslations": null,
      "placeType": "quarter"
    },
    {
      "id": "tokyo_koganei_kajinocho",
      "osmId": 1596125322,
      "name": "梶野町",
      "nameKana": null,
      "nameTranslations": {
        "en": "Kajinocho"
      },
      "latitude": 35.7084743,
      "longitude": 139.5294849,
      "lines": null,
      "prefectureId": "tokyo",
      "cityId": "tokyo_koganei",
      "countryCode": "jp",
      "prefectureName": "東京都",
      "prefectureNameTranslations": null,
      "cityName": "小金井市",
      "cityNameTranslations": null,
      "placeType": "quarter"
    },
    {
      "id": "tokyo_koganei_sakuracho",
      "osmId": 1596135440,
      "name": "桜町",
      "nameKana": null,
      "nameTranslations": {
        "en": "Sakuracho"
      },
      "latitude": 35.71189,
      "longitude": 139.5090665,
      "lines": null,
      "prefectureId": "tokyo",
      "cityId": "tokyo_koganei",
      "countryCode": "jp",
      "prefectureName": "東京都",
      "prefectureNameTranslations": null,
      "cityName": "小金井市",
      "cityNameTranslations": null,
      "placeType": "quarter"
    },
    {
      "id": "tokyo_koganei_sekinocho",
      "osmId": 1596142082,
      "name": "関野町",
      "nameKana": null,
      "nameTranslations": {
        "en": "Sekinocho"
      },
      "latitude": 35.7132624,
      "longitude": 139.5225557,
      "lines": null,
      "prefectureId": "tokyo",
      "cityId": "tokyo_koganei",
      "countryCode": "jp",
      "prefectureName": "東京都",
      "prefectureNameTranslations": null,
      "cityName": "小金井市",
      "cityNameTranslations": null,
      "placeType": "quarter"
    },
    {
      "id": "tokyo_koganei_nakacho",
      "osmId": 1596145620,
      "name": "中町",
      "nameKana": null,
      "nameTranslations": {
        "en": "Nakacho"
      },
      "latitude": 35.6962208,
      "longitude": 139.5163007,
      "lines": null,
      "prefectureId": "tokyo",
      "cityId": "tokyo_koganei",
      "countryCode": "jp",
      "prefectureName": "東京都",
      "prefectureNameTranslations": null,
      "cityName": "小金井市",
      "cityNameTranslations": null,
      "placeType": "quarter"
    },
    {
      "id": "tokyo_koganei_nukuikitamachi",
      "osmId": 1596150856,
      "name": "貫井北町",
      "nameKana": null,
      "nameTranslations": {
        "en": "Nukuikitamachi"
      },
      "latitude": 35.7070284,
      "longitude": 139.4963703,
      "lines": null,
      "prefectureId": "tokyo",
      "cityId": "tokyo_koganei",
      "countryCode": "jp",
      "prefectureName": "東京都",
      "prefectureNameTranslations": null,
      "cityName": "小金井市",
      "cityNameTranslations": null,
      "placeType": "quarter"
    },
    {
      "id": "tokyo_koganei_nukuiminamicho",
      "osmId": 1596158464,
      "name": "貫井南町",
      "nameKana": null,
      "nameTranslations": {
        "en": "Nukuiminamicho"
      },
      "latitude": 35.6918669,
      "longitude": 139.4945842,
      "lines": null,
      "prefectureId": "tokyo",
      "cityId": "tokyo_koganei",
      "countryCode": "jp",
      "prefectureName": "東京都",
      "prefectureNameTranslations": null,
      "cityName": "小金井市",
      "cityNameTranslations": null,
      "placeType": "quarter"
    },
    {
      "id": "tokyo_koganei_higashicho",
      "osmId": 1596162995,
      "name": "東町",
      "nameKana": null,
      "nameTranslations": {
        "en": "Higashicho"
      },
      "latitude": 35.6957178,
      "longitude": 139.5292798,
      "lines": null,
      "prefectureId": "tokyo",
      "cityId": "tokyo_koganei",
      "countryCode": "jp",
      "prefectureName": "東京都",
      "prefectureNameTranslations": null,
      "cityName": "小金井市",
      "cityNameTranslations": null,
      "placeType": "quarter"
    },
    {
      "id": "tokyo_koganei_honcho",
      "osmId": 1596164127,
      "name": "本町",
      "nameKana": null,
      "nameTranslations": {
        "en": "Honcho"
      },
      "latitude": 35.7002737,
      "longitude": 139.5064494,
      "lines": null,
      "prefectureId": "tokyo",
      "cityId": "tokyo_koganei",
      "countryCode": "jp",
      "prefectureName": "東京都",
      "prefectureNameTranslations": null,
      "cityName": "小金井市",
      "cityNameTranslations": null,
      "placeType": "quarter"
    },
    {
      "id": "tokyo_koganei_maeharacho",
      "osmId": 1596167558,
      "name": "前原町",
      "nameKana": null,
      "nameTranslations": {
        "en": "Maeharacho"
      },
      "latitude": 35.6919631,
      "longitude": 139.5075641,
      "lines": null,
      "prefectureId": "tokyo",
      "cityId": "tokyo_koganei",
      "countryCode": "jp",
      "prefectureName": "東京都",
      "prefectureNameTranslations": null,
      "cityName": "小金井市",
      "cityNameTranslations": null,
      "placeType": "quarter"
    },
    {
      "id": "tokyo_koganei_midoricho",
      "osmId": 1596182890,
      "name": "緑町",
      "nameKana": null,
      "nameTranslations": {
        "en": "Midoricho"
      },
      "latitude": 35.7072249,
      "longitude": 139.5171598,
      "lines": null,
      "prefectureId": "tokyo",
      "cityId": "tokyo_koganei",
      "countryCode": "jp",
      "prefectureName": "東京都",
      "prefectureNameTranslations": null,
      "cityName": "小金井市",
      "cityNameTranslations": null,
      "placeType": "quarter"
    },
    {
      "id": "tokyo_mitaka_iguchi",
      "osmId": 1619645888,
      "name": "井口",
      "nameKana": null,
      "nameTranslations": {
        "en": "Iguchi"
      },
      "latitude": 35.6953563,
      "longitude": 139.5350195,
      "lines": null,
      "prefectureId": "tokyo",
      "cityId": "tokyo_mitaka",
      "countryCode": "jp",
      "prefectureName": "東京都",
      "prefectureNameTranslations": null,
      "cityName": "三鷹市",
      "cityNameTranslations": null,
      "placeType": "quarter"
    },
    {
      "id": "tokyo_mitaka_inokashira",
      "osmId": 1619646324,
      "name": "井の頭",
      "nameKana": null,
      "nameTranslations": {
        "en": "Inokashira"
      },
      "latitude": 35.6936527,
      "longitude": 139.583691,
      "lines": null,
      "prefectureId": "tokyo",
      "cityId": "tokyo_mitaka",
      "countryCode": "jp",
      "prefectureName": "東京都",
      "prefectureNameTranslations": null,
      "cityName": "三鷹市",
      "cityNameTranslations": null,
      "placeType": "quarter"
    },
    {
      "id": "tokyo_mitaka_osawa",
      "osmId": 1619650152,
      "name": "大沢",
      "nameKana": null,
      "nameTranslations": {
        "en": "Osawa"
      },
      "latitude": 35.6731969,
      "longitude": 139.5387495,
      "lines": null,
      "prefectureId": "tokyo",
      "cityId": "tokyo_mitaka",
      "countryCode": "jp",
      "prefectureName": "東京都",
      "prefectureNameTranslations": null,
      "cityName": "三鷹市",
      "cityNameTranslations": null,
      "placeType": "quarter"
    },
    {
      "id": "tokyo_mitaka_kamirenjaku",
      "osmId": 1619745779,
      "name": "上連雀",
      "nameKana": null,
      "nameTranslations": {
        "en": "Kamirenjaku"
      },
      "latitude": 35.6987444,
      "longitude": 139.5548857,
      "lines": null,
      "prefectureId": "tokyo",
      "cityId": "tokyo_mitaka",
      "countryCode": "jp",
      "prefectureName": "東京都",
      "prefectureNameTranslations": null,
      "cityName": "三鷹市",
      "cityNameTranslations": null,
      "placeType": "quarter"
    },
    {
      "id": "tokyo_mitaka_kitano",
      "osmId": 1619749118,
      "name": "北野",
      "nameKana": "きたの",
      "nameTranslations": {
        "en": "Kitano"
      },
      "latitude": 35.6791407,
      "longitude": 139.5850745,
      "lines": null,
      "prefectureId": "tokyo",
      "cityId": "tokyo_mitaka",
      "countryCode": "jp",
      "prefectureName": "東京都",
      "prefectureNameTranslations": null,
      "cityName": "三鷹市",
      "cityNameTranslations": null,
      "placeType": "quarter"
    },
    {
      "id": "tokyo_mitaka_shimorenjaku",
      "osmId": 1619751166,
      "name": "下連雀",
      "nameKana": null,
      "nameTranslations": {
        "en": "Shimorenjaku"
      },
      "latitude": 35.6964799,
      "longitude": 139.565496,
      "lines": null,
      "prefectureId": "tokyo",
      "cityId": "tokyo_mitaka",
      "countryCode": "jp",
      "prefectureName": "東京都",
      "prefectureNameTranslations": null,
      "cityName": "三鷹市",
      "cityNameTranslations": null,
      "placeType": "quarter"
    },
    {
      "id": "tokyo_mitaka_shinkawa",
      "osmId": 1619754796,
      "name": "新川",
      "nameKana": null,
      "nameTranslations": {
        "en": "Shinkawa"
      },
      "latitude": 35.681551,
      "longitude": 139.5686095,
      "lines": null,
      "prefectureId": "tokyo",
      "cityId": "tokyo_mitaka",
      "countryCode": "jp",
      "prefectureName": "東京都",
      "prefectureNameTranslations": null,
      "cityName": "三鷹市",
      "cityNameTranslations": null,
      "placeType": "quarter"
    },
    {
      "id": "tokyo_mitaka_jindaiji",
      "osmId": 1619769176,
      "name": "深大寺",
      "nameKana": null,
      "nameTranslations": {
        "en": "Jindaiji"
      },
      "latitude": 35.6884547,
      "longitude": 139.5442341,
      "lines": null,
      "prefectureId": "tokyo",
      "cityId": "tokyo_mitaka",
      "countryCode": "jp",
      "prefectureName": "東京都",
      "prefectureNameTranslations": null,
      "cityName": "三鷹市",
      "cityNameTranslations": null,
      "placeType": "quarter"
    },
    {
      "id": "tokyo_mitaka_nakahara",
      "osmId": 1619772512,
      "name": "中原",
      "nameKana": null,
      "nameTranslations": {
        "en": "Nakahara"
      },
      "latitude": 35.6648817,
      "longitude": 139.5746696,
      "lines": null,
      "prefectureId": "tokyo",
      "cityId": "tokyo_mitaka",
      "countryCode": "jp",
      "prefectureName": "東京都",
      "prefectureNameTranslations": null,
      "cityName": "三鷹市",
      "cityNameTranslations": null,
      "placeType": "quarter"
    },
    {
      "id": "tokyo_mitaka_nozaki",
      "osmId": 1619773608,
      "name": "野崎",
      "nameKana": null,
      "nameTranslations": {
        "en": "Nozaki"
      },
      "latitude": 35.6822597,
      "longitude": 139.5441568,
      "lines": null,
      "prefectureId": "tokyo",
      "cityId": "tokyo_mitaka",
      "countryCode": "jp",
      "prefectureName": "東京都",
      "prefectureNameTranslations": null,
      "cityName": "三鷹市",
      "cityNameTranslations": null,
      "placeType": "quarter"
    },
    {
      "id": "tokyo_mitaka_mure",
      "osmId": 1619778195,
      "name": "牟礼",
      "nameKana": null,
      "nameTranslations": {
        "en": "Mure"
      },
      "latitude": 35.6871232,
      "longitude": 139.5800341,
      "lines": null,
      "prefectureId": "tokyo",
      "cityId": "tokyo_mitaka",
      "countryCode": "jp",
      "prefectureName": "東京都",
      "prefectureNameTranslations": null,
      "cityName": "三鷹市",
      "cityNameTranslations": null,
      "placeType": "quarter"
    },
    {
      "id": "tokyo_suginami_asagayakita",
      "osmId": 1622911239,
      "name": "阿佐谷北",
      "nameKana": "あさがやきた",
      "nameTranslations": {
        "en": "Asagayakita"
      },
      "latitude": 35.7105571,
      "longitude": 139.636261,
      "lines": null,
      "prefectureId": "tokyo",
      "cityId": "tokyo_suginami",
      "countryCode": "jp",
      "prefectureName": "東京都",
      "prefectureNameTranslations": null,
      "cityName": "杉並区",
      "cityNameTranslations": null,
      "placeType": "quarter"
    },
    {
      "id": "tokyo_unknown_asagaya_minami",
      "osmId": 1622922196,
      "name": "阿佐谷南",
      "nameKana": "あさがやみなみ",
      "nameTranslations": {
        "en": "Asagaya-minami"
      },
      "latitude": 35.7020498,
      "longitude": 139.6373057,
      "lines": null,
      "prefectureId": "tokyo",
      "cityId": null,
      "countryCode": "jp",
      "prefectureName": "東京都",
      "prefectureNameTranslations": null,
      "cityName": null,
      "cityNameTranslations": null,
      "placeType": "quarter"
    },
    {
      "id": "tokyo_unknown_amanuma",
      "osmId": 1622932562,
      "name": "天沼",
      "nameKana": "あまぬま",
      "nameTranslations": {
        "en": "Amanuma"
      },
      "latitude": 35.7081696,
      "longitude": 139.624042,
      "lines": null,
      "prefectureId": "tokyo",
      "cityId": null,
      "countryCode": "jp",
      "prefectureName": "東京都",
      "prefectureNameTranslations": null,
      "cityName": null,
      "cityNameTranslations": null,
      "placeType": "quarter"
    },
    {
      "id": "tokyo_suginami_igusa",
      "osmId": 1622948061,
      "name": "井草",
      "nameKana": "いぐさ",
      "nameTranslations": {
        "en": "Igusa"
      },
      "latitude": 35.7268135,
      "longitude": 139.6140079,
      "lines": null,
      "prefectureId": "tokyo",
      "cityId": "tokyo_suginami",
      "countryCode": "jp",
      "prefectureName": "東京都",
      "prefectureNameTranslations": null,
      "cityName": "杉並区",
      "cityNameTranslations": null,
      "placeType": "quarter"
    },
    {
      "id": "tokyo_suginami_imagawa",
      "osmId": 1623000182,
      "name": "今川",
      "nameKana": "いまがわ",
      "nameTranslations": {
        "en": "Imagawa"
      },
      "latitude": 35.7167433,
      "longitude": 139.6078269,
      "lines": null,
      "prefectureId": "tokyo",
      "cityId": "tokyo_suginami",
      "countryCode": "jp",
      "prefectureName": "東京都",
      "prefectureNameTranslations": null,
      "cityName": "杉並区",
      "cityNameTranslations": null,
      "placeType": "quarter"
    },
    {
      "id": "tokyo_suginami_umezato",
      "osmId": 1623002269,
      "name": "梅里",
      "nameKana": null,
      "nameTranslations": {
        "en": "Umezato"
      },
      "latitude": 35.6969116,
      "longitude": 139.6457468,
      "lines": null,
      "prefectureId": "tokyo",
      "cityId": "tokyo_suginami",
      "countryCode": "jp",
      "prefectureName": "東京都",
      "prefectureNameTranslations": null,
      "cityName": "杉並区",
      "cityNameTranslations": null,
      "placeType": "quarter"
    },
    {
      "id": "tokyo_suginami_eifuku",
      "osmId": 1623005135,
      "name": "永福",
      "nameKana": "えいふく",
      "nameTranslations": {
        "en": "Eifuku"
      },
      "latitude": 35.6769648,
      "longitude": 139.641321,
      "lines": null,
      "prefectureId": "tokyo",
      "cityId": "tokyo_suginami",
      "countryCode": "jp",
      "prefectureName": "東京都",
      "prefectureNameTranslations": null,
      "cityName": "杉並区",
      "cityNameTranslations": null,
      "placeType": "quarter"
    },
    {
      "id": "tokyo_suginami_omiya",
      "osmId": 1623008351,
      "name": "大宮",
      "nameKana": null,
      "nameTranslations": {
        "en": "Omiya"
      },
      "latitude": 35.6836579,
      "longitude": 139.6460631,
      "lines": null,
      "prefectureId": "tokyo",
      "cityId": "tokyo_suginami",
      "countryCode": "jp",
      "prefectureName": "東京都",
      "prefectureNameTranslations": null,
      "cityName": "杉並区",
      "cityNameTranslations": null,
      "placeType": "quarter"
    },
    {
      "id": "tokyo_unknown_ogikubo",
      "osmId": 1623012378,
      "name": "荻窪",
      "nameKana": "おぎくぼ",
      "nameTranslations": {
        "en": "Ogikubo"
      },
      "latitude": 35.6996931,
      "longitude": 139.6227802,
      "lines": null,
      "prefectureId": "tokyo",
      "cityId": null,
      "countryCode": "jp",
      "prefectureName": "東京都",
      "prefectureNameTranslations": null,
      "cityName": null,
      "cityNameTranslations": null,
      "placeType": "quarter"
    },
    {
      "id": "tokyo_suginami_shimizu",
      "osmId": 1629604003,
      "name": "清水",
      "nameKana": "しみず",
      "nameTranslations": {
        "en": "Shimizu"
      },
      "latitude": 35.7126525,
      "longitude": 139.6169502,
      "lines": null,
      "prefectureId": "tokyo",
      "cityId": "tokyo_suginami",
      "countryCode": "jp",
      "prefectureName": "東京都",
      "prefectureNameTranslations": null,
      "cityName": "杉並区",
      "cityNameTranslations": null,
      "placeType": "quarter"
    },
    {
      "id": "tokyo_suginami_shimoigusa",
      "osmId": 1629609990,
      "name": "下井草",
      "nameKana": null,
      "nameTranslations": {
        "en": "Shimoigusa"
      },
      "latitude": 35.7205501,
      "longitude": 139.6260159,
      "lines": null,
      "prefectureId": "tokyo",
      "cityId": "tokyo_suginami",
      "countryCode": "jp",
      "prefectureName": "東京都",
      "prefectureNameTranslations": null,
      "cityName": "杉並区",
      "cityNameTranslations": null,
      "placeType": "quarter"
    },
    {
      "id": "tokyo_suginami_shoan",
      "osmId": 1629624097,
      "name": "松庵",
      "nameKana": "しょうあん",
      "nameTranslations": {
        "en": "Shoan"
      },
      "latitude": 35.6977161,
      "longitude": 139.5947802,
      "lines": null,
      "prefectureId": "tokyo",
      "cityId": "tokyo_suginami",
      "countryCode": "jp",
      "prefectureName": "東京都",
      "prefectureNameTranslations": null,
      "cityName": "杉並区",
      "cityNameTranslations": null,
      "placeType": "quarter"
    },
    {
      "id": "tokyo_unknown_zenbukuji",
      "osmId": 1629625959,
      "name": "善福寺",
      "nameKana": "ぜんぶくじ",
      "nameTranslations": {
        "en": "Zenbukuji"
      },
      "latitude": 35.7143948,
      "longitude": 139.590818,
      "lines": null,
      "prefectureId": "tokyo",
      "cityId": null,
      "countryCode": "jp",
      "prefectureName": "東京都",
      "prefectureNameTranslations": null,
      "cityName": null,
      "cityNameTranslations": null,
      "placeType": "quarter"
    },
    {
      "id": "tokyo_unknown_wada",
      "osmId": 1629628690,
      "name": "和田",
      "nameKana": "わだ",
      "nameTranslations": {
        "en": "Wada"
      },
      "latitude": 35.6935241,
      "longitude": 139.6576038,
      "lines": null,
      "prefectureId": "tokyo",
      "cityId": null,
      "countryCode": "jp",
      "prefectureName": "東京都",
      "prefectureNameTranslations": null,
      "cityName": null,
      "cityNameTranslations": null,
      "placeType": "quarter"
    },
    {
      "id": "tokyo_unknown_okata",
      "osmId": 1632486540,
      "name": "岡田",
      "nameKana": "おかた",
      "nameTranslations": {
        "en": "Okata"
      },
      "latitude": 34.7890866,
      "longitude": 139.3762361,
      "lines": null,
      "prefectureId": "tokyo",
      "cityId": null,
      "countryCode": "jp",
      "prefectureName": "東京都",
      "prefectureNameTranslations": null,
      "cityName": null,
      "cityNameTranslations": null,
      "placeType": "quarter"
    },
    {
      "id": "tokyo_unknown_sashikiji",
      "osmId": 1632496485,
      "name": "差木地",
      "nameKana": "さしきじ",
      "nameTranslations": {
        "en": "Sashikiji"
      },
      "latitude": 34.6880017,
      "longitude": 139.4241934,
      "lines": null,
      "prefectureId": "tokyo",
      "cityId": null,
      "countryCode": "jp",
      "prefectureName": "東京都",
      "prefectureNameTranslations": null,
      "cityName": null,
      "cityNameTranslations": null,
      "placeType": "quarter"
    },
    {
      "id": "tokyo_unknown_senzu",
      "osmId": 1632497622,
      "name": "泉津",
      "nameKana": "せんづ",
      "nameTranslations": {
        "en": "Senzu"
      },
      "latitude": 34.7769563,
      "longitude": 139.4099946,
      "lines": null,
      "prefectureId": "tokyo",
      "cityId": null,
      "countryCode": "jp",
      "prefectureName": "東京都",
      "prefectureNameTranslations": null,
      "cityName": null,
      "cityNameTranslations": null,
      "placeType": "quarter"
    },
    {
      "id": "tokyo_unknown_nomashi",
      "osmId": 1632531343,
      "name": "野増",
      "nameKana": "のまし",
      "nameTranslations": {
        "en": "Nomashi"
      },
      "latitude": 34.7150808,
      "longitude": 139.3753014,
      "lines": null,
      "prefectureId": "tokyo",
      "cityId": null,
      "countryCode": "jp",
      "prefectureName": "東京都",
      "prefectureNameTranslations": null,
      "cityName": null,
      "cityNameTranslations": null,
      "placeType": "quarter"
    },
    {
      "id": "tokyo_unknown_habuminato",
      "osmId": 1632547087,
      "name": "波浮港",
      "nameKana": "はぶみなと",
      "nameTranslations": {
        "en": "Habuminato"
      },
      "latitude": 34.6935748,
      "longitude": 139.439821,
      "lines": null,
      "prefectureId": "tokyo",
      "cityId": null,
      "countryCode": "jp",
      "prefectureName": "東京都",
      "prefectureNameTranslations": null,
      "cityName": null,
      "cityNameTranslations": null,
      "placeType": "quarter"
    },
    {
      "id": "tokyo_unknown_motomachi",
      "osmId": 1632555617,
      "name": "元町",
      "nameKana": "もとまち",
      "nameTranslations": {
        "en": "Motomachi"
      },
      "latitude": 34.7516178,
      "longitude": 139.3570205,
      "lines": null,
      "prefectureId": "tokyo",
      "cityId": null,
      "countryCode": "jp",
      "prefectureName": "東京都",
      "prefectureNameTranslations": null,
      "cityName": null,
      "cityNameTranslations": null,
      "placeType": "quarter"
    },
    {
      "id": "tokyo_nakano_egota",
      "osmId": 1827239411,
      "name": "江古田",
      "nameKana": "えごた",
      "nameTranslations": {
        "en": "Egota"
      },
      "latitude": 35.7256208,
      "longitude": 139.6679693,
      "lines": null,
      "prefectureId": "tokyo",
      "cityId": "tokyo_nakano",
      "countryCode": "jp",
      "prefectureName": "東京都",
      "prefectureNameTranslations": null,
      "cityName": "中野区",
      "cityNameTranslations": null,
      "placeType": "quarter"
    },
    {
      "id": "tokyo_unknown_hachimancho",
      "osmId": 1833150244,
      "name": "八幡町",
      "nameKana": null,
      "nameTranslations": {
        "en": "Hachimancho"
      },
      "latitude": 35.6678257,
      "longitude": 139.4896683,
      "lines": null,
      "prefectureId": "tokyo",
      "cityId": null,
      "countryCode": "jp",
      "prefectureName": "東京都",
      "prefectureNameTranslations": null,
      "cityName": null,
      "cityNameTranslations": null,
      "placeType": "quarter"
    },
    {
      "id": "tokyo_unknown_higashi_koigakubo",
      "osmId": 1833176162,
      "name": "東恋ケ窪",
      "nameKana": null,
      "nameTranslations": {
        "en": "Higashi Koigakubo"
      },
      "latitude": 35.7093966,
      "longitude": 139.4747003,
      "lines": null,
      "prefectureId": "tokyo",
      "cityId": null,
      "countryCode": "jp",
      "prefectureName": "東京都",
      "prefectureNameTranslations": null,
      "cityName": null,
      "cityNameTranslations": null,
      "placeType": "quarter"
    },
    {
      "id": "tokyo_unknown_honda",
      "osmId": 1833196344,
      "name": "本多",
      "nameKana": null,
      "nameTranslations": {
        "en": "Honda"
      },
      "latitude": 35.7071175,
      "longitude": 139.4815393,
      "lines": null,
      "prefectureId": "tokyo",
      "cityId": null,
      "countryCode": "jp",
      "prefectureName": "東京都",
      "prefectureNameTranslations": null,
      "cityName": null,
      "cityNameTranslations": null,
      "placeType": "quarter"
    },
    {
      "id": "tokyo_unknown_hanakoganei",
      "osmId": 1842606621,
      "name": "花小金井",
      "nameKana": null,
      "nameTranslations": {
        "en": "Hanakoganei"
      },
      "latitude": 35.7334962,
      "longitude": 139.5134338,
      "lines": null,
      "prefectureId": "tokyo",
      "cityId": null,
      "countryCode": "jp",
      "prefectureName": "東京都",
      "prefectureNameTranslations": null,
      "cityName": null,
      "cityNameTranslations": null,
      "placeType": "quarter"
    },
    {
      "id": "tokyo_setagaya_sangenjaya",
      "osmId": 1884954079,
      "name": "三軒茶屋",
      "nameKana": "さんげんじゃや",
      "nameTranslations": {
        "en": "Sangenjaya"
      },
      "latitude": 35.6420125,
      "longitude": 139.6692341,
      "lines": null,
      "prefectureId": "tokyo",
      "cityId": "tokyo_setagaya",
      "countryCode": "jp",
      "prefectureName": "東京都",
      "prefectureNameTranslations": null,
      "cityName": "世田谷区",
      "cityNameTranslations": null,
      "placeType": "quarter"
    },
    {
      "id": "tokyo_unknown_kitazawa",
      "osmId": 1884959241,
      "name": "北沢",
      "nameKana": "きたざわ",
      "nameTranslations": {
        "en": "Kitazawa"
      },
      "latitude": 35.6634677,
      "longitude": 139.668154,
      "lines": null,
      "prefectureId": "tokyo",
      "cityId": null,
      "countryCode": "jp",
      "prefectureName": "東京都",
      "prefectureNameTranslations": null,
      "cityName": null,
      "cityNameTranslations": null,
      "placeType": "quarter"
    },
    {
      "id": "tokyo_setagaya_daizawa",
      "osmId": 1884965134,
      "name": "代沢",
      "nameKana": "だいざわ",
      "nameTranslations": {
        "en": "Daizawa"
      },
      "latitude": 35.6566718,
      "longitude": 139.6705979,
      "lines": null,
      "prefectureId": "tokyo",
      "cityId": "tokyo_setagaya",
      "countryCode": "jp",
      "prefectureName": "東京都",
      "prefectureNameTranslations": null,
      "cityName": "世田谷区",
      "cityNameTranslations": null,
      "placeType": "quarter"
    },
    {
      "id": "tokyo_setagaya_taishido",
      "osmId": 1885145531,
      "name": "太子堂",
      "nameKana": "たいしどう",
      "nameTranslations": {
        "en": "Taishido"
      },
      "latitude": 35.6475328,
      "longitude": 139.671095,
      "lines": null,
      "prefectureId": "tokyo",
      "cityId": "tokyo_setagaya",
      "countryCode": "jp",
      "prefectureName": "東京都",
      "prefectureNameTranslations": null,
      "cityName": "世田谷区",
      "cityNameTranslations": null,
      "placeType": "quarter"
    },
    {
      "id": "tokyo_shinjuku_kabukicho",
      "osmId": 1952395613,
      "name": "歌舞伎町",
      "nameKana": "かぶきちょう",
      "nameTranslations": {
        "en": "Kabukicho"
      },
      "latitude": 35.6945429,
      "longitude": 139.7027105,
      "lines": null,
      "prefectureId": "tokyo",
      "cityId": "tokyo_shinjuku",
      "countryCode": "jp",
      "prefectureName": "東京都",
      "prefectureNameTranslations": null,
      "cityName": "新宿区",
      "cityNameTranslations": null,
      "placeType": "quarter"
    },
    {
      "id": "tokyo_unknown_musashinodai",
      "osmId": 2000550265,
      "name": "武蔵野台",
      "nameKana": null,
      "nameTranslations": {
        "en": "Musashinodai"
      },
      "latitude": 35.7483148,
      "longitude": 139.3313869,
      "lines": null,
      "prefectureId": "tokyo",
      "cityId": null,
      "countryCode": "jp",
      "prefectureName": "東京都",
      "prefectureNameTranslations": null,
      "cityName": null,
      "cityNameTranslations": null,
      "placeType": "quarter"
    },
    {
      "id": "tokyo_unknown_kita_denen",
      "osmId": 2000550267,
      "name": "北田園",
      "nameKana": null,
      "nameTranslations": {
        "en": "Kita denen"
      },
      "latitude": 35.7339041,
      "longitude": 139.3225092,
      "lines": null,
      "prefectureId": "tokyo",
      "cityId": null,
      "countryCode": "jp",
      "prefectureName": "東京都",
      "prefectureNameTranslations": null,
      "cityName": null,
      "cityNameTranslations": null,
      "placeType": "quarter"
    },
    {
      "id": "tokyo_unknown_minami_denen",
      "osmId": 2000550270,
      "name": "南田園",
      "nameKana": null,
      "nameTranslations": {
        "en": "Minami Denen"
      },
      "latitude": 35.724761,
      "longitude": 139.3317819,
      "lines": null,
      "prefectureId": "tokyo",
      "cityId": null,
      "countryCode": "jp",
      "prefectureName": "東京都",
      "prefectureNameTranslations": null,
      "cityName": null,
      "cityNameTranslations": null,
      "placeType": "quarter"
    },
    {
      "id": "tokyo_unknown_kamidaira",
      "osmId": 2000550276,
      "name": "加美平",
      "nameKana": null,
      "nameTranslations": {
        "en": "Kamidaira"
      },
      "latitude": 35.7497024,
      "longitude": 139.3225223,
      "lines": null,
      "prefectureId": "tokyo",
      "cityId": null,
      "countryCode": "jp",
      "prefectureName": "東京都",
      "prefectureNameTranslations": null,
      "cityName": null,
      "cityNameTranslations": null,
      "placeType": "quarter"
    },
    {
      "id": "tokyo_unknown_haijimacho",
      "osmId": 2000575741,
      "name": "拝島町",
      "nameKana": null,
      "nameTranslations": {
        "en": "Haijimacho"
      },
      "latitude": 35.7078587,
      "longitude": 139.3396641,
      "lines": null,
      "prefectureId": "tokyo",
      "cityId": null,
      "countryCode": "jp",
      "prefectureName": "東京都",
      "prefectureNameTranslations": null,
      "cityName": null,
      "cityNameTranslations": null,
      "placeType": "quarter"
    },
    {
      "id": "tokyo_unknown_showacho",
      "osmId": 2033442282,
      "name": "昭和町",
      "nameKana": null,
      "nameTranslations": {
        "en": "Showacho"
      },
      "latitude": 35.7113405,
      "longitude": 139.36326,
      "lines": null,
      "prefectureId": "tokyo",
      "cityId": null,
      "countryCode": "jp",
      "prefectureName": "東京都",
      "prefectureNameTranslations": null,
      "cityName": null,
      "cityNameTranslations": null,
      "placeType": "quarter"
    },
    {
      "id": "tokyo_unknown_nakagami_ch",
      "osmId": 2033442283,
      "name": "中神町",
      "nameKana": "なかがみちょう",
      "nameTranslations": {
        "en": "Nakagami-chō"
      },
      "latitude": 35.7001891,
      "longitude": 139.3720683,
      "lines": null,
      "prefectureId": "tokyo",
      "cityId": null,
      "countryCode": "jp",
      "prefectureName": "東京都",
      "prefectureNameTranslations": null,
      "cityName": null,
      "cityNameTranslations": null,
      "placeType": "quarter"
    },
    {
      "id": "tokyo_unknown_田中",
      "osmId": 2033442284,
      "name": "田中町",
      "nameKana": null,
      "nameTranslations": null,
      "latitude": 35.7010211,
      "longitude": 139.3519249,
      "lines": null,
      "prefectureId": "tokyo",
      "cityId": null,
      "countryCode": "jp",
      "prefectureName": "東京都",
      "prefectureNameTranslations": null,
      "cityName": null,
      "cityNameTranslations": null,
      "placeType": "quarter"
    },
    {
      "id": "tokyo_unknown_matsubaracho",
      "osmId": 2033442285,
      "name": "松原町",
      "nameKana": null,
      "nameTranslations": {
        "en": "Matsubaracho"
      },
      "latitude": 35.7176691,
      "longitude": 139.3434057,
      "lines": null,
      "prefectureId": "tokyo",
      "cityId": null,
      "countryCode": "jp",
      "prefectureName": "東京都",
      "prefectureNameTranslations": null,
      "cityName": null,
      "cityNameTranslations": null,
      "placeType": "quarter"
    },
    {
      "id": "tokyo_unknown_midoricho",
      "osmId": 2033442287,
      "name": "緑町",
      "nameKana": null,
      "nameTranslations": {
        "en": "Midoricho"
      },
      "latitude": 35.7114542,
      "longitude": 139.3452109,
      "lines": null,
      "prefectureId": "tokyo",
      "cityId": null,
      "countryCode": "jp",
      "prefectureName": "東京都",
      "prefectureNameTranslations": null,
      "cityName": null,
      "cityNameTranslations": null,
      "placeType": "quarter"
    },
    {
      "id": "tokyo_unknown_大神",
      "osmId": 2033442293,
      "name": "大神町",
      "nameKana": null,
      "nameTranslations": null,
      "latitude": 35.702805,
      "longitude": 139.3586755,
      "lines": null,
      "prefectureId": "tokyo",
      "cityId": null,
      "countryCode": "jp",
      "prefectureName": "東京都",
      "prefectureNameTranslations": null,
      "cityName": null,
      "cityNameTranslations": null,
      "placeType": "quarter"
    },
    {
      "id": "tokyo_unknown_miyazawacho",
      "osmId": 2033442296,
      "name": "宮沢町",
      "nameKana": null,
      "nameTranslations": {
        "en": "Miyazawacho"
      },
      "latitude": 35.7000519,
      "longitude": 139.3647606,
      "lines": null,
      "prefectureId": "tokyo",
      "cityId": null,
      "countryCode": "jp",
      "prefectureName": "東京都",
      "prefectureNameTranslations": null,
      "cityName": null,
      "cityNameTranslations": null,
      "placeType": "quarter"
    },
    {
      "id": "tokyo_unknown_gochicho",
      "osmId": 2033510946,
      "name": "郷地町",
      "nameKana": null,
      "nameTranslations": {
        "en": "Gochicho"
      },
      "latitude": 35.6955058,
      "longitude": 139.3872711,
      "lines": null,
      "prefectureId": "tokyo",
      "cityId": null,
      "countryCode": "jp",
      "prefectureName": "東京都",
      "prefectureNameTranslations": null,
      "cityName": null,
      "cityNameTranslations": null,
      "placeType": "quarter"
    },
    {
      "id": "tokyo_unknown_fujimi_ch",
      "osmId": 2033510950,
      "name": "富士見町",
      "nameKana": "ふじみちょう",
      "nameTranslations": {
        "en": "Fujimi-chō"
      },
      "latitude": 35.6960112,
      "longitude": 139.3990041,
      "lines": null,
      "prefectureId": "tokyo",
      "cityId": null,
      "countryCode": "jp",
      "prefectureName": "東京都",
      "prefectureNameTranslations": null,
      "cityName": null,
      "cityNameTranslations": null,
      "placeType": "quarter"
    },
    {
      "id": "tokyo_unknown_fukujima_ch",
      "osmId": 2033510953,
      "name": "福島町",
      "nameKana": "ふくじまちょう",
      "nameTranslations": {
        "en": "Fukujima-chō"
      },
      "latitude": 35.6976057,
      "longitude": 139.3802061,
      "lines": null,
      "prefectureId": "tokyo",
      "cityId": null,
      "countryCode": "jp",
      "prefectureName": "東京都",
      "prefectureNameTranslations": null,
      "cityName": null,
      "cityNameTranslations": null,
      "placeType": "quarter"
    },
    {
      "id": "tokyo_unknown_musashino",
      "osmId": 2033510956,
      "name": "武蔵野",
      "nameKana": null,
      "nameTranslations": {
        "en": "Musashino"
      },
      "latitude": 35.7202101,
      "longitude": 139.3767428,
      "lines": null,
      "prefectureId": "tokyo",
      "cityId": null,
      "countryCode": "jp",
      "prefectureName": "東京都",
      "prefectureNameTranslations": null,
      "cityName": null,
      "cityNameTranslations": null,
      "placeType": "quarter"
    },
    {
      "id": "tokyo_unknown_mokusei_no_mori",
      "osmId": 2033510960,
      "name": "もくせいの杜",
      "nameKana": "もくせいのもり",
      "nameTranslations": {
        "en": "Mokusei no mori"
      },
      "latitude": 35.7122778,
      "longitude": 139.3886551,
      "lines": null,
      "prefectureId": "tokyo",
      "cityId": null,
      "countryCode": "jp",
      "prefectureName": "東京都",
      "prefectureNameTranslations": null,
      "cityName": null,
      "cityNameTranslations": null,
      "placeType": "quarter"
    },
    {
      "id": "tokyo_unknown_asahicho",
      "osmId": 2033510964,
      "name": "朝日町",
      "nameKana": null,
      "nameTranslations": {
        "en": "Asahicho"
      },
      "latitude": 35.7055088,
      "longitude": 139.3711735,
      "lines": null,
      "prefectureId": "tokyo",
      "cityId": null,
      "countryCode": "jp",
      "prefectureName": "東京都",
      "prefectureNameTranslations": null,
      "cityName": null,
      "cityNameTranslations": null,
      "placeType": "quarter"
    },
    {
      "id": "tokyo_unknown_tamagawacho",
      "osmId": 2033510968,
      "name": "玉川町",
      "nameKana": null,
      "nameTranslations": {
        "en": "Tamagawacho"
      },
      "latitude": 35.705264,
      "longitude": 139.3771388,
      "lines": null,
      "prefectureId": "tokyo",
      "cityId": null,
      "countryCode": "jp",
      "prefectureName": "東京都",
      "prefectureNameTranslations": null,
      "cityName": null,
      "cityNameTranslations": null,
      "placeType": "quarter"
    },
    {
      "id": "tokyo_unknown_mihoricho",
      "osmId": 2033510972,
      "name": "美堀町",
      "nameKana": null,
      "nameTranslations": {
        "en": "Mihoricho"
      },
      "latitude": 35.7209095,
      "longitude": 139.3540492,
      "lines": null,
      "prefectureId": "tokyo",
      "cityId": null,
      "countryCode": "jp",
      "prefectureName": "東京都",
      "prefectureNameTranslations": null,
      "cityName": null,
      "cityNameTranslations": null,
      "placeType": "quarter"
    },
    {
      "id": "tokyo_unknown_tsutsujigaoka",
      "osmId": 2033510976,
      "name": "つつじが丘",
      "nameKana": null,
      "nameTranslations": {
        "en": "Tsutsujigaoka"
      },
      "latitude": 35.7173294,
      "longitude": 139.3694666,
      "lines": null,
      "prefectureId": "tokyo",
      "cityId": null,
      "countryCode": "jp",
      "prefectureName": "東京都",
      "prefectureNameTranslations": null,
      "cityName": null,
      "cityNameTranslations": null,
      "placeType": "quarter"
    },
    {
      "id": "tokyo_unknown_azuma_ch",
      "osmId": 2033510980,
      "name": "東町",
      "nameKana": "あずまちょう",
      "nameTranslations": {
        "en": "Azuma-chō"
      },
      "latitude": 35.7019708,
      "longitude": 139.3882538,
      "lines": null,
      "prefectureId": "tokyo",
      "cityId": null,
      "countryCode": "jp",
      "prefectureName": "東京都",
      "prefectureNameTranslations": null,
      "cityName": null,
      "cityNameTranslations": null,
      "placeType": "quarter"
    },
    {
      "id": "tokyo_unknown_akebonocho",
      "osmId": 2037517346,
      "name": "曙町",
      "nameKana": null,
      "nameTranslations": {
        "en": "Akebonocho"
      },
      "latitude": 35.6991763,
      "longitude": 139.410881,
      "lines": null,
      "prefectureId": "tokyo",
      "cityId": null,
      "countryCode": "jp",
      "prefectureName": "東京都",
      "prefectureNameTranslations": null,
      "cityName": null,
      "cityNameTranslations": null,
      "placeType": "quarter"
    },
    {
      "id": "tokyo_unknown_haneda",
      "osmId": 2289257986,
      "name": "羽田",
      "nameKana": "はねだ",
      "nameTranslations": {
        "en": "Haneda"
      },
      "latitude": 35.5479444,
      "longitude": 139.7466458,
      "lines": null,
      "prefectureId": "tokyo",
      "cityId": null,
      "countryCode": "jp",
      "prefectureName": "東京都",
      "prefectureNameTranslations": null,
      "cityName": null,
      "cityNameTranslations": null,
      "placeType": "quarter"
    },
    {
      "id": "tokyo_unknown_south_ikebukuro",
      "osmId": 2367729200,
      "name": "南池袋",
      "nameKana": null,
      "nameTranslations": {
        "en": "South Ikebukuro"
      },
      "latitude": 35.7247203,
      "longitude": 139.7147332,
      "lines": null,
      "prefectureId": "tokyo",
      "cityId": null,
      "countryCode": "jp",
      "prefectureName": "東京都",
      "prefectureNameTranslations": null,
      "cityName": null,
      "cityNameTranslations": null,
      "placeType": "quarter"
    },
    {
      "id": "tokyo_unknown_haginaka",
      "osmId": 2368436750,
      "name": "萩中",
      "nameKana": "はぎなか",
      "nameTranslations": {
        "en": "Haginaka"
      },
      "latitude": 35.5511001,
      "longitude": 139.7317797,
      "lines": null,
      "prefectureId": "tokyo",
      "cityId": null,
      "countryCode": "jp",
      "prefectureName": "東京都",
      "prefectureNameTranslations": null,
      "cityName": null,
      "cityNameTranslations": null,
      "placeType": "quarter"
    },
    {
      "id": "tokyo_unknown_honhaneda",
      "osmId": 2368503802,
      "name": "本羽田",
      "nameKana": "ほんはねだ",
      "nameTranslations": {
        "en": "Honhaneda"
      },
      "latitude": 35.5457031,
      "longitude": 139.7316232,
      "lines": null,
      "prefectureId": "tokyo",
      "cityId": null,
      "countryCode": "jp",
      "prefectureName": "東京都",
      "prefectureNameTranslations": null,
      "cityName": null,
      "cityNameTranslations": null,
      "placeType": "quarter"
    },
    {
      "id": "tokyo_unknown_hikawa",
      "osmId": 2502547394,
      "name": "氷川",
      "nameKana": "ひかわ",
      "nameTranslations": {
        "en": "Hikawa"
      },
      "latitude": 35.8095934,
      "longitude": 139.0928219,
      "lines": null,
      "prefectureId": "tokyo",
      "cityId": null,
      "countryCode": "jp",
      "prefectureName": "東京都",
      "prefectureNameTranslations": null,
      "cityName": null,
      "cityNameTranslations": null,
      "placeType": "quarter"
    },
    {
      "id": "tokyo_unknown_shiromaru",
      "osmId": 2502556387,
      "name": "白丸",
      "nameKana": "しろまる",
      "nameTranslations": {
        "en": "Shiromaru"
      },
      "latitude": 35.8131714,
      "longitude": 139.1127004,
      "lines": null,
      "prefectureId": "tokyo",
      "cityId": null,
      "countryCode": "jp",
      "prefectureName": "東京都",
      "prefectureNameTranslations": null,
      "cityName": null,
      "cityNameTranslations": null,
      "placeType": "quarter"
    },
    {
      "id": "tokyo_unknown_unazawa",
      "osmId": 2502561180,
      "name": "海澤",
      "nameKana": "うなざわ",
      "nameTranslations": {
        "en": "Unazawa"
      },
      "latitude": 35.8036302,
      "longitude": 139.1137461,
      "lines": null,
      "prefectureId": "tokyo",
      "cityId": null,
      "countryCode": "jp",
      "prefectureName": "東京都",
      "prefectureNameTranslations": null,
      "cityName": null,
      "cityNameTranslations": null,
      "placeType": "quarter"
    },
    {
      "id": "tokyo_unknown_sakai",
      "osmId": 2502569473,
      "name": "境",
      "nameKana": "さかい",
      "nameTranslations": {
        "en": "Sakai"
      },
      "latitude": 35.7987724,
      "longitude": 139.0674955,
      "lines": null,
      "prefectureId": "tokyo",
      "cityId": null,
      "countryCode": "jp",
      "prefectureName": "東京都",
      "prefectureNameTranslations": null,
      "cityName": null,
      "cityNameTranslations": null,
      "placeType": "quarter"
    },
    {
      "id": "tokyo_unknown_kotaba",
      "osmId": 2502575268,
      "name": "小丹波",
      "nameKana": "こたば",
      "nameTranslations": {
        "en": "Kotaba"
      },
      "latitude": 35.8182815,
      "longitude": 139.1516798,
      "lines": null,
      "prefectureId": "tokyo",
      "cityId": null,
      "countryCode": "jp",
      "prefectureName": "東京都",
      "prefectureNameTranslations": null,
      "cityName": null,
      "cityNameTranslations": null,
      "placeType": "quarter"
    },
    {
      "id": "tokyo_nishitokyo_hibarigaoka",
      "osmId": 2525234429,
      "name": "ひばりヶ丘",
      "nameKana": null,
      "nameTranslations": {
        "en": "Hibarigaoka"
      },
      "latitude": 35.7462782,
      "longitude": 139.5378682,
      "lines": null,
      "prefectureId": "tokyo",
      "cityId": "tokyo_nishitokyo",
      "countryCode": "jp",
      "prefectureName": "東京都",
      "prefectureNameTranslations": null,
      "cityName": "西東京市",
      "cityNameTranslations": null,
      "placeType": "quarter"
    },
    {
      "id": "tokyo_nerima_asahigaoka",
      "osmId": 2534663023,
      "name": "旭丘",
      "nameKana": null,
      "nameTranslations": {
        "en": "Asahigaoka"
      },
      "latitude": 35.7350726,
      "longitude": 139.6765561,
      "lines": null,
      "prefectureId": "tokyo",
      "cityId": "tokyo_nerima",
      "countryCode": "jp",
      "prefectureName": "東京都",
      "prefectureNameTranslations": null,
      "cityName": "練馬区",
      "cityNameTranslations": null,
      "placeType": "quarter"
    },
    {
      "id": "tokyo_unknown_azabudai",
      "osmId": 2706955206,
      "name": "麻布台",
      "nameKana": "あざぶだい",
      "nameTranslations": {
        "en": "Azabudai"
      },
      "latitude": 35.6596917,
      "longitude": 139.7412077,
      "lines": null,
      "prefectureId": "tokyo",
      "cityId": null,
      "countryCode": "jp",
      "prefectureName": "東京都",
      "prefectureNameTranslations": null,
      "cityName": null,
      "cityNameTranslations": null,
      "placeType": "quarter"
    },
    {
      "id": "tokyo_unknown_azabu_juban",
      "osmId": 2706980759,
      "name": "麻布十番",
      "nameKana": "あざぶじゅうばん",
      "nameTranslations": {
        "en": "Azabu-Juban"
      },
      "latitude": 35.6542621,
      "longitude": 139.7366855,
      "lines": null,
      "prefectureId": "tokyo",
      "cityId": null,
      "countryCode": "jp",
      "prefectureName": "東京都",
      "prefectureNameTranslations": null,
      "cityName": null,
      "cityNameTranslations": null,
      "placeType": "quarter"
    },
    {
      "id": "tokyo_unknown_oguno",
      "osmId": 2906663011,
      "name": "大久野",
      "nameKana": "おおぐの",
      "nameTranslations": {
        "en": "Oguno"
      },
      "latitude": 35.7536986,
      "longitude": 139.2326459,
      "lines": null,
      "prefectureId": "tokyo",
      "cityId": null,
      "countryCode": "jp",
      "prefectureName": "東京都",
      "prefectureNameTranslations": null,
      "cityName": null,
      "cityNameTranslations": null,
      "placeType": "quarter"
    },
    {
      "id": "tokyo_unknown_hirai",
      "osmId": 2906663014,
      "name": "平井",
      "nameKana": "ひらい",
      "nameTranslations": {
        "en": "Hirai"
      },
      "latitude": 35.738788,
      "longitude": 139.266575,
      "lines": null,
      "prefectureId": "tokyo",
      "cityId": null,
      "countryCode": "jp",
      "prefectureName": "東京都",
      "prefectureNameTranslations": null,
      "cityName": null,
      "cityNameTranslations": null,
      "placeType": "quarter"
    },
    {
      "id": "tokyo_unknown_mitsugo",
      "osmId": 2906676012,
      "name": "三都郷",
      "nameKana": "みつご",
      "nameTranslations": {
        "en": "Mitsugo"
      },
      "latitude": 35.7433702,
      "longitude": 139.13741,
      "lines": null,
      "prefectureId": "tokyo",
      "cityId": null,
      "countryCode": "jp",
      "prefectureName": "東京都",
      "prefectureNameTranslations": null,
      "cityName": null,
      "cityNameTranslations": null,
      "placeType": "quarter"
    },
    {
      "id": "tokyo_unknown_kamimotogo",
      "osmId": 2906676013,
      "name": "上元郷",
      "nameKana": "かみもとごう",
      "nameTranslations": {
        "en": "Kamimotogo"
      },
      "latitude": 35.7275295,
      "longitude": 139.151921,
      "lines": null,
      "prefectureId": "tokyo",
      "cityId": null,
      "countryCode": "jp",
      "prefectureName": "東京都",
      "prefectureNameTranslations": null,
      "cityName": null,
      "cityNameTranslations": null,
      "placeType": "quarter"
    },
    {
      "id": "tokyo_unknown_shimomotogo",
      "osmId": 2906676014,
      "name": "下元郷",
      "nameKana": "しももとごう",
      "nameTranslations": {
        "en": "Shimomotogo"
      },
      "latitude": 35.7234023,
      "longitude": 139.1599514,
      "lines": null,
      "prefectureId": "tokyo",
      "cityId": null,
      "countryCode": "jp",
      "prefectureName": "東京都",
      "prefectureNameTranslations": null,
      "cityName": null,
      "cityNameTranslations": null,
      "placeType": "quarter"
    },
    {
      "id": "tokyo_unknown_henbori",
      "osmId": 2906676015,
      "name": "人里",
      "nameKana": "へんぼり",
      "nameTranslations": {
        "en": "Henbori"
      },
      "latitude": 35.7105633,
      "longitude": 139.0846352,
      "lines": null,
      "prefectureId": "tokyo",
      "cityId": null,
      "countryCode": "jp",
      "prefectureName": "東京都",
      "prefectureNameTranslations": null,
      "cityName": null,
      "cityNameTranslations": null,
      "placeType": "quarter"
    },
    {
      "id": "tokyo_unknown_kurakake",
      "osmId": 2906676016,
      "name": "倉掛",
      "nameKana": "くらかけ",
      "nameTranslations": {
        "en": "Kurakake"
      },
      "latitude": 35.742229,
      "longitude": 139.0659498,
      "lines": null,
      "prefectureId": "tokyo",
      "cityId": null,
      "countryCode": "jp",
      "prefectureName": "東京都",
      "prefectureNameTranslations": null,
      "cityName": null,
      "cityNameTranslations": null,
      "placeType": "quarter"
    },
    {
      "id": "tokyo_unknown_nango",
      "osmId": 2906676017,
      "name": "南郷",
      "nameKana": "なんごう",
      "nameTranslations": {
        "en": "Nango"
      },
      "latitude": 35.7055571,
      "longitude": 139.1218856,
      "lines": null,
      "prefectureId": "tokyo",
      "cityId": null,
      "countryCode": "jp",
      "prefectureName": "東京都",
      "prefectureNameTranslations": null,
      "cityName": null,
      "cityNameTranslations": null,
      "placeType": "quarter"
    },
    {
      "id": "tokyo_unknown_大嶽",
      "osmId": 2906676018,
      "name": "大嶽",
      "nameKana": null,
      "nameTranslations": null,
      "latitude": 35.762803,
      "longitude": 139.137024,
      "lines": null,
      "prefectureId": "tokyo",
      "cityId": null,
      "countryCode": "jp",
      "prefectureName": "東京都",
      "prefectureNameTranslations": null,
      "cityName": null,
      "cityNameTranslations": null,
      "placeType": "quarter"
    },
    {
      "id": "tokyo_unknown_ozawa",
      "osmId": 2906676019,
      "name": "小沢",
      "nameKana": "おざわ",
      "nameTranslations": {
        "en": "Ozawa"
      },
      "latitude": 35.7399136,
      "longitude": 139.1229436,
      "lines": null,
      "prefectureId": "tokyo",
      "cityId": null,
      "countryCode": "jp",
      "prefectureName": "東京都",
      "prefectureNameTranslations": null,
      "cityName": null,
      "cityNameTranslations": null,
      "placeType": "quarter"
    },
    {
      "id": "tokyo_unknown_kazuma",
      "osmId": 2906676020,
      "name": "数馬",
      "nameKana": "かずま",
      "nameTranslations": {
        "en": "Kazuma"
      },
      "latitude": 35.7269678,
      "longitude": 139.0571236,
      "lines": null,
      "prefectureId": "tokyo",
      "cityId": null,
      "countryCode": "jp",
      "prefectureName": "東京都",
      "prefectureNameTranslations": null,
      "cityName": null,
      "cityNameTranslations": null,
      "placeType": "quarter"
    },
    {
      "id": "tokyo_unknown_motoshuku",
      "osmId": 2906676021,
      "name": "本宿",
      "nameKana": "もとしゅく",
      "nameTranslations": {
        "en": "Motoshuku"
      },
      "latitude": 35.7194915,
      "longitude": 139.146758,
      "lines": null,
      "prefectureId": "tokyo",
      "cityId": null,
      "countryCode": "jp",
      "prefectureName": "東京都",
      "prefectureNameTranslations": null,
      "cityName": null,
      "cityNameTranslations": null,
      "placeType": "quarter"
    },
    {
      "id": "tokyo_unknown_hizato",
      "osmId": 2906676022,
      "name": "樋里",
      "nameKana": "ひざと",
      "nameTranslations": {
        "en": "Hizato"
      },
      "latitude": 35.7341872,
      "longitude": 139.1071941,
      "lines": null,
      "prefectureId": "tokyo",
      "cityId": null,
      "countryCode": "jp",
      "prefectureName": "東京都",
      "prefectureNameTranslations": null,
      "cityName": null,
      "cityNameTranslations": null,
      "placeType": "quarter"
    },
    {
      "id": "tokyo_unknown_kanoto",
      "osmId": 2906676023,
      "name": "神戸",
      "nameKana": "かのと",
      "nameTranslations": {
        "en": "Kanoto"
      },
      "latitude": 35.7478365,
      "longitude": 139.1214116,
      "lines": null,
      "prefectureId": "tokyo",
      "cityId": null,
      "countryCode": "jp",
      "prefectureName": "東京都",
      "prefectureNameTranslations": null,
      "cityName": null,
      "cityNameTranslations": null,
      "placeType": "quarter"
    },
    {
      "id": "tokyo_unknown_fujiwara",
      "osmId": 2906676024,
      "name": "藤原",
      "nameKana": "ふじわら",
      "nameTranslations": {
        "en": "Fujiwara"
      },
      "latitude": 35.7435089,
      "longitude": 139.0790389,
      "lines": null,
      "prefectureId": "tokyo",
      "cityId": null,
      "countryCode": "jp",
      "prefectureName": "東京都",
      "prefectureNameTranslations": null,
      "cityName": null,
      "cityNameTranslations": null,
      "placeType": "quarter"
    },
    {
      "id": "tokyo_unknown_misono",
      "osmId": 2943843331,
      "name": "三園",
      "nameKana": null,
      "nameTranslations": {
        "en": "Misono"
      },
      "latitude": 35.7918914,
      "longitude": 139.6407924,
      "lines": null,
      "prefectureId": "tokyo",
      "cityId": null,
      "countryCode": "jp",
      "prefectureName": "東京都",
      "prefectureNameTranslations": null,
      "cityName": null,
      "cityNameTranslations": null,
      "placeType": "quarter"
    },
    {
      "id": "tokyo_itabashi_tokumaru",
      "osmId": 2943843332,
      "name": "徳丸",
      "nameKana": null,
      "nameTranslations": {
        "en": "Tokumaru"
      },
      "latitude": 35.775789,
      "longitude": 139.6598681,
      "lines": null,
      "prefectureId": "tokyo",
      "cityId": "tokyo_itabashi",
      "countryCode": "jp",
      "prefectureName": "東京都",
      "prefectureNameTranslations": null,
      "cityName": "板橋区",
      "cityNameTranslations": null,
      "placeType": "quarter"
    },