[
  {
    "id": "th_uthai_thani",
    "name": "Uthai Thani県",
    "name_translations": { "en": "Uthai Thani" },
    "name_kana": "",
    "region_id": "th_north",
    "latitude": 15.38333,
    "longitude": 99.55,
    "country_code": "th"
  },
  {
    "id": "th_trang",
    "name": "Trang県",
    "name_translations": { "en": "Trang" },
    "name_kana": "",
    "region_id": "th_south",
    "latitude": 7.50722,
    "longitude": 99.59811,
    "country_code": "th"
  },
  {
    "id": "th_tak",
    "name": "Tak県",
    "name_translations": { "en": "Tak" },
    "name_kana": "",
    "region_id": "th_north",
    "latitude": 16.58333,
    "longitude": 98.83333,
    "country_code": "th"
  },
  {
    "id": "th_surat_thani",
    "name": "スラートターニー県",
    "name_translations": { "en": "Surat Thani" },
    "name_kana": "",
    "region_id": "th_south",
    "latitude": 9.0011,
    "longitude": 99.0394,
    "country_code": "th"
  },
  {
    "id": "th_sukhothai",
    "name": "スコータイ県",
    "name_translations": { "en": "Sukhothai" },
    "name_kana": "",
    "region_id": "th_north",
    "latitude": 17.25,
    "longitude": 99.66667,
    "country_code": "th"
  },
  {
    "id": "th_ratchaburi",
    "name": "Ratchaburi県",
    "name_translations": { "en": "Ratchaburi" },
    "name_kana": "",
    "region_id": "th_central",
    "latitude": 13.58333,
    "longitude": 99.53333,
    "country_code": "th"
  },
  {
    "id": "th_ranong",
    "name": "Ranong県",
    "name_translations": { "en": "Ranong" },
    "name_kana": "",
    "region_id": "th_south",
    "latitude": 10.1,
    "longitude": 98.75,
    "country_code": "th"
  },
  {
    "id": "th_prachuap_khiri_khan",
    "name": "Prachuap Khiri Khan県",
    "name_translations": { "en": "Prachuap Khiri Khan" },
    "name_kana": "",
    "region_id": "th_west",
    "latitude": 12.21667,
    "longitude": 99.75,
    "country_code": "th"
  },
  {
    "id": "th_phuket",
    "name": "プーケット県",
    "name_translations": { "en": "Phuket" },
    "name_kana": "",
    "region_id": "th_south",
    "latitude": 7.97152,
    "longitude": 98.35098,
    "country_code": "th"
  },
  {
    "id": "th_phetchaburi",
    "name": "Phetchaburi県",
    "name_translations": { "en": "Phetchaburi" },
    "name_kana": "",
    "region_id": "th_west",
    "latitude": 12.96667,
    "longitude": 99.58333,
    "country_code": "th"
  },
  {
    "id": "th_phangnga",
    "name": "Phangnga県",
    "name_translations": { "en": "Phangnga" },
    "name_kana": "",
    "region_id": "th_south",
    "latitude": 8.63333,
    "longitude": 98.41667,
    "country_code": "th"
  },
  {
    "id": "th_mae_hong_son",
    "name": "Mae Hong Son県",
    "name_translations": { "en": "Mae Hong Son" },
    "name_kana": "",
    "region_id": "th_north",
    "latitude": 18.75,
    "longitude": 97.91667,
    "country_code": "th"
  },
  {
    "id": "th_lamphun",
    "name": "Lamphun県",
    "name_translations": { "en": "Lamphun" },
    "name_kana": "",
    "region_id": "th_north",
    "latitude": 18.25,
    "longitude": 98.91667,
    "country_code": "th"
  },
  {
    "id": "th_lampang",
    "name": "Lampang県",
    "name_translations": { "en": "Lampang" },
    "name_kana": "",
    "region_id": "th_north",
    "latitude": 18.33333,
    "longitude": 99.5,
    "country_code": "th"
  },
  {
    "id": "th_krabi",
    "name": "クラビー県",
    "name_translations": { "en": "Krabi" },
    "name_kana": "",
    "region_id": "th_south",
    "latitude": 8.19793,
    "longitude": 99.00859,
    "country_code": "th"
  },
  {
    "id": "th_kanchanaburi",
    "name": "カンチャナブリー県",
    "name_translations": { "en": "Kanchanaburi" },
    "name_kana": "",
    "region_id": "th_central",
    "latitude": 14.63333,
    "longitude": 99.1,
    "country_code": "th"
  },
  {
    "id": "th_kamphaeng_phet",
    "name": "Kamphaeng Phet県",
    "name_translations": { "en": "Kamphaeng Phet" },
    "name_kana": "",
    "region_id": "th_north",
    "latitude": 16.25,
    "longitude": 99.5,
    "country_code": "th"
  },
  {
    "id": "th_chumphon",
    "name": "Chumphon県",
    "name_translations": { "en": "Chumphon" },
    "name_kana": "",
    "region_id": "th_south",
    "latitude": 10.4,
    "longitude": 99.06667,
    "country_code": "th"
  },
  {
    "id": "th_chiang_rai",
    "name": "チェンライ県",
    "name_translations": { "en": "Chiang Rai" },
    "name_kana": "",
    "region_id": "th_north",
    "latitude": 19.91667,
    "longitude": 99.91667,
    "country_code": "th"
  },
  {
    "id": "th_chiang_mai",
    "name": "チェンマイ県",
    "name_translations": { "en": "Chiang Mai" },
    "name_kana": "",
    "region_id": "th_north",
    "latitude": 18.75,
    "longitude": 99,
    "country_code": "th"
  },
  {
    "id": "th_yasothon",
    "name": "Yasothon県",
    "name_translations": { "en": "Yasothon" },
    "name_kana": "",
    "region_id": "th_northeast",
    "latitude": 15.85,
    "longitude": 104.28333,
    "country_code": "th"
  },
  {
    "id": "th_yala",
    "name": "Yala県",
    "name_translations": { "en": "Yala" },
    "name_kana": "",
    "region_id": "th_south",
    "latitude": 6.33333,
    "longitude": 101.25,
    "country_code": "th"
  },
  {
    "id": "th_uttaradit",
    "name": "Uttaradit県",
    "name_translations": { "en": "Uttaradit" },
    "name_kana": "",
    "region_id": "th_north",
    "latitude": 17.66667,
    "longitude": 100.5,
    "country_code": "th"
  },
  {
    "id": "th_trat",
    "name": "Trat県",
    "name_translations": { "en": "Trat" },
    "name_kana": "",
    "region_id": "th_east",
    "latitude": 12.5,
    "longitude": 102.5,
    "country_code": "th"
  },
  {
    "id": "th_surin",
    "name": "Surin県",
    "name_translations": { "en": "Surin" },
    "name_kana": "",
    "region_id": "th_northeast",
    "latitude": 14.83333,
    "longitude": 103.75,
    "country_code": "th"
  },
  {
    "id": "th_suphan_buri",
    "name": "Suphan Buri県",
    "name_translations": { "en": "Suphan Buri" },
    "name_kana": "",
    "region_id": "th_central",
    "latitude": 14.46667,
    "longitude": 100.06667,
    "country_code": "th"
  },
  {
    "id": "th_songkhla",
    "name": "ソンクラー県",
    "name_translations": { "en": "Songkhla" },
    "name_kana": "",
    "region_id": "th_south",
    "latitude": 6.83333,
    "longitude": 100.66667,
    "country_code": "th"
  },
  {
    "id": "th_si_sa_ket",
    "name": "Si Sa Ket県",
    "name_translations": { "en": "Si Sa Ket" },
    "name_kana": "",
    "region_id": "th_northeast",
    "latitude": 14.83333,
    "longitude": 104.33333,
    "country_code": "th"
  },
  {
    "id": "th_sing_buri",
    "name": "Sing Buri県",
    "name_translations": { "en": "Sing Buri" },
    "name_kana": "",
    "region_id": "th_central",
    "latitude": 14.925,
    "longitude": 100.33333,
    "country_code": "th"
  },
  {
    "id": "th_satun",
    "name": "Satun県",
    "name_translations": { "en": "Satun" },
    "name_kana": "",
    "region_id": "th_south",
    "latitude": 6.83333,
    "longitude": 100,
    "country_code": "th"
  },
  {
    "id": "th_saraburi",
    "name": "Saraburi県",
    "name_translations": { "en": "Saraburi" },
    "name_kana": "",
    "region_id": "th_central",
    "latitude": 14.60838,
    "longitude": 100.96822,
    "country_code": "th"
  },
  {
    "id": "th_samut_songkhram",
    "name": "Samut Songkhram県",
    "name_translations": { "en": "Samut Songkhram" },
    "name_kana": "",
    "region_id": "th_central",
    "latitude": 13.4,
    "longitude": 99.95833,
    "country_code": "th"
  },
  {
    "id": "th_samut_sakhon",
    "name": "Samut Sakhon県",
    "name_translations": { "en": "Samut Sakhon" },
    "name_kana": "",
    "region_id": "th_central",
    "latitude": 13.56667,
    "longitude": 100.21667,
    "country_code": "th"
  },
  {
    "id": "th_samut_prakan",
    "name": "Samut Prakan県",
    "name_translations": { "en": "Samut Prakan" },
    "name_kana": "",
    "region_id": "th_central",
    "latitude": 13.60442,
    "longitude": 100.70531,
    "country_code": "th"
  },
  {
    "id": "th_sakon_nakhon",
    "name": "Sakon Nakhon県",
    "name_translations": { "en": "Sakon Nakhon" },
    "name_kana": "",
    "region_id": "th_northeast",
    "latitude": 17.33333,
    "longitude": 103.83333,
    "country_code": "th"
  },
  {
    "id": "th_roi_et",
    "name": "Roi Et県",
    "name_translations": { "en": "Roi Et" },
    "name_kana": "",
    "region_id": "th_northeast",
    "latitude": 15.75,
    "longitude": 103.75,
    "country_code": "th"
  },
  {
    "id": "th_rayong",
    "name": "Rayong県",
    "name_translations": { "en": "Rayong" },
    "name_kana": "",
    "region_id": "th_east",
    "latitude": 12.83333,
    "longitude": 101.43333,
    "country_code": "th"
  },
  {
    "id": "th_phra_nakhon_si_ayutthaya",
    "name": "Phra Nakhon Si Ayutthaya県",
    "name_translations": { "en": "Phra Nakhon Si Ayutthaya" },
    "name_kana": "",
    "region_id": "th_central",
    "latitude": 14.28333,
    "longitude": 100.5,
    "country_code": "th"
  },
  {
    "id": "th_phrae",
    "name": "Phrae県",
    "name_translations": { "en": "Phrae" },
    "name_kana": "",
    "region_id": "th_north",
    "latitude": 18.08333,
    "longitude": 100,
    "country_code": "th"
  },
  {
    "id": "th_phitsanulok",
    "name": "Phitsanulok県",
    "name_translations": { "en": "Phitsanulok" },
    "name_kana": "",
    "region_id": "th_north",
    "latitude": 16.91667,
    "longitude": 100.5,
    "country_code": "th"
  },
  {
    "id": "th_phichit",
    "name": "Phichit県",
    "name_translations": { "en": "Phichit" },
    "name_kana": "",
    "region_id": "th_north",
    "latitude": 16.25,
    "longitude": 100.41667,
    "country_code": "th"
  },
  {
    "id": "th_phetchabun",
    "name": "Phetchabun県",
    "name_translations": { "en": "Phetchabun" },
    "name_kana": "",
    "region_id": "th_north",
    "latitude": 16.25,
    "longitude": 101.08333,
    "country_code": "th"
  },
  {
    "id": "th_phayao",
    "name": "Phayao県",
    "name_translations": { "en": "Phayao" },
    "name_kana": "",
    "region_id": "th_north",
    "latitude": 19.25,
    "longitude": 100.25,
    "country_code": "th"
  },
  {
    "id": "th_phatthalung",
    "name": "Phatthalung県",
    "name_translations": { "en": "Phatthalung" },
    "name_kana": "",
    "region_id": "th_south",
    "latitude": 7.5,
    "longitude": 100.08333,
    "country_code": "th"
  },
  {
    "id": "th_pattani",
    "name": "パッターニー県",
    "name_translations": { "en": "Pattani" },
    "name_kana": "",
    "region_id": "th_south",
    "latitude": 6.74722,
    "longitude": 101.375,
    "country_code": "th"
  },
  {
    "id": "th_pathum_thani",
    "name": "Pathum Thani県",
    "name_translations": { "en": "Pathum Thani" },
    "name_kana": "",
    "region_id": "th_central",
    "latitude": 14.04554,
    "longitude": 100.63955,
    "country_code": "th"
  },
  {
    "id": "th_nonthaburi",
    "name": "Nonthaburi県",
    "name_translations": { "en": "Nonthaburi" },
    "name_kana": "",
    "region_id": "th_central",
    "latitude": 13.90433,
    "longitude": 100.40335,
    "country_code": "th"
  },
  {
    "id": "th_nong_khai",
    "name": "Nong Khai県",
    "name_translations": { "en": "Nong Khai" },
    "name_kana": "",
    "region_id": "th_northeast",
    "latitude": 17.75,
    "longitude": 102.75,
    "country_code": "th"
  },
  {
    "id": "th_narathiwat",
    "name": "Narathiwat県",
    "name_translations": { "en": "Narathiwat" },
    "name_kana": "",
    "region_id": "th_south",
    "latitude": 6.20336,
    "longitude": 101.72005,
    "country_code": "th"
  },
  {
    "id": "th_nan",
    "name": "Nan県",
    "name_translations": { "en": "Nan" },
    "name_kana": "",
    "region_id": "th_north",
    "latitude": 18.83333,
    "longitude": 100.66667,
    "country_code": "th"
  },
  {
    "id": "th_nakhon_si_thammarat",
    "name": "ナコーンシータンマラート県",
    "name_translations": { "en": "Nakhon Si Thammarat" },
    "name_kana": "",
    "region_id": "th_south",
    "latitude": 8.39102,
    "longitude": 99.82203,
    "country_code": "th"
  },
  {
    "id": "th_nakhon_sawan",
    "name": "Nakhon Sawan県",
    "name_translations": { "en": "Nakhon Sawan" },
    "name_kana": "",
    "region_id": "th_north",
    "latitude": 15.7,
    "longitude": 100.08333,
    "country_code": "th"
  },
  {
    "id": "th_nakhon_ratchasima",
    "name": "ナコーンラーチャシーマー県",
    "name_translations": { "en": "Nakhon Ratchasima" },
    "name_kana": "",
    "region_id": "th_northeast",
    "latitude": 15,
    "longitude": 102.16667,
    "country_code": "th"
  },
  {
    "id": "th_nakhon_phanom",
    "name": "Nakhon Phanom県",
    "name_translations": { "en": "Nakhon Phanom" },
    "name_kana": "",
    "region_id": "th_northeast",
    "latitude": 17.48611,
    "longitude": 104.48333,
    "country_code": "th"
  },
  {
    "id": "th_nakhon_pathom",
    "name": "Nakhon Pathom県",
    "name_translations": { "en": "Nakhon Pathom" },
    "name_kana": "",
    "region_id": "th_central",
    "latitude": 13.98333,
    "longitude": 100.08333,
    "country_code": "th"
  },
  {
    "id": "th_nakhon_nayok",
    "name": "Nakhon Nayok県",
    "name_translations": { "en": "Nakhon Nayok" },
    "name_kana": "",
    "region_id": "th_central",
    "latitude": 14.16667,
    "longitude": 101.1,
    "country_code": "th"
  },
  {
    "id": "th_mukdahan",
    "name": "Mukdahan県",
    "name_translations": { "en": "Mukdahan" },
    "name_kana": "",
    "region_id": "th_northeast",
    "latitude": 16.58333,
    "longitude": 104.5,
    "country_code": "th"
  },
  {
    "id": "th_maha_sarakham",
    "name": "Maha Sarakham県",
    "name_translations": { "en": "Maha Sarakham" },
    "name_kana": "",
    "region_id": "th_northeast",
    "latitude": 16.00571,
    "longitude": 103.17233,
    "country_code": "th"
  },
  {
    "id": "th_lop_buri",
    "name": "Lop Buri県",
    "name_translations": { "en": "Lop Buri" },
    "name_kana": "",
    "region_id": "th_central",
    "latitude": 15.12191,
    "longitude": 100.88605,
    "country_code": "th"
  },
  {
    "id": "th_loei",
    "name": "Loei県",
    "name_translations": { "en": "Loei" },
    "name_kana": "",
    "region_id": "th_northeast",
    "latitude": 17.41667,
    "longitude": 101.5,
    "country_code": "th"
  },
  {
    "id": "th_bangkok",
    "name": "バンコク",
    "name_translations": { "en": "Bangkok" },
    "name_kana": "",
    "region_id": "th_central",
    "latitude": 13.87719,
    "longitude": 100.71991,
    "country_code": "th"
  },
  {
    "id": "th_khon_kaen",
    "name": "コーンケン県",
    "name_translations": { "en": "Khon Kaen" },
    "name_kana": "",
    "region_id": "th_northeast",
    "latitude": 16.43056,
    "longitude": 102.61667,
    "country_code": "th"
  },
  {
    "id": "th_kalasin",
    "name": "Kalasin県",
    "name_translations": { "en": "Kalasin" },
    "name_kana": "",
    "region_id": "th_northeast",
    "latitude": 16.5,
    "longitude": 103.5,
    "country_code": "th"
  },
  {
    "id": "th_chon_buri",
    "name": "チョンブリー県",
    "name_translations": { "en": "Chon Buri" },
    "name_kana": "",
    "region_id": "th_east",
    "latitude": 13.3,
    "longitude": 101.3,
    "country_code": "th"
  },
  {
    "id": "th_chanthaburi",
    "name": "Chanthaburi県",
    "name_translations": { "en": "Chanthaburi" },
    "name_kana": "",
    "region_id": "th_east",
    "latitude": 12.85798,
    "longitude": 102.15434,
    "country_code": "th"
  },
  {
    "id": "th_chaiyaphum",
    "name": "Chaiyaphum県",
    "name_translations": { "en": "Chaiyaphum" },
    "name_kana": "",
    "region_id": "th_northeast",
    "latitude": 16.01804,
    "longitude": 101.81249,
    "country_code": "th"
  },
  {
    "id": "th_chai_nat",
    "name": "Chai Nat県",
    "name_translations": { "en": "Chai Nat" },
    "name_kana": "",
    "region_id": "th_central",
    "latitude": 15.11667,
    "longitude": 100.1,
    "country_code": "th"
  },
  {
    "id": "th_chachoengsao",
    "name": "Chachoengsao県",
    "name_translations": { "en": "Chachoengsao" },
    "name_kana": "",
    "region_id": "th_central",
    "latitude": 13.63105,
    "longitude": 101.41666,
    "country_code": "th"
  },
  {
    "id": "th_buri_ram",
    "name": "Buri Ram県",
    "name_translations": { "en": "Buri Ram" },
    "name_kana": "",
    "region_id": "th_northeast",
    "latitude": 14.84823,
    "longitude": 102.99332,
    "country_code": "th"
  },
  {
    "id": "th_ang_thong",
    "name": "Ang Thong県",
    "name_translations": { "en": "Ang Thong" },
    "name_kana": "",
    "region_id": "th_central",
    "latitude": 14.6105,
    "longitude": 100.35845,
    "country_code": "th"
  },
  {
    "id": "th_udon_thani",
    "name": "ウドーンターニー県",
    "name_translations": { "en": "Udon Thani" },
    "name_kana": "",
    "region_id": "th_northeast",
    "latitude": 17.33333,
    "longitude": 102.83333,
    "country_code": "th"
  },
  {
    "id": "th_prachin_buri",
    "name": "Prachin Buri県",
    "name_translations": { "en": "Prachin Buri" },
    "name_kana": "",
    "region_id": "th_east",
    "latitude": 14.08333,
    "longitude": 101.66667,
    "country_code": "th"
  },
  {
    "id": "th_ubon_ratchathani",
    "name": "Ubon Ratchathani県",
    "name_translations": { "en": "Ubon Ratchathani" },
    "name_kana": "",
    "region_id": "th_northeast",
    "latitude": 15.16667,
    "longitude": 105.16667,
    "country_code": "th"
  },
  {
    "id": "th_amnat_charoen",
    "name": "Amnat Charoen県",
    "name_translations": { "en": "Amnat Charoen" },
    "name_kana": "",
    "region_id": "th_northeast",
    "latitude": 15.91667,
    "longitude": 104.75,
    "country_code": "th"
  },
  {
    "id": "th_nong_bua_lamphu",
    "name": "Nong Bua Lamphu県",
    "name_translations": { "en": "Nong Bua Lamphu" },
    "name_kana": "",
    "region_id": "th_northeast",
    "latitude": 17.25,
    "longitude": 102.25,
    "country_code": "th"
  },
  {
    "id": "th_sa_kaeo",
    "name": "Sa Kaeo県",
    "name_translations": { "en": "Sa Kaeo" },
    "name_kana": "",
    "region_id": "th_east",
    "latitude": 13.75,
    "longitude": 102.33333,
    "country_code": "th"
  },
  {
    "id": "th_bueng_kan",
    "name": "Bueng Kan県",
    "name_translations": { "en": "Bueng Kan" },
    "name_kana": "",
    "region_id": "th_northeast",
    "latitude": 18.16228,
    "longitude": 103.75085,
    "country_code": "th"
  }
]
