[
  {
    "id": "tw_new_taipei_city",
    "name": "新北市",
    "name_en": "New Taipei City",
    "name_kana": "",
    "region_id": "tw_north",
    "latitude": 24.94702,
    "longitude": 121.58175,
    "country_code": "tw"
  },
  {
    "id": "tw_yunlin",
    "name": "雲林県",
    "name_en": "Yunlin",
    "name_kana": "",
    "region_id": "tw_central",
    "latitude": 23.70701,
    "longitude": 120.38481,
    "country_code": "tw"
  },
  {
    "id": "tw_taoyuan",
    "name": "桃園市",
    "name_en": "Taoyuan",
    "name_kana": "",
    "region_id": "tw_north",
    "latitude": 24.895,
    "longitude": 121.24611,
    "country_code": "tw"
  },
  {
    "id": "tw_taitung",
    "name": "台東県",
    "name_en": "Taitung",
    "name_kana": "",
    "region_id": "tw_east",
    "latitude": 22.88361,
    "longitude": 121.04833,
    "country_code": "tw"
  },
  {
    "id": "tw_taipei_city",
    "name": "台北市",
    "name_en": "Taipei City",
    "name_kana": "",
    "region_id": "tw_north",
    "latitude": 25.083,
    "longitude": 121.55331,
    "country_code": "tw"
  },
  {
    "id": "tw_tainan",
    "name": "台南市",
    "name_en": "Tainan",
    "name_kana": "",
    "region_id": "tw_south",
    "latitude": 23.00002,
    "longitude": 120.18876,
    "country_code": "tw"
  },
  {
    "id": "tw_pingtung",
    "name": "屏東県",
    "name_en": "Pingtung",
    "name_kana": "",
    "region_id": "tw_south",
    "latitude": 22.49555,
    "longitude": 120.61444,
    "country_code": "tw"
  },
  {
    "id": "tw_penghu_county",
    "name": "澎湖県",
    "name_en": "Penghu County",
    "name_kana": "",
    "region_id": "tw_islands",
    "latitude": 23.57111,
    "longitude": 119.61138,
    "country_code": "tw"
  },
  {
    "id": "tw_nantou",
    "name": "南投県",
    "name_en": "Nantou",
    "name_kana": "",
    "region_id": "tw_central",
    "latitude": 23.83419,
    "longitude": 120.92704,
    "country_code": "tw"
  },
  {
    "id": "tw_miaoli",
    "name": "苗栗県",
    "name_en": "Miaoli",
    "name_kana": "",
    "region_id": "tw_central",
    "latitude": 24.48972,
    "longitude": 120.90638,
    "country_code": "tw"
  },
  {
    "id": "tw_yilan",
    "name": "宜蘭県",
    "name_en": "Yilan",
    "name_kana": "",
    "region_id": "tw_north",
    "latitude": 24.5425,
    "longitude": 121.63361,
    "country_code": "tw"
  },
  {
    "id": "tw_hualien",
    "name": "花蓮県",
    "name_en": "Hualien",
    "name_kana": "",
    "region_id": "tw_east",
    "latitude": 23.78166,
    "longitude": 121.39333,
    "country_code": "tw"
  },
  {
    "id": "tw_hsinchu",
    "name": "新竹市",
    "name_en": "Hsinchu",
    "name_kana": "",
    "region_id": "tw_north",
    "latitude": 24.81472,
    "longitude": 120.96722,
    "country_code": "tw"
  },
  {
    "id": "tw_hsinchu_county",
    "name": "新竹県",
    "name_en": "Hsinchu County",
    "name_kana": "",
    "region_id": "tw_north",
    "latitude": 24.67416,
    "longitude": 121.16111,
    "country_code": "tw"
  },
  {
    "id": "tw_kinmen_county",
    "name": "金門県",
    "name_en": "Kinmen County",
    "name_kana": "",
    "region_id": "tw_islands",
    "latitude": 24.45333,
    "longitude": 118.38861,
    "country_code": "tw"
  },
  {
    "id": "tw_chiayi",
    "name": "嘉義市",
    "name_en": "Chiayi",
    "name_kana": "",
    "region_id": "tw_south",
    "latitude": 23.47722,
    "longitude": 120.44527,
    "country_code": "tw"
  },
  {
    "id": "tw_chiayi_county",
    "name": "嘉義県",
    "name_en": "Chiayi County",
    "name_kana": "",
    "region_id": "tw_south",
    "latitude": 23.46333,
    "longitude": 120.58166,
    "country_code": "tw"
  },
  {
    "id": "tw_changhua",
    "name": "彰化県",
    "name_en": "Changhua",
    "name_kana": "",
    "region_id": "tw_central",
    "latitude": 23.95361,
    "longitude": 120.49083,
    "country_code": "tw"
  },
  {
    "id": "tw_keelung",
    "name": "基隆市",
    "name_en": "Keelung",
    "name_kana": "",
    "region_id": "tw_north",
    "latitude": 25.11486,
    "longitude": 121.68987,
    "country_code": "tw"
  },
  {
    "id": "tw_lienchiang",
    "name": "連江県",
    "name_en": "Lienchiang",
    "name_kana": "",
    "region_id": "tw_islands",
    "latitude": 26.37004,
    "longitude": 120.49545,
    "country_code": "tw"
  },
  {
    "id": "tw_kaohsiung",
    "name": "高雄市",
    "name_en": "Kaohsiung",
    "name_kana": "",
    "region_id": "tw_south",
    "latitude": 22.6533,
    "longitude": 120.33806,
    "country_code": "tw"
  },
  {
    "id": "tw_taichung_city",
    "name": "台中市",
    "name_en": "Taichung City",
    "name_kana": "",
    "region_id": "tw_central",
    "latitude": 24.15472,
    "longitude": 120.67297,
    "country_code": "tw"
  }
]