{
  "fetchedAt": "2025-12-10T12:35:32.194Z",
  "prefecture": {
    "id": "kanagawa",
    "name": "神奈川県"
  },
  "cities": [
    {
      "id": "kanagawa_kawasaki",
      "osmId": 1933981790,
      "prefectureId": "kanagawa",
      "name": "川崎市",
      "nameKana": "かわさきし",
      "nameTranslations": {
        "en": "Kawasaki"
      },
      "type": "市",
      "countryCode": "jp",
      "latitude": 35.5306639,
      "longitude": 139.7037668
    },
    {
      "id": "kanagawa_yokohama",
      "osmId": 1973500311,
      "prefectureId": "kanagawa",
      "name": "横浜市",
      "nameKana": "よこはまし",
      "nameTranslations": {
        "en": "Yokohama"
      },
      "type": "市",
      "countryCode": "jp",
      "latitude": 35.4503381,
      "longitude": 139.6343802
    },
    {
      "id": "kanagawa_miura",
      "osmId": 2115184095,
      "prefectureId": "kanagawa",
      "name": "三浦市",
      "nameKana": null,
      "nameTranslations": {
        "en": "Miura"
      },
      "type": "市",
      "countryCode": "jp",
      "latitude": 35.1441984,
      "longitude": 139.6207589
    },
    {
      "id": "kanagawa_minamiashigara",
      "osmId": 2115184099,
      "prefectureId": "kanagawa",
      "name": "南足柄市",
      "nameKana": "みなみあしがら",
      "nameTranslations": {
        "en": "Minamiashigara"
      },
      "type": "市",
      "countryCode": "jp",
      "latitude": 35.3205738,
      "longitude": 139.0992405
    },
    {
      "id": "kanagawa_atsugi",
      "osmId": 2115184100,
      "prefectureId": "kanagawa",
      "name": "厚木市",
      "nameKana": "あつぎし",
      "nameTranslations": {
        "en": "Atsugi"
      },
      "type": "市",
      "countryCode": "jp",
      "latitude": 35.4429646,
      "longitude": 139.3625125
    },
    {
      "id": "kanagawa_yamato",
      "osmId": 2115184102,
      "prefectureId": "kanagawa",
      "name": "大和市",
      "nameKana": null,
      "nameTranslations": {
        "en": "Yamato"
      },
      "type": "市",
      "countryCode": "jp",
      "latitude": 35.4874895,
      "longitude": 139.4578937
    },
    {
      "id": "kanagawa_odawara",
      "osmId": 2115184105,
      "prefectureId": "kanagawa",
      "name": "小田原市",
      "nameKana": "おだわらし",
      "nameTranslations": {
        "en": "Odawara"
      },
      "type": "市",
      "countryCode": "jp",
      "latitude": 35.2645301,
      "longitude": 139.152246
    },
    {
      "id": "kanagawa_hiratsuka",
      "osmId": 2115184107,
      "prefectureId": "kanagawa",
      "name": "平塚市",
      "nameKana": "ひらつかし",
      "nameTranslations": {
        "en": "Hiratsuka"
      },
      "type": "市",
      "countryCode": "jp",
      "latitude": 35.3350609,
      "longitude": 139.3494345
    },
    {
      "id": "kanagawa_yokosuka",
      "osmId": 2115184112,
      "prefectureId": "kanagawa",
      "name": "横須賀市",
      "nameKana": "よこすかし",
      "nameTranslations": {
        "en": "Yokosuka"
      },
      "type": "市",
      "countryCode": "jp",
      "latitude": 35.2814779,
      "longitude": 139.6719597
    },
    {
      "id": "kanagawa_ayase",
      "osmId": 2115184119,
      "prefectureId": "kanagawa",
      "name": "綾瀬市",
      "nameKana": "あやせし",
      "nameTranslations": {
        "en": "Ayase"
      },
      "type": "市",
      "countryCode": "jp",
      "latitude": 35.4372542,
      "longitude": 139.4267675
    },
    {
      "id": "kanagawa_chigasaki",
      "osmId": 2115184120,
      "prefectureId": "kanagawa",
      "name": "茅ヶ崎市",
      "nameKana": "ちがさきし",
      "nameTranslations": {
        "en": "Chigasaki"
      },
      "type": "市",
      "countryCode": "jp",
      "latitude": 35.329479,
      "longitude": 139.405371
    },
    {
      "id": "kanagawa_fujisawa",
      "osmId": 2115184122,
      "prefectureId": "kanagawa",
      "name": "藤沢市",
      "nameKana": "ふじさわし",
      "nameTranslations": {
        "en": "Fujisawa"
      },
      "type": "市",
      "countryCode": "jp",
      "latitude": 35.3388615,
      "longitude": 139.4909335
    },
    {
      "id": "kanagawa_zushi",
      "osmId": 2115184123,
      "prefectureId": "kanagawa",
      "name": "逗子市",
      "nameKana": null,
      "nameTranslations": {
        "en": "Zushi"
      },
      "type": "市",
      "countryCode": "jp",
      "latitude": 35.2955518,
      "longitude": 139.5804007
    },
    {
      "id": "kanagawa_kamakura",
      "osmId": 2115184125,
      "prefectureId": "kanagawa",
      "name": "鎌倉市",
      "nameKana": "かまくらし",
      "nameTranslations": {
        "en": "Kamakura"
      },
      "type": "市",
      "countryCode": "jp",
      "latitude": 35.3192808,
      "longitude": 139.5469627
    },
    {
      "id": "kanagawa_zama",
      "osmId": 2115186706,
      "prefectureId": "kanagawa",
      "name": "座間市",
      "nameKana": "ざまし",
      "nameTranslations": {
        "en": "Zama"
      },
      "type": "市",
      "countryCode": "jp",
      "latitude": 35.4886835,
      "longitude": 139.407691
    },
    {
      "id": "kanagawa_ebina",
      "osmId": 2115186708,
      "prefectureId": "kanagawa",
      "name": "海老名市",
      "nameKana": null,
      "nameTranslations": {
        "en": "Ebina"
      },
      "type": "市",
      "countryCode": "jp",
      "latitude": 35.4464147,
      "longitude": 139.3906427
    },
    {
      "id": "kanagawa_sagamihara",
      "osmId": 2115186710,
      "prefectureId": "kanagawa",
      "name": "相模原市",
      "nameKana": "さがみはらし",
      "nameTranslations": {
        "en": "Sagamihara"
      },
      "type": "市",
      "countryCode": "jp",
      "latitude": 35.5714621,
      "longitude": 139.3731052
    },
    {
      "id": "kanagawa_hadano",
      "osmId": 7159778006,
      "prefectureId": "kanagawa",
      "name": "秦野市",
      "nameKana": "はだのし",
      "nameTranslations": {
        "en": "Hadano"
      },
      "type": "市",
      "countryCode": "jp",
      "latitude": 35.3747319,
      "longitude": 139.2200144
    },
    {
      "id": "kanagawa_isehara",
      "osmId": 7159778007,
      "prefectureId": "kanagawa",
      "name": "伊勢原市",
      "nameKana": "いせはらし",
      "nameTranslations": {
        "en": "Isehara"
      },
      "type": "市",
      "countryCode": "jp",
      "latitude": 35.4030614,
      "longitude": 139.3150172
    },
    {
      "id": "kanagawa_綾西5-15",
      "osmId": 9791433038,
      "prefectureId": "kanagawa",
      "name": "綾西5-15",
      "nameKana": null,
      "nameTranslations": null,
      "type": null,
      "countryCode": "jp",
      "latitude": 35.4361321,
      "longitude": 139.4099835
    },
    {
      "id": "kanagawa_綾西5-14",
      "osmId": 9791433045,
      "prefectureId": "kanagawa",
      "name": "綾西5-14",
      "nameKana": null,
      "nameTranslations": null,
      "type": null,
      "countryCode": "jp",
      "latitude": 35.4356207,
      "longitude": 139.4097085
    },
    {
      "id": "kanagawa_綾西5-13",
      "osmId": 9791433048,
      "prefectureId": "kanagawa",
      "name": "綾西5-13",
      "nameKana": null,
      "nameTranslations": null,
      "type": null,
      "countryCode": "jp",
      "latitude": 35.4353759,
      "longitude": 139.4096079
    },
    {
      "id": "kanagawa_綾西5-9",
      "osmId": 9791433073,
      "prefectureId": "kanagawa",
      "name": "綾西5-9",
      "nameKana": null,
      "nameTranslations": null,
      "type": null,
      "countryCode": "jp",
      "latitude": 35.4340399,
      "longitude": 139.41051
    },
    {
      "id": "kanagawa_綾西5-10",
      "osmId": 9791433074,
      "prefectureId": "kanagawa",
      "name": "綾西5-10",
      "nameKana": null,
      "nameTranslations": null,
      "type": null,
      "countryCode": "jp",
      "latitude": 35.4342514,
      "longitude": 139.4096363
    },
    {
      "id": "kanagawa_綾西5-11",
      "osmId": 9791433075,
      "prefectureId": "kanagawa",
      "name": "綾西5-11",
      "nameKana": null,
      "nameTranslations": null,
      "type": null,
      "countryCode": "jp",
      "latitude": 35.4348837,
      "longitude": 139.409865
    },
    {
      "id": "kanagawa_綾西5-12",
      "osmId": 9791433076,
      "prefectureId": "kanagawa",
      "name": "綾西5-12",
      "nameKana": null,
      "nameTranslations": null,
      "type": null,
      "countryCode": "jp",
      "latitude": 35.4349596,
      "longitude": 139.4107082
    },
    {
      "id": "kanagawa_綾西5-5",
      "osmId": 9791433077,
      "prefectureId": "kanagawa",
      "name": "綾西5-5",
      "nameKana": null,
      "nameTranslations": null,
      "type": null,
      "countryCode": "jp",
      "latitude": 35.4344756,
      "longitude": 139.4116295
    },
    {
      "id": "kanagawa_綾西5-6",
      "osmId": 9791433078,
      "prefectureId": "kanagawa",
      "name": "綾西5-6",
      "nameKana": null,
      "nameTranslations": null,
      "type": null,
      "countryCode": "jp",
      "latitude": 35.4342438,
      "longitude": 139.4115993
    },
    {
      "id": "kanagawa_綾西5-8",
      "osmId": 9791433079,
      "prefectureId": "kanagawa",
      "name": "綾西5-8",
      "nameKana": null,
      "nameTranslations": null,
      "type": null,
      "countryCode": "jp",
      "latitude": 35.4337228,
      "longitude": 139.4115414
    },
    {
      "id": "kanagawa_綾西5-7",
      "osmId": 9791433080,
      "prefectureId": "kanagawa",
      "name": "綾西5-7",
      "nameKana": null,
      "nameTranslations": null,
      "type": null,
      "countryCode": "jp",
      "latitude": 35.4339731,
      "longitude": 139.4116119
    },
    {
      "id": "kanagawa_綾西5-1",
      "osmId": 9807515505,
      "prefectureId": "kanagawa",
      "name": "綾西5-1",
      "nameKana": null,
      "nameTranslations": null,
      "type": null,
      "countryCode": "jp",
      "latitude": 35.4337106,
      "longitude": 139.4125758
    },
    {
      "id": "kanagawa_綾西5-2",
      "osmId": 9807515506,
      "prefectureId": "kanagawa",
      "name": "綾西5-2",
      "nameKana": null,
      "nameTranslations": null,
      "type": null,
      "countryCode": "jp",
      "latitude": 35.4339543,
      "longitude": 139.4125704
    },
    {
      "id": "kanagawa_綾西5-3",
      "osmId": 9807515507,
      "prefectureId": "kanagawa",
      "name": "綾西5-3",
      "nameKana": null,
      "nameTranslations": null,
      "type": null,
      "countryCode": "jp",
      "latitude": 35.4342712,
      "longitude": 139.4124055
    },
    {
      "id": "kanagawa_4",
      "osmId": 9807515516,
      "prefectureId": "kanagawa",
      "name": "4",
      "nameKana": null,
      "nameTranslations": null,
      "type": null,
      "countryCode": "jp",
      "latitude": 35.4347614,
      "longitude": 139.4116045
    },
    {
      "id": "kanagawa_綾西4-19",
      "osmId": 9810092674,
      "prefectureId": "kanagawa",
      "name": "綾西4-19",
      "nameKana": null,
      "nameTranslations": null,
      "type": null,
      "countryCode": "jp",
      "latitude": 35.4322462,
      "longitude": 139.4102531
    },
    {
      "id": "kanagawa_綾西4-18",
      "osmId": 9810092675,
      "prefectureId": "kanagawa",
      "name": "綾西4-18",
      "nameKana": null,
      "nameTranslations": null,
      "type": null,
      "countryCode": "jp",
      "latitude": 35.4328638,
      "longitude": 139.41016
    },
    {
      "id": "kanagawa_綾西4-17",
      "osmId": 9810092676,
      "prefectureId": "kanagawa",
      "name": "綾西4-17",
      "nameKana": null,
      "nameTranslations": null,
      "type": null,
      "countryCode": "jp",
      "latitude": 35.4330966,
      "longitude": 139.4102228
    },
    {
      "id": "kanagawa_綾西4-16",
      "osmId": 9810092677,
      "prefectureId": "kanagawa",
      "name": "綾西4-16",
      "nameKana": null,
      "nameTranslations": null,
      "type": null,
      "countryCode": "jp",
      "latitude": 35.4333613,
      "longitude": 139.4102488
    },
    {
      "id": "kanagawa_綾西4-15",
      "osmId": 9810092678,
      "prefectureId": "kanagawa",
      "name": "綾西4-15",
      "nameKana": null,
      "nameTranslations": null,
      "type": null,
      "countryCode": "jp",
      "latitude": 35.4336471,
      "longitude": 139.4101882
    },
    {
      "id": "kanagawa_綾西4-14",
      "osmId": 9810092679,
      "prefectureId": "kanagawa",
      "name": "綾西4-14",
      "nameKana": null,
      "nameTranslations": null,
      "type": null,
      "countryCode": "jp",
      "latitude": 35.4333807,
      "longitude": 139.4115264
    },
    {
      "id": "kanagawa_綾西4-13",
      "osmId": 9810092680,
      "prefectureId": "kanagawa",
      "name": "綾西4-13",
      "nameKana": null,
      "nameTranslations": null,
      "type": null,
      "countryCode": "jp",
      "latitude": 35.4331231,
      "longitude": 139.4115047
    },
    {
      "id": "kanagawa_綾西4-12",
      "osmId": 9810092681,
      "prefectureId": "kanagawa",
      "name": "綾西4-12",
      "nameKana": null,
      "nameTranslations": null,
      "type": null,
      "countryCode": "jp",
      "latitude": 35.4328549,
      "longitude": 139.4115004
    },
    {
      "id": "kanagawa_綾西4-11",
      "osmId": 9810092682,
      "prefectureId": "kanagawa",
      "name": "綾西4-11",
      "nameKana": null,
      "nameTranslations": null,
      "type": null,
      "countryCode": "jp",
      "latitude": 35.4326203,
      "longitude": 139.4113423
    },
    {
      "id": "kanagawa_綾西4-10",
      "osmId": 9810092683,
      "prefectureId": "kanagawa",
      "name": "綾西4-10",
      "nameKana": null,
      "nameTranslations": null,
      "type": null,
      "countryCode": "jp",
      "latitude": 35.4323556,
      "longitude": 139.4113748
    },
    {
      "id": "kanagawa_綾西4-9",
      "osmId": 9810092684,
      "prefectureId": "kanagawa",
      "name": "綾西4-9",
      "nameKana": null,
      "nameTranslations": null,
      "type": null,
      "countryCode": "jp",
      "latitude": 35.4320962,
      "longitude": 139.4113878
    },
    {
      "id": "kanagawa_綾西4-8",
      "osmId": 9810092685,
      "prefectureId": "kanagawa",
      "name": "綾西4-8",
      "nameKana": null,
      "nameTranslations": null,
      "type": null,
      "countryCode": "jp",
      "latitude": 35.4318298,
      "longitude": 139.4113055
    },
    {
      "id": "kanagawa_綾西4-7",
      "osmId": 9810092686,
      "prefectureId": "kanagawa",
      "name": "綾西4-7",
      "nameKana": null,
      "nameTranslations": null,
      "type": null,
      "countryCode": "jp",
      "latitude": 35.4318069,
      "longitude": 139.4127931
    },
    {
      "id": "kanagawa_綾西4-6",
      "osmId": 9810092687,
      "prefectureId": "kanagawa",
      "name": "綾西4-6",
      "nameKana": null,
      "nameTranslations": null,
      "type": null,
      "countryCode": "jp",
      "latitude": 35.4320768,
      "longitude": 139.412778
    },
    {
      "id": "kanagawa_綾西4-5",
      "osmId": 9810092688,
      "prefectureId": "kanagawa",
      "name": "綾西4-5",
      "nameKana": null,
      "nameTranslations": null,
      "type": null,
      "countryCode": "jp",
      "latitude": 35.4323291,
      "longitude": 139.4127563
    },
    {
      "id": "kanagawa_綾西4-4",
      "osmId": 9810092689,
      "prefectureId": "kanagawa",
      "name": "綾西4-4",
      "nameKana": null,
      "nameTranslations": null,
      "type": null,
      "countryCode": "jp",
      "latitude": 35.4325956,
      "longitude": 139.4127845
    },
    {
      "id": "kanagawa_綾西4-3",
      "osmId": 9810092690,
      "prefectureId": "kanagawa",
      "name": "綾西4-3",
      "nameKana": null,
      "nameTranslations": null,
      "type": null,
      "countryCode": "jp",
      "latitude": 35.4328426,
      "longitude": 139.4127455
    },
    {
      "id": "kanagawa_綾西4-2",
      "osmId": 9810092691,
      "prefectureId": "kanagawa",
      "name": "綾西4-2",
      "nameKana": null,
      "nameTranslations": null,
      "type": null,
      "countryCode": "jp",
      "latitude": 35.4331055,
      "longitude": 139.4126979
    },
    {
      "id": "kanagawa_綾西4-1",
      "osmId": 9810092692,
      "prefectureId": "kanagawa",
      "name": "綾西4-1",
      "nameKana": null,
      "nameTranslations": null,
      "type": null,
      "countryCode": "jp",
      "latitude": 35.4333595,
      "longitude": 139.4126632
    },
    {
      "id": "kanagawa_綾西3-17",
      "osmId": 9810149392,
      "prefectureId": "kanagawa",
      "name": "綾西3-17",
      "nameKana": null,
      "nameTranslations": null,
      "type": null,
      "countryCode": "jp",
      "latitude": 35.430273,
      "longitude": 139.4103726
    },
    {
      "id": "kanagawa_綾西3-16",
      "osmId": 9810149393,
      "prefectureId": "kanagawa",
      "name": "綾西3-16",
      "nameKana": null,
      "nameTranslations": null,
      "type": null,
      "countryCode": "jp",
      "latitude": 35.4295537,
      "longitude": 139.4107586
    },
    {
      "id": "kanagawa_綾西3-15",
      "osmId": 9810149394,
      "prefectureId": "kanagawa",
      "name": "綾西3-15",
      "nameKana": null,
      "nameTranslations": null,
      "type": null,
      "countryCode": "jp",
      "latitude": 35.429424,
      "longitude": 139.41113
    },
    {
      "id": "kanagawa_綾西3-14",
      "osmId": 9810149395,
      "prefectureId": "kanagawa",
      "name": "綾西3-14",
      "nameKana": null,
      "nameTranslations": null,
      "type": null,
      "countryCode": "jp",
      "latitude": 35.4293709,
      "longitude": 139.4114725
    },
    {
      "id": "kanagawa_綾西3-13",
      "osmId": 9810149396,
      "prefectureId": "kanagawa",
      "name": "綾西3-13",
      "nameKana": null,
      "nameTranslations": null,
      "type": null,
      "countryCode": "jp",
      "latitude": 35.4298603,
      "longitude": 139.4113229
    },
    {
      "id": "kanagawa_綾西3-12",
      "osmId": 9810149397,
      "prefectureId": "kanagawa",
      "name": "綾西3-12",
      "nameKana": null,
      "nameTranslations": null,
      "type": null,
      "countryCode": "jp",
      "latitude": 35.4299782,
      "longitude": 139.4123938
    },
    {
      "id": "kanagawa_綾西3-11",
      "osmId": 9810149398,
      "prefectureId": "kanagawa",
      "name": "綾西3-11",
      "nameKana": null,
      "nameTranslations": null,
      "type": null,
      "countryCode": "jp",
      "latitude": 35.4307014,
      "longitude": 139.4124348
    },
    {
      "id": "kanagawa_綾西3-10",
      "osmId": 9810149399,
      "prefectureId": "kanagawa",
      "name": "綾西3-10",
      "nameKana": null,
      "nameTranslations": null,
      "type": null,
      "countryCode": "jp",
      "latitude": 35.4305736,
      "longitude": 139.4121816
    },
    {
      "id": "kanagawa_綾西3-9",
      "osmId": 9810149400,
      "prefectureId": "kanagawa",
      "name": "綾西3-9",
      "nameKana": null,
      "nameTranslations": null,
      "type": null,
      "countryCode": "jp",
      "latitude": 35.4305776,
      "longitude": 139.4118077
    },
    {
      "id": "kanagawa_綾西3-8",
      "osmId": 9810149401,
      "prefectureId": "kanagawa",
      "name": "綾西3-8",
      "nameKana": null,
      "nameTranslations": null,
      "type": null,
      "countryCode": "jp",
      "latitude": 35.4305678,
      "longitude": 139.4114266
    },
    {
      "id": "kanagawa_綾西3-7",
      "osmId": 9810149402,
      "prefectureId": "kanagawa",
      "name": "綾西3-7",
      "nameKana": null,
      "nameTranslations": null,
      "type": null,
      "countryCode": "jp",
      "latitude": 35.4306326,
      "longitude": 139.4111059
    },
    {
      "id": "kanagawa_綾西3-6",
      "osmId": 9810149403,
      "prefectureId": "kanagawa",
      "name": "綾西3-6",
      "nameKana": null,
      "nameTranslations": null,
      "type": null,
      "countryCode": "jp",
      "latitude": 35.4306346,
      "longitude": 139.41072
    },
    {
      "id": "kanagawa_綾西3-5",
      "osmId": 9810149404,
      "prefectureId": "kanagawa",
      "name": "綾西3-5",
      "nameKana": null,
      "nameTranslations": null,
      "type": null,
      "countryCode": "jp",
      "latitude": 35.4316034,
      "longitude": 139.410199
    },
    {
      "id": "kanagawa_綾西3-4",
      "osmId": 9810149405,
      "prefectureId": "kanagawa",
      "name": "綾西3-4",
      "nameKana": null,
      "nameTranslations": null,
      "type": null,
      "countryCode": "jp",
      "latitude": 35.4315563,
      "longitude": 139.4112795
    },
    {
      "id": "kanagawa_綾西3-3",
      "osmId": 9810149406,
      "prefectureId": "kanagawa",
      "name": "綾西3-3",
      "nameKana": null,
      "nameTranslations": null,
      "type": null,
      "countryCode": "jp",
      "latitude": 35.431289,
      "longitude": 139.4112265
    },
    {
      "id": "kanagawa_綾西3-2",
      "osmId": 9810149407,
      "prefectureId": "kanagawa",
      "name": "綾西3-2",
      "nameKana": null,
      "nameTranslations": null,
      "type": null,
      "countryCode": "jp",
      "latitude": 35.4312517,
      "longitude": 139.4126085
    },
    {
      "id": "kanagawa_綾西3-1",
      "osmId": 9810149408,
      "prefectureId": "kanagawa",
      "name": "綾西3-1",
      "nameKana": null,
      "nameTranslations": null,
      "type": null,
      "countryCode": "jp",
      "latitude": 35.4315071,
      "longitude": 139.4126181
    },
    {
      "id": "kanagawa_綾西2-14",
      "osmId": 9810194230,
      "prefectureId": "kanagawa",
      "name": "綾西2-14",
      "nameKana": null,
      "nameTranslations": null,
      "type": null,
      "countryCode": "jp",
      "latitude": 35.4311705,
      "longitude": 139.4133339
    },
    {
      "id": "kanagawa_綾西2-13",
      "osmId": 9810194231,
      "prefectureId": "kanagawa",
      "name": "綾西2-13",
      "nameKana": null,
      "nameTranslations": null,
      "type": null,
      "countryCode": "jp",
      "latitude": 35.431218,
      "longitude": 139.4136837
    },
    {
      "id": "kanagawa_綾西2-12",
      "osmId": 9810194232,
      "prefectureId": "kanagawa",
      "name": "綾西2-12",
      "nameKana": null,
      "nameTranslations": null,
      "type": null,
      "countryCode": "jp",
      "latitude": 35.4315067,
      "longitude": 139.4138833
    },
    {
      "id": "kanagawa_綾西2-11",
      "osmId": 9810194233,
      "prefectureId": "kanagawa",
      "name": "綾西2-11",
      "nameKana": null,
      "nameTranslations": null,
      "type": null,
      "countryCode": "jp",
      "latitude": 35.4313532,
      "longitude": 139.4156594
    },
    {
      "id": "kanagawa_綾西2-10",
      "osmId": 9810194234,
      "prefectureId": "kanagawa",
      "name": "綾西2-10",
      "nameKana": null,
      "nameTranslations": null,
      "type": null,
      "countryCode": "jp",
      "latitude": 35.4314172,
      "longitude": 139.4160877
    },
    {
      "id": "kanagawa_綾西2-9",
      "osmId": 9810194235,
      "prefectureId": "kanagawa",
      "name": "綾西2-9",
      "nameKana": null,
      "nameTranslations": null,
      "type": null,
      "countryCode": "jp",
      "latitude": 35.4314574,
      "longitude": 139.4164106
    },
    {
      "id": "kanagawa_綾西2-8",
      "osmId": 9810194236,
      "prefectureId": "kanagawa",
      "name": "綾西2-8",
      "nameKana": null,
      "nameTranslations": null,
      "type": null,
      "countryCode": "jp",
      "latitude": 35.4315597,
      "longitude": 139.4168501
    },
    {
      "id": "kanagawa_綾西2-7",
      "osmId": 9810194237,
      "prefectureId": "kanagawa",
      "name": "綾西2-7",
      "nameKana": null,
      "nameTranslations": null,
      "type": null,
      "countryCode": "jp",
      "latitude": 35.431609,
      "longitude": 139.4172044
    },
    {
      "id": "kanagawa_綾西2-6",
      "osmId": 9810194238,
      "prefectureId": "kanagawa",
      "name": "綾西2-6",
      "nameKana": null,
      "nameTranslations": null,
      "type": null,
      "countryCode": "jp",
      "latitude": 35.4316675,
      "longitude": 139.417561
    },
    {
      "id": "kanagawa_綾西2-5",
      "osmId": 9810194239,
      "prefectureId": "kanagawa",
      "name": "綾西2-5",
      "nameKana": null,
      "nameTranslations": null,
      "type": null,
      "countryCode": "jp",
      "latitude": 35.4305957,
      "longitude": 139.4161344
    },
    {
      "id": "kanagawa_綾西2-4",
      "osmId": 9810194240,
      "prefectureId": "kanagawa",
      "name": "綾西2-4",
      "nameKana": null,
      "nameTranslations": null,
      "type": null,
      "countryCode": "jp",
      "latitude": 35.4307192,
      "longitude": 139.4172583
    },
    {
      "id": "kanagawa_綾西2-3",
      "osmId": 9810194241,
      "prefectureId": "kanagawa",
      "name": "綾西2-3",
      "nameKana": null,
      "nameTranslations": null,
      "type": null,
      "countryCode": "jp",
      "latitude": 35.4304451,
      "longitude": 139.4171327
    },
    {
      "id": "kanagawa_綾西2-2",
      "osmId": 9810194242,
      "prefectureId": "kanagawa",
      "name": "綾西2-2",
      "nameKana": null,
      "nameTranslations": null,
      "type": null,
      "countryCode": "jp",
      "latitude": 35.4304963,
      "longitude": 139.4176619
    },
    {
      "id": "kanagawa_綾西2-1",
      "osmId": 9810194243,
      "prefectureId": "kanagawa",
      "name": "綾西2-1",
      "nameKana": null,
      "nameTranslations": null,
      "type": null,
      "countryCode": "jp",
      "latitude": 35.4313002,
      "longitude": 139.4179691
    }
  ],
  "machi": [
    {
      "id": "kanagawa_unknown_yoshioka",
      "osmId": 1764839123,
      "name": "吉岡",
      "nameKana": "よしおか",
      "nameTranslations": {
        "en": "Yoshioka"
      },
      "latitude": 35.4209862,
      "longitude": 139.4147443,
      "lines": null,
      "prefectureId": "kanagawa",
      "cityId": null,
      "countryCode": "jp",
      "prefectureName": "神奈川県",
      "prefectureNameTranslations": null,
      "cityName": null,
      "cityNameTranslations": null,
      "placeType": "quarter"
    },
    {
      "id": "kanagawa_unknown_鹿島田",
      "osmId": 2466117352,
      "name": "鹿島田",
      "nameKana": null,
      "nameTranslations": null,
      "latitude": 35.5556465,
      "longitude": 139.6710082,
      "lines": null,
      "prefectureId": "kanagawa",
      "cityId": null,
      "countryCode": "jp",
      "prefectureName": "神奈川県",
      "prefectureNameTranslations": null,
      "cityName": null,
      "cityNameTranslations": null,
      "placeType": "quarter"
    },
    {
      "id": "kanagawa_unknown_iriya_higashi",
      "osmId": 2772678447,
      "name": "入谷東",
      "nameKana": "いりやひがし",
      "nameTranslations": {
        "en": "Iriya-Higashi"
      },
      "latitude": 35.4819166,
      "longitude": 139.405033,
      "lines": null,
      "prefectureId": "kanagawa",
      "cityId": null,
      "countryCode": "jp",
      "prefectureName": "神奈川県",
      "prefectureNameTranslations": null,
      "cityName": null,
      "cityNameTranslations": null,
      "placeType": "quarter"
    },
    {
      "id": "kanagawa_unknown_寺尾",
      "osmId": 2786794159,
      "name": "寺尾",
      "nameKana": null,
      "nameTranslations": null,
      "latitude": 35.452149,
      "longitude": 139.425105,
      "lines": null,
      "prefectureId": "kanagawa",
      "cityId": null,
      "countryCode": "jp",
      "prefectureName": "神奈川県",
      "prefectureNameTranslations": null,
      "cityName": null,
      "cityNameTranslations": null,
      "placeType": "quarter"
    },
    {
      "id": "kanagawa_unknown_kamig",
      "osmId": 2839095903,
      "name": "上郷",
      "nameKana": "かみごう",
      "nameTranslations": {
        "en": "Kamigō"
      },
      "latitude": 35.4555919,
      "longitude": 139.3847149,
      "lines": null,
      "prefectureId": "kanagawa",
      "cityId": null,
      "countryCode": "jp",
      "prefectureName": "神奈川県",
      "prefectureNameTranslations": null,
      "cityName": null,
      "cityNameTranslations": null,
      "placeType": "quarter"
    },
    {
      "id": "kanagawa_unknown_imazato",
      "osmId": 2839095928,
      "name": "今里",
      "nameKana": "いまざと",
      "nameTranslations": {
        "en": "Imazato"
      },
      "latitude": 35.4287611,
      "longitude": 139.3883639,
      "lines": null,
      "prefectureId": "kanagawa",
      "cityId": null,
      "countryCode": "jp",
      "prefectureName": "神奈川県",
      "prefectureNameTranslations": null,
      "cityName": null,
      "cityNameTranslations": null,
      "placeType": "quarter"
    },
    {
      "id": "kanagawa_unknown_kashiwagaya",
      "osmId": 2839095976,
      "name": "柏ケ谷",
      "nameKana": "かしわがや",
      "nameTranslations": {
        "en": "Kashiwagaya"
      },
      "latitude": 35.462821,
      "longitude": 139.412084,
      "lines": null,
      "prefectureId": "kanagawa",
      "cityId": null,
      "countryCode": "jp",
      "prefectureName": "神奈川県",
      "prefectureNameTranslations": null,
      "cityName": null,
      "cityNameTranslations": null,
      "placeType": "quarter"
    },
    {
      "id": "kanagawa_unknown_kawaraguchi",
      "osmId": 2839095977,
      "name": "河原口",
      "nameKana": "かわらぐち",
      "nameTranslations": {
        "en": "Kawaraguchi"
      },
      "latitude": 35.447922,
      "longitude": 139.374916,
      "lines": null,
      "prefectureId": "kanagawa",
      "cityId": null,
      "countryCode": "jp",
      "prefectureName": "神奈川県",
      "prefectureNameTranslations": null,
      "cityName": null,
      "cityNameTranslations": null,
      "placeType": "quarter"
    },
    {
      "id": "kanagawa_unknown_shake",
      "osmId": 2839095979,
      "name": "社家",
      "nameKana": "しゃけ",
      "nameTranslations": {
        "en": "Shake"
      },
      "latitude": 35.4209763,
      "longitude": 139.3798602,
      "lines": null,
      "prefectureId": "kanagawa",
      "cityId": null,
      "countryCode": "jp",
      "prefectureName": "神奈川県",
      "prefectureNameTranslations": null,
      "cityName": null,
      "cityNameTranslations": null,
      "placeType": "quarter"
    },
    {
      "id": "kanagawa_unknown_minami_maioka",
      "osmId": 2849135213,
      "name": "南舞岡",
      "nameKana": null,
      "nameTranslations": {
        "en": "Minami-Maioka"
      },
      "latitude": 35.3936809,
      "longitude": 139.5558855,
      "lines": null,
      "prefectureId": "kanagawa",
      "cityId": null,
      "countryCode": "jp",
      "prefectureName": "神奈川県",
      "prefectureNameTranslations": null,
      "cityName": null,
      "cityNameTranslations": null,
      "placeType": "quarter"
    },
    {
      "id": "kanagawa_unknown_gumizawa",
      "osmId": 2849135214,
      "name": "汲沢",
      "nameKana": "ぐみざわ",
      "nameTranslations": {
        "en": "Gumizawa"
      },
      "latitude": 35.4004486,
      "longitude": 139.5150511,
      "lines": null,
      "prefectureId": "kanagawa",
      "cityId": null,
      "countryCode": "jp",
      "prefectureName": "神奈川県",
      "prefectureNameTranslations": null,
      "cityName": null,
      "cityNameTranslations": null,
      "placeType": "quarter"
    },
    {
      "id": "kanagawa_unknown_harajuku",
      "osmId": 2857106987,
      "name": "原宿",
      "nameKana": "はらじゅく",
      "nameTranslations": {
        "en": "Harajuku"
      },
      "latitude": 35.3768859,
      "longitude": 139.5075462,
      "lines": null,
      "prefectureId": "kanagawa",
      "cityId": null,
      "countryCode": "jp",
      "prefectureName": "神奈川県",
      "prefectureNameTranslations": null,
      "cityName": null,
      "cityNameTranslations": null,
      "placeType": "quarter"
    },
    {
      "id": "kanagawa_unknown_hirado",
      "osmId": 2865614100,
      "name": "平戸",
      "nameKana": "ひらど",
      "nameTranslations": {
        "en": "Hirado"
      },
      "latitude": 35.4299878,
      "longitude": 139.5688669,
      "lines": null,
      "prefectureId": "kanagawa",
      "cityId": null,
      "countryCode": "jp",
      "prefectureName": "神奈川県",
      "prefectureNameTranslations": null,
      "cityName": null,
      "cityNameTranslations": null,
      "placeType": "quarter"
    },
    {
      "id": "kanagawa_unknown_nakataminami",
      "osmId": 2903626178,
      "name": "中田南",
      "nameKana": "なかたみなみ",
      "nameTranslations": {
        "en": "Nakataminami"
      },
      "latitude": 35.4062993,
      "longitude": 139.5085347,
      "lines": null,
      "prefectureId": "kanagawa",
      "cityId": null,
      "countryCode": "jp",
      "prefectureName": "神奈川県",
      "prefectureNameTranslations": null,
      "cityName": null,
      "cityNameTranslations": null,
      "placeType": "quarter"
    },
    {
      "id": "kanagawa_unknown_nakatahigashi",
      "osmId": 2903651845,
      "name": "中田東",
      "nameKana": "なかたひがし",
      "nameTranslations": {
        "en": "Nakatahigashi"
      },
      "latitude": 35.4129097,
      "longitude": 139.5143214,
      "lines": null,
      "prefectureId": "kanagawa",
      "cityId": null,
      "countryCode": "jp",
      "prefectureName": "神奈川県",
      "prefectureNameTranslations": null,
      "cityName": null,
      "cityNameTranslations": null,
      "placeType": "quarter"
    },
    {
      "id": "kanagawa_unknown_shirayuri",
      "osmId": 2903700670,
      "name": "白百合",
      "nameKana": "しらゆり",
      "nameTranslations": {
        "en": "Shirayuri"
      },
      "latitude": 35.4152229,
      "longitude": 139.5180847,
      "lines": null,
      "prefectureId": "kanagawa",
      "cityId": null,
      "countryCode": "jp",
      "prefectureName": "神奈川県",
      "prefectureNameTranslations": null,
      "cityName": null,
      "cityNameTranslations": null,
      "placeType": "quarter"
    },
    {
      "id": "kanagawa_unknown_ryouke",
      "osmId": 2903746834,
      "name": "領家",
      "nameKana": "りょうけ",
      "nameTranslations": {
        "en": "Ryouke"
      },
      "latitude": 35.41867,
      "longitude": 139.5222936,
      "lines": null,
      "prefectureId": "kanagawa",
      "cityId": null,
      "countryCode": "jp",
      "prefectureName": "神奈川県",
      "prefectureNameTranslations": null,
      "cityName": null,
      "cityNameTranslations": null,
      "placeType": "quarter"
    },
    {
      "id": "kanagawa_unknown_shimoizumi",
      "osmId": 2915268579,
      "name": "下和泉",
      "nameKana": "しもいずみ",
      "nameTranslations": {
        "en": "Shimoizumi"
      },
      "latitude": 35.3954465,
      "longitude": 139.4925944,
      "lines": null,
      "prefectureId": "kanagawa",
      "cityId": null,
      "countryCode": "jp",
      "prefectureName": "神奈川県",
      "prefectureNameTranslations": null,
      "cityName": null,
      "cityNameTranslations": null,
      "placeType": "quarter"
    },
    {
      "id": "kanagawa_unknown_nakata_nishi",
      "osmId": 2924166650,
      "name": "中田西",
      "nameKana": "なかたにし",
      "nameTranslations": {
        "en": "Nakata-nishi"
      },
      "latitude": 35.4066856,
      "longitude": 139.5036697,
      "lines": null,
      "prefectureId": "kanagawa",
      "cityId": null,
      "countryCode": "jp",
      "prefectureName": "神奈川県",
      "prefectureNameTranslations": null,
      "cityName": null,
      "cityNameTranslations": null,
      "placeType": "quarter"
    },
    {
      "id": "kanagawa_unknown_nakatakita",
      "osmId": 2926775840,
      "name": "中田北",
      "nameKana": "なかたきた",
      "nameTranslations": {
        "en": "Nakatakita"
      },
      "latitude": 35.4164617,
      "longitude": 139.5074112,
      "lines": null,
      "prefectureId": "kanagawa",
      "cityId": null,
      "countryCode": "jp",
      "prefectureName": "神奈川県",
      "prefectureNameTranslations": null,
      "cityName": null,
      "cityNameTranslations": null,
      "placeType": "quarter"
    },
    {
      "id": "kanagawa_unknown_kasama",
      "osmId": 2928702309,
      "name": "笠間",
      "nameKana": "かさま",
      "nameTranslations": {
        "en": "Kasama"
      },
      "latitude": 35.3605947,
      "longitude": 139.5358696,
      "lines": null,
      "prefectureId": "kanagawa",
      "cityId": null,
      "countryCode": "jp",
      "prefectureName": "神奈川県",
      "prefectureNameTranslations": null,
      "cityName": null,
      "cityNameTranslations": null,
      "placeType": "quarter"
    },
    {
      "id": "kanagawa_unknown_hongodai",
      "osmId": 2932032061,
      "name": "本郷台",
      "nameKana": "ほんごうだい",
      "nameTranslations": {
        "en": "Hongodai"
      },
      "latitude": 35.3760147,
      "longitude": 139.5473621,
      "lines": null,
      "prefectureId": "kanagawa",
      "cityId": null,
      "countryCode": "jp",
      "prefectureName": "神奈川県",
      "prefectureNameTranslations": null,
      "cityName": null,
      "cityNameTranslations": null,
      "placeType": "quarter"
    },
    {
      "id": "kanagawa_unknown_koyamadai",
      "osmId": 2935025117,
      "name": "小山台",
      "nameKana": "こやまだい",
      "nameTranslations": {
        "en": "Koyamadai"
      },
      "latitude": 35.3778245,
      "longitude": 139.5571073,
      "lines": null,
      "prefectureId": "kanagawa",
      "cityId": null,
      "countryCode": "jp",
      "prefectureName": "神奈川県",
      "prefectureNameTranslations": null,
      "cityName": null,
      "cityNameTranslations": null,
      "placeType": "quarter"
    },
    {
      "id": "kanagawa_unknown_nishigaoka",
      "osmId": 2935185506,
      "name": "西が岡",
      "nameKana": "にしがおか",
      "nameTranslations": {
        "en": "Nishigaoka"
      },
      "latitude": 35.4228042,
      "longitude": 139.5140719,
      "lines": null,
      "prefectureId": "kanagawa",
      "cityId": null,
      "countryCode": "jp",
      "prefectureName": "神奈川県",
      "prefectureNameTranslations": null,
      "cityName": null,
      "cityNameTranslations": null,
      "placeType": "quarter"
    },
    {
      "id": "kanagawa_unknown_ryokuen",
      "osmId": 2938431169,
      "name": "緑園",
      "nameKana": "りょくえん",
      "nameTranslations": {
        "en": "Ryokuen"
      },
      "latitude": 35.4414879,
      "longitude": 139.5246108,
      "lines": null,
      "prefectureId": "kanagawa",
      "cityId": null,
      "countryCode": "jp",
      "prefectureName": "神奈川県",
      "prefectureNameTranslations": null,
      "cityName": null,
      "cityNameTranslations": null,
      "placeType": "quarter"
    },
    {
      "id": "kanagawa_unknown_higiriyama",
      "osmId": 2950103667,
      "name": "日限山",
      "nameKana": "ひぎりやま",
      "nameTranslations": {
        "en": "Higiriyama"
      },
      "latitude": 35.3949506,
      "longitude": 139.5600567,
      "lines": null,
      "prefectureId": "kanagawa",
      "cityId": null,
      "countryCode": "jp",
      "prefectureName": "神奈川県",
      "prefectureNameTranslations": null,
      "cityName": null,
      "cityNameTranslations": null,
      "placeType": "quarter"
    },
    {
      "id": "kanagawa_unknown_shimonagaya",
      "osmId": 2950155684,
      "name": "下永谷",
      "nameKana": "しもながや",
      "nameTranslations": {
        "en": "Shimonagaya"
      },
      "latitude": 35.4109462,
      "longitude": 139.5591439,
      "lines": null,
      "prefectureId": "kanagawa",
      "cityId": null,
      "countryCode": "jp",
      "prefectureName": "神奈川県",
      "prefectureNameTranslations": null,
      "cityName": null,
      "cityNameTranslations": null,
      "placeType": "quarter"
    },
    {
      "id": "kanagawa_unknown_serigaya",
      "osmId": 2950422994,
      "name": "芹が谷",
      "nameKana": "せりがや",
      "nameTranslations": {
        "en": "Serigaya"
      },
      "latitude": 35.4158154,
      "longitude": 139.5712914,
      "lines": null,
      "prefectureId": "kanagawa",
      "cityId": null,
      "countryCode": "jp",
      "prefectureName": "神奈川県",
      "prefectureNameTranslations": null,
      "cityName": null,
      "cityNameTranslations": null,
      "placeType": "quarter"
    },
    {
      "id": "kanagawa_unknown_mutsukawa",
      "osmId": 2951627464,
      "name": "六ツ川",
      "nameKana": "むつかわ",
      "nameTranslations": {
        "en": "Mutsukawa"
      },
      "latitude": 35.4253611,
      "longitude": 139.5823105,
      "lines": null,
      "prefectureId": "kanagawa",
      "cityId": null,
      "countryCode": "jp",
      "prefectureName": "神奈川県",
      "prefectureNameTranslations": null,
      "cityName": null,
      "cityNameTranslations": null,
      "placeType": "quarter"
    },
    {
      "id": "kanagawa_unknown_akuwa_minami",
      "osmId": 2960584474,
      "name": "阿久和南",
      "nameKana": null,
      "nameTranslations": {
        "en": "Akuwa-Minami"
      },
      "latitude": 35.4419358,
      "longitude": 139.5043491,
      "lines": null,
      "prefectureId": "kanagawa",
      "cityId": null,
      "countryCode": "jp",
      "prefectureName": "神奈川県",
      "prefectureNameTranslations": null,
      "cityName": null,
      "cityNameTranslations": null,
      "placeType": "quarter"
    },
    {
      "id": "kanagawa_unknown_maruyamadai",
      "osmId": 2980381938,
      "name": "丸山台",
      "nameKana": "まるやまだい",
      "nameTranslations": {
        "en": "Maruyamadai"
      },
      "latitude": 35.3976773,
      "longitude": 139.5681115,
      "lines": null,
      "prefectureId": "kanagawa",
      "cityId": null,
      "countryCode": "jp",
      "prefectureName": "神奈川県",
      "prefectureNameTranslations": null,
      "cityName": null,
      "cityNameTranslations": null,
      "placeType": "quarter"
    },
    {
      "id": "kanagawa_unknown_kaminagaya",
      "osmId": 2981949630,
      "name": "上永谷",
      "nameKana": "かみながや",
      "nameTranslations": {
        "en": "Kaminagaya"
      },
      "latitude": 35.4053408,
      "longitude": 139.5713447,
      "lines": null,
      "prefectureId": "kanagawa",
      "cityId": null,
      "countryCode": "jp",
      "prefectureName": "神奈川県",
      "prefectureNameTranslations": null,
      "cityName": null,
      "cityNameTranslations": null,
      "placeType": "quarter"
    },
    {
      "id": "kanagawa_unknown_higashinagaya",
      "osmId": 2982030799,
      "name": "東永谷",
      "nameKana": "ひがしながや",
      "nameTranslations": {
        "en": "Higashinagaya"
      },
      "latitude": 35.4087985,
      "longitude": 139.5788242,
      "lines": null,
      "prefectureId": "kanagawa",
      "cityId": null,
      "countryCode": "jp",
      "prefectureName": "神奈川県",
      "prefectureNameTranslations": null,
      "cityName": null,
      "cityNameTranslations": null,
      "placeType": "quarter"
    },
    {
      "id": "kanagawa_unknown_okubo",
      "osmId": 2988727038,
      "name": "大久保",
      "nameKana": "おおくぼ",
      "nameTranslations": {
        "en": "Okubo"
      },
      "latitude": 35.4086118,
      "longitude": 139.5877302,
      "lines": null,
      "prefectureId": "kanagawa",
      "cityId": null,
      "countryCode": "jp",
      "prefectureName": "神奈川県",
      "prefectureNameTranslations": null,
      "cityName": null,
      "cityNameTranslations": null,
      "placeType": "quarter"
    },
    {
      "id": "kanagawa_unknown_bessho",
      "osmId": 2988853638,
      "name": "別所",
      "nameKana": "べっしょ",
      "nameTranslations": {
        "en": "Bessho"
      },
      "latitude": 35.4131333,
      "longitude": 139.5881533,
      "lines": null,
      "prefectureId": "kanagawa",
      "cityId": null,
      "countryCode": "jp",
      "prefectureName": "神奈川県",
      "prefectureNameTranslations": null,
      "cityName": null,
      "cityNameTranslations": null,
      "placeType": "quarter"
    },
    {
      "id": "kanagawa_unknown_saido",
      "osmId": 2988993683,
      "name": "最戸",
      "nameKana": "さいど",
      "nameTranslations": {
        "en": "Saido"
      },
      "latitude": 35.4135255,
      "longitude": 139.5931383,
      "lines": null,
      "prefectureId": "kanagawa",
      "cityId": null,
      "countryCode": "jp",
      "prefectureName": "神奈川県",
      "prefectureNameTranslations": null,
      "cityName": null,
      "cityNameTranslations": null,
      "placeType": "quarter"
    },
    {
      "id": "kanagawa_unknown_nakazato",
      "osmId": 2996941179,
      "name": "中里",
      "nameKana": "なかざと",
      "nameTranslations": {
        "en": "Nakazato"
      },
      "latitude": 35.419852,
      "longitude": 139.593407,
      "lines": null,
      "prefectureId": "kanagawa",
      "cityId": null,
      "countryCode": "jp",
      "prefectureName": "神奈川県",
      "prefectureNameTranslations": null,
      "cityName": null,
      "cityNameTranslations": null,
      "placeType": "quarter"
    },
    {
      "id": "kanagawa_unknown_hosen",
      "osmId": 3001734062,
      "name": "法泉",
      "nameKana": null,
      "nameTranslations": {
        "en": "Hosen"
      },
      "latitude": 35.4462486,
      "longitude": 139.5705968,
      "lines": null,
      "prefectureId": "kanagawa",
      "cityId": null,
      "countryCode": "jp",
      "prefectureName": "神奈川県",
      "prefectureNameTranslations": null,
      "cityName": null,
      "cityNameTranslations": null,
      "placeType": "quarter"
    },
    {
      "id": "kanagawa_unknown_shin_sakuragaoka",
      "osmId": 3003760612,
      "name": "新桜ケ丘",
      "nameKana": null,
      "nameTranslations": {
        "en": "Shin-Sakuragaoka"
      },
      "latitude": 35.451105,
      "longitude": 139.5650751,
      "lines": null,
      "prefectureId": "kanagawa",
      "cityId": null,
      "countryCode": "jp",
      "prefectureName": "神奈川県",
      "prefectureNameTranslations": null,
      "cityName": null,
      "cityNameTranslations": null,
      "placeType": "quarter"
    },
    {
      "id": "kanagawa_unknown_akuwa_higashi",
      "osmId": 3008308008,
      "name": "阿久和東",
      "nameKana": null,
      "nameTranslations": {
        "en": "Akuwa-Higashi"
      },
      "latitude": 35.4527096,
      "longitude": 139.5052292,
      "lines": null,
      "prefectureId": "kanagawa",
      "cityId": null,
      "countryCode": "jp",
      "prefectureName": "神奈川県",
      "prefectureNameTranslations": null,
      "cityName": null,
      "cityNameTranslations": null,
      "placeType": "quarter"
    },
    {
      "id": "kanagawa_unknown_kajigaya",
      "osmId": 3017407659,
      "name": "鍛冶ケ谷",
      "nameKana": "かじがや",
      "nameTranslations": {
        "en": "Kajigaya"
      },
      "latitude": 35.3681802,
      "longitude": 139.5620033,
      "lines": null,
      "prefectureId": "kanagawa",
      "cityId": null,
      "countryCode": "jp",
      "prefectureName": "神奈川県",
      "prefectureNameTranslations": null,
      "cityName": null,
      "cityNameTranslations": null,
      "placeType": "quarter"
    },
    {
      "id": "kanagawa_unknown_hino_minami",
      "osmId": 3019366573,
      "name": "日野南",
      "nameKana": "ひのみなみ",
      "nameTranslations": {
        "en": "Hino-minami"
      },
      "latitude": 35.3782124,
      "longitude": 139.5676563,
      "lines": null,
      "prefectureId": "kanagawa",
      "cityId": null,
      "countryCode": "jp",
      "prefectureName": "神奈川県",
      "prefectureNameTranslations": null,
      "cityName": null,
      "cityNameTranslations": null,
      "placeType": "quarter"
    },
    {
      "id": "kanagawa_unknown_hino",
      "osmId": 3026542295,
      "name": "日野",
      "nameKana": "ひの",
      "nameTranslations": {
        "en": "Hino"
      },
      "latitude": 35.3922011,
      "longitude": 139.580287,
      "lines": null,
      "prefectureId": "kanagawa",
      "cityId": null,
      "countryCode": "jp",
      "prefectureName": "神奈川県",
      "prefectureNameTranslations": null,
      "cityName": null,
      "cityNameTranslations": null,
      "placeType": "quarter"
    },
    {
      "id": "kanagawa_unknown_konan",
      "osmId": 3029571206,
      "name": "港南",
      "nameKana": "こうなん",
      "nameTranslations": {
        "en": "Konan"
      },
      "latitude": 35.4037012,
      "longitude": 139.5877268,
      "lines": null,
      "prefectureId": "kanagawa",
      "cityId": null,
      "countryCode": "jp",
      "prefectureName": "神奈川県",
      "prefectureNameTranslations": null,
      "cityName": null,
      "cityNameTranslations": null,
      "placeType": "quarter"
    },
    {
      "id": "kanagawa_unknown_kamiooka_nishi",
      "osmId": 3036617224,
      "name": "上大岡西",
      "nameKana": "かみおおおかにし",
      "nameTranslations": {
        "en": "Kamiooka-nishi"
      },
      "latitude": 35.4057452,
      "longitude": 139.5953781,
      "lines": null,
      "prefectureId": "kanagawa",
      "cityId": null,
      "countryCode": "jp",
      "prefectureName": "神奈川県",
      "prefectureNameTranslations": null,
      "cityName": null,
      "cityNameTranslations": null,
      "placeType": "quarter"
    },
    {
      "id": "kanagawa_unknown_sugekitaura",
      "osmId": 3382296236,
      "name": "菅北浦",
      "nameKana": "すげきたうら",
      "nameTranslations": {
        "en": "Sugekitaura"
      },
      "latitude": 35.6290906,
      "longitude": 139.5373122,
      "lines": null,
      "prefectureId": "kanagawa",
      "cityId": null,
      "countryCode": "jp",
      "prefectureName": "神奈川県",
      "prefectureNameTranslations": null,
      "cityName": null,
      "cityNameTranslations": null,
      "placeType": "quarter"
    },
    {
      "id": "kanagawa_unknown_sugebanba",
      "osmId": 3382296589,
      "name": "菅馬場",
      "nameKana": "すげばんば",
      "nameTranslations": {
        "en": "Sugebanba"
      },
      "latitude": 35.62871,
      "longitude": 139.5415147,
      "lines": null,
      "prefectureId": "kanagawa",
      "cityId": null,
      "countryCode": "jp",
      "prefectureName": "神奈川県",
      "prefectureNameTranslations": null,
      "cityName": null,
      "cityNameTranslations": null,
      "placeType": "quarter"
    },
    {
      "id": "kanagawa_unknown_higashiikuta",
      "osmId": 3382299385,
      "name": "東生田",
      "nameKana": "ひがしいくた",
      "nameTranslations": {
        "en": "Higashiikuta"
      },
      "latitude": 35.6147325,
      "longitude": 139.5639118,
      "lines": null,
      "prefectureId": "kanagawa",
      "cityId": null,
      "countryCode": "jp",
      "prefectureName": "神奈川県",
      "prefectureNameTranslations": null,
      "cityName": null,
      "cityNameTranslations": null,
      "placeType": "quarter"
    },
    {
      "id": "kanagawa_unknown_teraodai",
      "osmId": 3382299529,
      "name": "寺尾台",
      "nameKana": "てらおだい",
      "nameTranslations": {
        "en": "Teraodai"
      },
      "latitude": 35.6189298,
      "longitude": 139.5335011,
      "lines": null,
      "prefectureId": "kanagawa",
      "cityId": null,
      "countryCode": "jp",
      "prefectureName": "神奈川県",
      "prefectureNameTranslations": null,
      "cityName": null,
      "cityNameTranslations": null,
      "placeType": "quarter"
    },
    {
      "id": "kanagawa_unknown_suge_inadazutsumi",
      "osmId": 3382299640,
      "name": "菅稲田堤",
      "nameKana": "すげいなだづつみ",
      "nameTranslations": {
        "en": "Suge-inadazutsumi"
      },
      "latitude": 35.6353598,
      "longitude": 139.5401581,
      "lines": null,
      "prefectureId": "kanagawa",
      "cityId": null,
      "countryCode": "jp",
      "prefectureName": "神奈川県",
      "prefectureNameTranslations": null,
      "cityName": null,
      "cityNameTranslations": null,
      "placeType": "quarter"
    },
    {
      "id": "kanagawa_unknown_suge",
      "osmId": 3382302581,
      "name": "菅",
      "nameKana": "すげ",
      "nameTranslations": {
        "en": "Suge"
      },
      "latitude": 35.6330777,
      "longitude": 139.5349134,
      "lines": null,
      "prefectureId": "kanagawa",
      "cityId": null,
      "countryCode": "jp",
      "prefectureName": "神奈川県",
      "prefectureNameTranslations": null,
      "cityName": null,
      "cityNameTranslations": null,
      "placeType": "quarter"
    },
    {
      "id": "kanagawa_unknown_sugesengoku",
      "osmId": 3382303594,
      "name": "菅仙谷",
      "nameKana": "すげせんごく",
      "nameTranslations": {
        "en": "Sugesengoku"
      },
      "latitude": 35.6290202,
      "longitude": 139.5240567,
      "lines": null,
      "prefectureId": "kanagawa",
      "cityId": null,
      "countryCode": "jp",
      "prefectureName": "神奈川県",
      "prefectureNameTranslations": null,
      "cityName": null,
      "cityNameTranslations": null,
      "placeType": "quarter"
    },
    {
      "id": "kanagawa_unknown_masugata",
      "osmId": 3382303612,
      "name": "枡形",
      "nameKana": "ますがた",
      "nameTranslations": {
        "en": "Masugata"
      },
      "latitude": 35.6168561,
      "longitude": 139.5604153,
      "lines": null,
      "prefectureId": "kanagawa",
      "cityId": null,
      "countryCode": "jp",
      "prefectureName": "神奈川県",
      "prefectureNameTranslations": null,
      "cityName": null,
      "cityNameTranslations": null,
      "placeType": "quarter"
    },
    {
      "id": "kanagawa_unknown_katasekaigan",
      "osmId": 3735603787,
      "name": "片瀬海岸",
      "nameKana": "かたせかいがん",
      "nameTranslations": {
        "en": "Katasekaigan"
      },
      "latitude": 35.3107494,
      "longitude": 139.4818431,
      "lines": null,
      "prefectureId": "kanagawa",
      "cityId": null,
      "countryCode": "jp",
      "prefectureName": "神奈川県",
      "prefectureNameTranslations": null,
      "cityName": null,
      "cityNameTranslations": null,
      "placeType": "quarter"
    },
    {
      "id": "kanagawa_unknown_megumicho",
      "osmId": 4864629672,
      "name": "めぐみ町",
      "nameKana": "めぐみちょう",
      "nameTranslations": {
        "en": "Megumicho"
      },
      "latitude": 35.4531195,
      "longitude": 139.3890648,
      "lines": null,
      "prefectureId": "kanagawa",
      "cityId": null,
      "countryCode": "jp",
      "prefectureName": "神奈川県",
      "prefectureNameTranslations": null,
      "cityName": null,
      "cityNameTranslations": null,
      "placeType": "quarter"
    },
    {
      "id": "kanagawa_unknown_上麻生",
      "osmId": 4867386588,
      "name": "上麻生",
      "nameKana": null,
      "nameTranslations": null,
      "latitude": 35.5920986,
      "longitude": 139.5001888,
      "lines": null,
      "prefectureId": "kanagawa",
      "cityId": null,
      "countryCode": "jp",
      "prefectureName": "神奈川県",
      "prefectureNameTranslations": null,
      "cityName": null,
      "cityNameTranslations": null,
      "placeType": "quarter"
    },
    {
      "id": "kanagawa_unknown_ryosei",
      "osmId": 4869724566,
      "name": "綾西",
      "nameKana": "りょうせい",
      "nameTranslations": {
        "en": "Ryosei"
      },
      "latitude": 35.4326661,
      "longitude": 139.41365,
      "lines": null,
      "prefectureId": "kanagawa",
      "cityId": null,
      "countryCode": "jp",
      "prefectureName": "神奈川県",
      "prefectureNameTranslations": null,
      "cityName": null,
      "cityNameTranslations": null,
      "placeType": "quarter"
    },
    {
      "id": "kanagawa_unknown_izumi",
      "osmId": 5281680494,
      "name": "泉",
      "nameKana": "いずみ",
      "nameTranslations": {
        "en": "Izumi"
      },
      "latitude": 35.4597859,
      "longitude": 139.3906923,
      "lines": null,
      "prefectureId": "kanagawa",
      "cityId": null,
      "countryCode": "jp",
      "prefectureName": "神奈川県",
      "prefectureNameTranslations": null,
      "cityName": null,
      "cityNameTranslations": null,
      "placeType": "quarter"
    },
    {
      "id": "kanagawa_unknown_kokubunjidai",
      "osmId": 5328577942,
      "name": "国分寺台",
      "nameKana": "こくぶんじだい",
      "nameTranslations": {
        "en": "Kokubunjidai"
      },
      "latitude": 35.4405135,
      "longitude": 139.4045065,
      "lines": null,
      "prefectureId": "kanagawa",
      "cityId": null,
      "countryCode": "jp",
      "prefectureName": "神奈川県",
      "prefectureNameTranslations": null,
      "cityName": null,
      "cityNameTranslations": null,
      "placeType": "quarter"
    },
    {
      "id": "kanagawa_unknown_tsumada",
      "osmId": 5701444014,
      "name": "妻田",
      "nameKana": "つまだ",
      "nameTranslations": {
        "en": "Tsumada"
      },
      "latitude": 35.4611724,
      "longitude": 139.3645168,
      "lines": null,
      "prefectureId": "kanagawa",
      "cityId": null,
      "countryCode": "jp",
      "prefectureName": "神奈川県",
      "prefectureNameTranslations": null,
      "cityName": null,
      "cityNameTranslations": null,
      "placeType": "quarter"
    },
    {
      "id": "kanagawa_unknown_tsumadahigashi",
      "osmId": 5701444016,
      "name": "妻田東",
      "nameKana": "つまだひがし",
      "nameTranslations": {
        "en": "Tsumadahigashi"
      },
      "latitude": 35.4586662,
      "longitude": 139.3627357,
      "lines": null,
      "prefectureId": "kanagawa",
      "cityId": null,
      "countryCode": "jp",
      "prefectureName": "神奈川県",
      "prefectureNameTranslations": null,
      "cityName": null,
      "cityNameTranslations": null,
      "placeType": "quarter"
    },
    {
      "id": "kanagawa_unknown_tsumada_nishi",
      "osmId": 5701444017,
      "name": "妻田西",
      "nameKana": "つまだにし",
      "nameTranslations": {
        "en": "Tsumada-nishi"
      },
      "latitude": 35.4622174,
      "longitude": 139.3545275,
      "lines": null,
      "prefectureId": "kanagawa",
      "cityId": null,
      "countryCode": "jp",
      "prefectureName": "神奈川県",
      "prefectureNameTranslations": null,
      "cityName": null,
      "cityNameTranslations": null,
      "placeType": "quarter"
    },
    {
      "id": "kanagawa_unknown_okata",
      "osmId": 5701446063,
      "name": "岡田",
      "nameKana": "おかた",
      "nameTranslations": {
        "en": "Okata"
      },
      "latitude": 35.4249367,
      "longitude": 139.366043,
      "lines": null,
      "prefectureId": "kanagawa",
      "cityId": null,
      "countryCode": "jp",
      "prefectureName": "神奈川県",
      "prefectureNameTranslations": null,
      "cityName": null,
      "cityNameTranslations": null,
      "placeType": "quarter"
    },
    {
      "id": "kanagawa_unknown_hase",
      "osmId": 5701446068,
      "name": "長谷",
      "nameKana": "はせ",
      "nameTranslations": {
        "en": "Hase"
      },
      "latitude": 35.4321111,
      "longitude": 139.3366118,
      "lines": null,
      "prefectureId": "kanagawa",
      "cityId": null,
      "countryCode": "jp",
      "prefectureName": "神奈川県",
      "prefectureNameTranslations": null,
      "cityName": null,
      "cityNameTranslations": null,
      "placeType": "quarter"
    },
    {
      "id": "kanagawa_unknown_toda",
      "osmId": 5701446074,
      "name": "戸田",
      "nameKana": "とだ",
      "nameTranslations": {
        "en": "Toda"
      },
      "latitude": 35.4012548,
      "longitude": 139.3622339,
      "lines": null,
      "prefectureId": "kanagawa",
      "cityId": null,
      "countryCode": "jp",
      "prefectureName": "神奈川県",
      "prefectureNameTranslations": null,
      "cityName": null,
      "cityNameTranslations": null,
      "placeType": "quarter"
    },
    {
      "id": "kanagawa_unknown_ono",
      "osmId": 5701586148,
      "name": "小野",
      "nameKana": "おの",
      "nameTranslations": {
        "en": "Ono"
      },
      "latitude": 35.4349587,
      "longitude": 139.3168207,
      "lines": null,
      "prefectureId": "kanagawa",
      "cityId": null,
      "countryCode": "jp",
      "prefectureName": "神奈川県",
      "prefectureNameTranslations": null,
      "cityName": null,
      "cityNameTranslations": null,
      "placeType": "quarter"
    },
    {
      "id": "kanagawa_unknown_毛利台",
      "osmId": 5701586149,
      "name": "毛利台",
      "nameKana": "もうりだい",
      "nameTranslations": null,
      "latitude": 35.441242,
      "longitude": 139.3294466,
      "lines": null,
      "prefectureId": "kanagawa",
      "cityId": null,
      "countryCode": "jp",
      "prefectureName": "神奈川県",
      "prefectureNameTranslations": null,
      "cityName": null,
      "cityNameTranslations": null,
      "placeType": "quarter"
    },
    {
      "id": "kanagawa_unknown_aina",
      "osmId": 5701586151,
      "name": "愛名",
      "nameKana": "あいな",
      "nameTranslations": {
        "en": "Aina"
      },
      "latitude": 35.4424702,
      "longitude": 139.3250366,
      "lines": null,
      "prefectureId": "kanagawa",
      "cityId": null,
      "countryCode": "jp",
      "prefectureName": "神奈川県",
      "prefectureNameTranslations": null,
      "cityName": null,
      "cityNameTranslations": null,
      "placeType": "quarter"
    },
    {
      "id": "kanagawa_unknown_nanasawa",
      "osmId": 5701586160,
      "name": "七沢",
      "nameKana": "ななさわ",
      "nameTranslations": {
        "en": "Nanasawa"
      },
      "latitude": 35.4502598,
      "longitude": 139.2809666,
      "lines": null,
      "prefectureId": "kanagawa",
      "cityId": null,
      "countryCode": "jp",
      "prefectureName": "神奈川県",
      "prefectureNameTranslations": null,
      "cityName": null,
      "cityNameTranslations": null,
      "placeType": "quarter"
    },
    {
      "id": "kanagawa_unknown_shimofurusawa",
      "osmId": 5701586172,
      "name": "下古沢",
      "nameKana": "しもふるさわ",
      "nameTranslations": {
        "en": "Shimofurusawa"
      },
      "latitude": 35.4534497,
      "longitude": 139.3197027,
      "lines": null,
      "prefectureId": "kanagawa",
      "cityId": null,
      "countryCode": "jp",
      "prefectureName": "神奈川県",
      "prefectureNameTranslations": null,
      "cityName": null,
      "cityNameTranslations": null,
      "placeType": "quarter"
    },
    {
      "id": "kanagawa_unknown_miyanosato",
      "osmId": 5701586344,
      "name": "宮の里",
      "nameKana": "みやのさと",
      "nameTranslations": {
        "en": "Miyanosato"
      },
      "latitude": 35.4787789,
      "longitude": 139.3140159,
      "lines": null,
      "prefectureId": "kanagawa",
      "cityId": null,
      "countryCode": "jp",
      "prefectureName": "神奈川県",
      "prefectureNameTranslations": null,
      "cityName": null,
      "cityNameTranslations": null,
      "placeType": "quarter"
    },
    {
      "id": "kanagawa_unknown_nakaogino",
      "osmId": 5701586345,
      "name": "中荻野",
      "nameKana": "なかおぎの",
      "nameTranslations": {
        "en": "Nakaogino"
      },
      "latitude": 35.482888,
      "longitude": 139.3213699,
      "lines": null,
      "prefectureId": "kanagawa",
      "cityId": null,
      "countryCode": "jp",
      "prefectureName": "神奈川県",
      "prefectureNameTranslations": null,
      "cityName": null,
      "cityNameTranslations": null,
      "placeType": "quarter"
    },
    {
      "id": "kanagawa_unknown_tobio",
      "osmId": 5701586346,
      "name": "鳶尾",
      "nameKana": "とびお",
      "nameTranslations": {
        "en": "Tobio"
      },
      "latitude": 35.491283,
      "longitude": 139.3296378,
      "lines": null,
      "prefectureId": "kanagawa",
      "cityId": null,
      "countryCode": "jp",
      "prefectureName": "神奈川県",
      "prefectureNameTranslations": null,
      "cityName": null,
      "cityNameTranslations": null,
      "placeType": "quarter"
    },
    {
      "id": "kanagawa_unknown_shimoogino",
      "osmId": 5701586347,
      "name": "下荻野",
      "nameKana": "しもおぎの",
      "nameTranslations": {
        "en": "Shimoogino"
      },
      "latitude": 35.4825939,
      "longitude": 139.3366581,
      "lines": null,
      "prefectureId": "kanagawa",
      "cityId": null,
      "countryCode": "jp",
      "prefectureName": "神奈川県",
      "prefectureNameTranslations": null,
      "cityName": null,
      "cityNameTranslations": null,
      "placeType": "quarter"
    },
    {
      "id": "kanagawa_unknown_miharuno",
      "osmId": 5701586354,
      "name": "みはる野",
      "nameKana": null,
      "nameTranslations": {
        "en": "Miharuno"
      },
      "latitude": 35.5006884,
      "longitude": 139.3212389,
      "lines": null,
      "prefectureId": "kanagawa",
      "cityId": null,
      "countryCode": "jp",
      "prefectureName": "神奈川県",
      "prefectureNameTranslations": null,
      "cityName": null,
      "cityNameTranslations": null,
      "placeType": "quarter"
    },
    {
      "id": "kanagawa_unknown_tanazawa",
      "osmId": 5701586358,
      "name": "棚沢",
      "nameKana": "たなざわ",
      "nameTranslations": {
        "en": "Tanazawa"
      },
      "latitude": 35.4991283,
      "longitude": 139.3334177,
      "lines": null,
      "prefectureId": "kanagawa",
      "cityId": null,
      "countryCode": "jp",
      "prefectureName": "神奈川県",
      "prefectureNameTranslations": null,
      "cityName": null,
      "cityNameTranslations": null,
      "placeType": "quarter"
    },
    {
      "id": "kanagawa_unknown_桂台",
      "osmId": 6023893257,
      "name": "桂台",
      "nameKana": null,
      "nameTranslations": null,
      "latitude": 35.5509482,
      "longitude": 139.5046842,
      "lines": null,
      "prefectureId": "kanagawa",
      "cityId": null,
      "countryCode": "jp",
      "prefectureName": "神奈川県",
      "prefectureNameTranslations": null,
      "cityName": null,
      "cityNameTranslations": null,
      "placeType": "quarter"
    },
    {
      "id": "kanagawa_unknown_akanedai",
      "osmId": 6023895967,
      "name": "あかね台",
      "nameKana": null,
      "nameTranslations": {
        "en": "Akanedai"
      },
      "latitude": 35.5418439,
      "longitude": 139.4880072,
      "lines": null,
      "prefectureId": "kanagawa",
      "cityId": null,
      "countryCode": "jp",
      "prefectureName": "神奈川県",
      "prefectureNameTranslations": null,
      "cityName": null,
      "cityNameTranslations": null,
      "placeType": "quarter"
    },
    {
      "id": "kanagawa_unknown_nara",
      "osmId": 6023898901,
      "name": "奈良",
      "nameKana": null,
      "nameTranslations": {
        "en": "Nara"
      },
      "latitude": 35.5547981,
      "longitude": 139.4861786,
      "lines": null,
      "prefectureId": "kanagawa",
      "cityId": null,
      "countryCode": "jp",
      "prefectureName": "神奈川県",
      "prefectureNameTranslations": null,
      "cityName": null,
      "cityNameTranslations": null,
      "placeType": "quarter"
    },
    {
      "id": "kanagawa_unknown_aobadai",
      "osmId": 6026163876,
      "name": "青葉台",
      "nameKana": null,
      "nameTranslations": {
        "en": "Aobadai"
      },
      "latitude": 35.5470009,
      "longitude": 139.5158075,
      "lines": null,
      "prefectureId": "kanagawa",
      "cityId": null,
      "countryCode": "jp",
      "prefectureName": "神奈川県",
      "prefectureNameTranslations": null,
      "cityName": null,
      "cityNameTranslations": null,
      "placeType": "quarter"
    },
    {
      "id": "kanagawa_unknown_たちばな台",
      "osmId": 6027126730,
      "name": "たちばな台",
      "nameKana": null,
      "nameTranslations": null,
      "latitude": 35.5558454,
      "longitude": 139.5129178,
      "lines": null,
      "prefectureId": "kanagawa",
      "cityId": null,
      "countryCode": "jp",
      "prefectureName": "神奈川県",
      "prefectureNameTranslations": null,
      "cityName": null,
      "cityNameTranslations": null,
      "placeType": "quarter"
    },
    {
      "id": "kanagawa_unknown_藤が丘",
      "osmId": 6028561720,
      "name": "藤が丘",
      "nameKana": null,
      "nameTranslations": null,
      "latitude": 35.5441603,
      "longitude": 139.5292145,
      "lines": null,
      "prefectureId": "kanagawa",
      "cityId": null,
      "countryCode": "jp",
      "prefectureName": "神奈川県",
      "prefectureNameTranslations": null,
      "cityName": null,
      "cityNameTranslations": null,
      "placeType": "quarter"
    },
    {
      "id": "kanagawa_unknown_ch",
      "osmId": 6245836704,
      "name": "中央",
      "nameKana": null,
      "nameTranslations": {
        "en": "Chūō"
      },
      "latitude": 35.4509964,
      "longitude": 139.3942505,
      "lines": null,
      "prefectureId": "kanagawa",
      "cityId": null,
      "countryCode": "jp",
      "prefectureName": "神奈川県",
      "prefectureNameTranslations": null,
      "cityName": null,
      "cityNameTranslations": null,
      "placeType": "quarter"
    },
    {
      "id": "kanagawa_unknown_kokubu_minami",
      "osmId": 6245836705,
      "name": "国分南",
      "nameKana": "こくぶみなみ",
      "nameTranslations": {
        "en": "Kokubu-Minami"
      },
      "latitude": 35.4529435,
      "longitude": 139.4005691,
      "lines": null,
      "prefectureId": "kanagawa",
      "cityId": null,
      "countryCode": "jp",
      "prefectureName": "神奈川県",
      "prefectureNameTranslations": null,
      "cityName": null,
      "cityNameTranslations": null,
      "placeType": "quarter"
    },
    {
      "id": "kanagawa_unknown_kokubu_kita",
      "osmId": 6245836706,
      "name": "国分北",
      "nameKana": "こくぶきた",
      "nameTranslations": {
        "en": "Kokubu-Kita"
      },
      "latitude": 35.4613865,
      "longitude": 139.4005377,
      "lines": null,
      "prefectureId": "kanagawa",
      "cityId": null,
      "countryCode": "jp",
      "prefectureName": "神奈川県",
      "prefectureNameTranslations": null,
      "cityName": null,
      "cityNameTranslations": null,
      "placeType": "quarter"
    },
    {
      "id": "kanagawa_unknown_ya_kita",
      "osmId": 6245836707,
      "name": "大谷北",
      "nameKana": "おおやきた",
      "nameTranslations": {
        "en": "Ōya Kita"
      },
      "latitude": 35.4409982,
      "longitude": 139.3979348,
      "lines": null,
      "prefectureId": "kanagawa",
      "cityId": null,
      "countryCode": "jp",
      "prefectureName": "神奈川県",
      "prefectureNameTranslations": null,
      "cityName": null,
      "cityNameTranslations": null,
      "placeType": "quarter"
    },
    {
      "id": "kanagawa_unknown_ya_minami",
      "osmId": 6245836708,
      "name": "大谷南",
      "nameKana": "おおやみなみ",
      "nameTranslations": {
        "en": "Ōya Minami"
      },
      "latitude": 35.4351446,
      "longitude": 139.3994552,
      "lines": null,
      "prefectureId": "kanagawa",
      "cityId": null,
      "countryCode": "jp",
      "prefectureName": "神奈川県",
      "prefectureNameTranslations": null,
      "cityName": null,
      "cityNameTranslations": null,
      "placeType": "quarter"
    },
    {
      "id": "kanagawa_unknown_sugikubo_kita",
      "osmId": 6245849213,
      "name": "杉久保北",
      "nameKana": null,
      "nameTranslations": {
        "en": "Sugikubo-Kita"
      },
      "latitude": 35.4276328,
      "longitude": 139.4016533,
      "lines": null,
      "prefectureId": "kanagawa",
      "cityId": null,
      "countryCode": "jp",
      "prefectureName": "神奈川県",
      "prefectureNameTranslations": null,
      "cityName": null,
      "cityNameTranslations": null,
      "placeType": "quarter"
    },
    {
      "id": "kanagawa_unknown_sugikubo_minami",
      "osmId": 6245849214,
      "name": "杉久保南",
      "nameKana": null,
      "nameTranslations": {
        "en": "Sugikubo-Minami"
      },
      "latitude": 35.42108,
      "longitude": 139.4012756,
      "lines": null,
      "prefectureId": "kanagawa",
      "cityId": null,
      "countryCode": "jp",
      "prefectureName": "神奈川県",
      "prefectureNameTranslations": null,
      "cityName": null,
      "cityNameTranslations": null,
      "placeType": "quarter"
    },
    {
      "id": "kanagawa_unknown_higashi_kashiwagaya",
      "osmId": 6245849215,
      "name": "東柏ケ谷",
      "nameKana": "ひがしかしわがや",
      "nameTranslations": {
        "en": "Higashi-Kashiwagaya"
      },
      "latitude": 35.470926,
      "longitude": 139.4304862,
      "lines": null,
      "prefectureId": "kanagawa",
      "cityId": null,
      "countryCode": "jp",
      "prefectureName": "神奈川県",
      "prefectureNameTranslations": null,
      "cityName": null,
      "cityNameTranslations": null,
      "placeType": "quarter"
    },
    {
      "id": "kanagawa_unknown_hayakawa_shiroyama",
      "osmId": 6246012118,
      "name": "早川城山",
      "nameKana": "はやかわしろやま",
      "nameTranslations": {
        "en": "Hayakawa-Shiroyama"
      },
      "latitude": 35.440203,
      "longitude": 139.4215397,
      "lines": null,
      "prefectureId": "kanagawa",
      "cityId": null,
      "countryCode": "jp",
      "prefectureName": "神奈川県",
      "prefectureNameTranslations": null,
      "cityName": null,
      "cityNameTranslations": null,
      "placeType": "quarter"
    },
    {
      "id": "kanagawa_unknown_sagamino",
      "osmId": 6259119189,
      "name": "さがみ野",
      "nameKana": "さがみの",
      "nameTranslations": {
        "en": "Sagamino"
      },
      "latitude": 35.4723328,
      "longitude": 139.424759,
      "lines": null,
      "prefectureId": "kanagawa",
      "cityId": null,
      "countryCode": "jp",
      "prefectureName": "神奈川県",
      "prefectureNameTranslations": null,
      "cityName": null,
      "cityNameTranslations": null,
      "placeType": "quarter"
    },
    {
      "id": "kanagawa_unknown_minami_kurihara",
      "osmId": 6259119190,
      "name": "南栗原",
      "nameKana": "みなみくりはら",
      "nameTranslations": {
        "en": "Minami-Kurihara"
      },
      "latitude": 35.4742664,
      "longitude": 139.4191893,
      "lines": null,
      "prefectureId": "kanagawa",
      "cityId": null,
      "countryCode": "jp",
      "prefectureName": "神奈川県",
      "prefectureNameTranslations": null,
      "cityName": null,
      "cityNameTranslations": null,
      "placeType": "quarter"
    },
    {
      "id": "kanagawa_unknown_m_chi",
      "osmId": 6307533611,
      "name": "望地",
      "nameKana": "もうち",
      "nameTranslations": {
        "en": "Mōchi"
      },
      "latitude": 35.453886,
      "longitude": 139.4049167,
      "lines": null,
      "prefectureId": "kanagawa",
      "cityId": null,
      "countryCode": "jp",
      "prefectureName": "神奈川県",
      "prefectureNameTranslations": null,
      "cityName": null,
      "cityNameTranslations": null,
      "placeType": "quarter"
    },
    {
      "id": "kanagawa_unknown_ozenjihigashi",
      "osmId": 7238569360,
      "name": "王禅寺東",
      "nameKana": "おうぜんじひがし",
      "nameTranslations": {
        "en": "Ozenjihigashi"
      },
      "latitude": 35.5850979,
      "longitude": 139.5139833,
      "lines": null,
      "prefectureId": "kanagawa",
      "cityId": null,
      "countryCode": "jp",
      "prefectureName": "神奈川県",
      "prefectureNameTranslations": null,
      "cityName": null,
      "cityNameTranslations": null,
      "placeType": "quarter"
    },
    {
      "id": "kanagawa_unknown_ozenjinishi",
      "osmId": 7238569361,
      "name": "王禅寺西",
      "nameKana": "おうぜんじにし",
      "nameTranslations": {
        "en": "Ozenjinishi"
      },
      "latitude": 35.5957964,
      "longitude": 139.5120423,
      "lines": null,
      "prefectureId": "kanagawa",
      "cityId": null,
      "countryCode": "jp",
      "prefectureName": "神奈川県",
      "prefectureNameTranslations": null,
      "cityName": null,
      "cityNameTranslations": null,
      "placeType": "quarter"
    },
    {
      "id": "kanagawa_unknown_tsurugamine",
      "osmId": 7243888393,
      "name": "鶴ケ峰",
      "nameKana": "つるがみね",
      "nameTranslations": {
        "en": "Tsurugamine"
      },
      "latitude": 35.4733242,
      "longitude": 139.5499815,
      "lines": null,
      "prefectureId": "kanagawa",
      "cityId": null,
      "countryCode": "jp",
      "prefectureName": "神奈川県",
      "prefectureNameTranslations": null,
      "cityName": null,
      "cityNameTranslations": null,
      "placeType": "quarter"
    },
    {
      "id": "kanagawa_unknown_hayabuchi",
      "osmId": 7294124168,
      "name": "早渕",
      "nameKana": "はやぶち",
      "nameTranslations": {
        "en": "Hayabuchi"
      },
      "latitude": 35.5464169,
      "longitude": 139.600044,
      "lines": null,
      "prefectureId": "kanagawa",
      "cityId": null,
      "countryCode": "jp",
      "prefectureName": "神奈川県",
      "prefectureNameTranslations": null,
      "cityName": null,
      "cityNameTranslations": null,
      "placeType": "quarter"
    },
    {
      "id": "kanagawa_unknown_shindenjuku",
      "osmId": 7550293305,
      "name": "新田宿",
      "nameKana": "しんでんじゅく",
      "nameTranslations": {
        "en": "Shindenjuku"
      },
      "latitude": 35.4823784,
      "longitude": 139.380588,
      "lines": null,
      "prefectureId": "kanagawa",
      "cityId": null,
      "countryCode": "jp",
      "prefectureName": "神奈川県",
      "prefectureNameTranslations": null,
      "cityName": null,
      "cityNameTranslations": null,
      "placeType": "quarter"
    },
    {
      "id": "kanagawa_unknown_kurihara",
      "osmId": 7550293306,
      "name": "栗原",
      "nameKana": "くりはら",
      "nameTranslations": {
        "en": "Kurihara"
      },
      "latitude": 35.4925604,
      "longitude": 139.4196659,
      "lines": null,
      "prefectureId": "kanagawa",
      "cityId": null,
      "countryCode": "jp",
      "prefectureName": "神奈川県",
      "prefectureNameTranslations": null,
      "cityName": null,
      "cityNameTranslations": null,
      "placeType": "quarter"
    },
    {
      "id": "kanagawa_unknown_midorigaoka",
      "osmId": 7550293307,
      "name": "緑ケ丘",
      "nameKana": "みどりがおか",
      "nameTranslations": {
        "en": "Midorigaoka"
      },
      "latitude": 35.4931912,
      "longitude": 139.4090956,
      "lines": null,
      "prefectureId": "kanagawa",
      "cityId": null,
      "countryCode": "jp",
      "prefectureName": "神奈川県",
      "prefectureNameTranslations": null,
      "cityName": null,
      "cityNameTranslations": null,
      "placeType": "quarter"
    },
    {
      "id": "kanagawa_unknown_shiroganecho",
      "osmId": 7551745900,
      "name": "白金町",
      "nameKana": "しろがねちょう",
      "nameTranslations": {
        "en": "Shiroganecho"
      },
      "latitude": 35.4388848,
      "longitude": 139.6203796,
      "lines": null,
      "prefectureId": "kanagawa",
      "cityId": null,
      "countryCode": "jp",
      "prefectureName": "神奈川県",
      "prefectureNameTranslations": null,
      "cityName": null,
      "cityNameTranslations": null,
      "placeType": "quarter"
    },
    {
      "id": "kanagawa_unknown_kominatoch",
      "osmId": 7608170762,
      "name": "小港町",
      "nameKana": "こみなとちょう",
      "nameTranslations": {
        "en": "Kominatochō"
      },
      "latitude": 35.4322569,
      "longitude": 139.6637876,
      "lines": null,
      "prefectureId": "kanagawa",
      "cityId": null,
      "countryCode": "jp",
      "prefectureName": "神奈川県",
      "prefectureNameTranslations": null,
      "cityName": null,
      "cityNameTranslations": null,
      "placeType": "quarter"
    },
    {
      "id": "kanagawa_unknown_kitagatacho",
      "osmId": 7608170769,
      "name": "北方町",
      "nameKana": "きたがたちょう",
      "nameTranslations": {
        "en": "Kitagatacho"
      },
      "latitude": 35.4317702,
      "longitude": 139.6604975,
      "lines": null,
      "prefectureId": "kanagawa",
      "cityId": null,
      "countryCode": "jp",
      "prefectureName": "神奈川県",
      "prefectureNameTranslations": null,
      "cityName": null,
      "cityNameTranslations": null,
      "placeType": "quarter"
    },
    {
      "id": "kanagawa_unknown_honmokucho",
      "osmId": 7608170775,
      "name": "本牧町",
      "nameKana": "ほんもくちょう",
      "nameTranslations": {
        "en": "Honmokucho"
      },
      "latitude": 35.4299197,
      "longitude": 139.6601914,
      "lines": null,
      "prefectureId": "kanagawa",
      "cityId": null,
      "countryCode": "jp",
      "prefectureName": "神奈川県",
      "prefectureNameTranslations": null,
      "cityName": null,
      "cityNameTranslations": null,
      "placeType": "quarter"
    },
    {
      "id": "kanagawa_unknown_suehirocho",
      "osmId": 7619128470,
      "name": "末広町",
      "nameKana": "すえひろちょう",
      "nameTranslations": {
        "en": "Suehirocho"
      },
      "latitude": 35.4440224,
      "longitude": 139.6328009,
      "lines": null,
      "prefectureId": "kanagawa",
      "cityId": null,
      "countryCode": "jp",
      "prefectureName": "神奈川県",
      "prefectureNameTranslations": null,
      "cityName": null,
      "cityNameTranslations": null,
      "placeType": "quarter"
    },
    {
      "id": "kanagawa_unknown_hong_cho",
      "osmId": 7627621353,
      "name": "本郷町",
      "nameKana": "ほんごうちょう",
      "nameTranslations": {
        "en": "Hongōcho"
      },
      "latitude": 35.4305102,
      "longitude": 139.6550704,
      "lines": null,
      "prefectureId": "kanagawa",
      "cityId": null,
      "countryCode": "jp",
      "prefectureName": "神奈川県",
      "prefectureNameTranslations": null,
      "cityName": null,
      "cityNameTranslations": null,
      "placeType": "quarter"
    },
    {
      "id": "kanagawa_unknown_magino",
      "osmId": 7631282131,
      "name": "牧野",
      "nameKana": "まぎの",
      "nameTranslations": {
        "en": "Magino"
      },
      "latitude": 35.5887981,
      "longitude": 139.155795,
      "lines": null,
      "prefectureId": "kanagawa",
      "cityId": null,
      "countryCode": "jp",
      "prefectureName": "神奈川県",
      "prefectureNameTranslations": null,
      "cityName": null,
      "cityNameTranslations": null,
      "placeType": "quarter"
    },
    {
      "id": "kanagawa_unknown_magino_quarter",
      "osmId": 7631282132,
      "name": "牧野",
      "nameKana": "まぎの",
      "nameTranslations": {
        "en": "Magino"
      },
      "latitude": 35.5751483,
      "longitude": 139.1640121,
      "lines": null,
      "prefectureId": "kanagawa",
      "cityId": null,
      "countryCode": "jp",
      "prefectureName": "神奈川県",
      "prefectureNameTranslations": null,
      "cityName": null,
      "cityNameTranslations": null,
      "placeType": "quarter"
    },
    {
      "id": "kanagawa_unknown_magino_quarter_7631282133",
      "osmId": 7631282133,
      "name": "牧野",
      "nameKana": "まぎの",
      "nameTranslations": {
        "en": "Magino"
      },
      "latitude": 35.5817624,
      "longitude": 139.1324404,
      "lines": null,
      "prefectureId": "kanagawa",
      "cityId": null,
      "countryCode": "jp",
      "prefectureName": "神奈川県",
      "prefectureNameTranslations": null,
      "cityName": null,
      "cityNameTranslations": null,
      "placeType": "quarter"
    },
    {
      "id": "kanagawa_unknown_magino_quarter_7631282135",
      "osmId": 7631282135,
      "name": "牧野",
      "nameKana": "まぎの",
      "nameTranslations": {
        "en": "Magino"
      },
      "latitude": 35.5481901,
      "longitude": 139.1190638,
      "lines": null,
      "prefectureId": "kanagawa",
      "cityId": null,
      "countryCode": "jp",
      "prefectureName": "神奈川県",
      "prefectureNameTranslations": null,
      "cityName": null,
      "cityNameTranslations": null,
      "placeType": "quarter"
    },
    {
      "id": "kanagawa_unknown_aone",
      "osmId": 7631282137,
      "name": "青根",
      "nameKana": "あおね",
      "nameTranslations": {
        "en": "Aone"
      },
      "latitude": 35.5358643,
      "longitude": 139.1275733,
      "lines": null,
      "prefectureId": "kanagawa",
      "cityId": null,
      "countryCode": "jp",
      "prefectureName": "神奈川県",
      "prefectureNameTranslations": null,
      "cityName": null,
      "cityNameTranslations": null,
      "placeType": "quarter"
    },
    {
      "id": "kanagawa_unknown_kugenuma_ishigami",
      "osmId": 7636575944,
      "name": "鵠沼石上",
      "nameKana": "くげぬまいしがみ",
      "nameTranslations": {
        "en": "Kugenuma-Ishigami"
      },
      "latitude": 35.3325865,
      "longitude": 139.4873907,
      "lines": null,
      "prefectureId": "kanagawa",
      "cityId": null,
      "countryCode": "jp",
      "prefectureName": "神奈川県",
      "prefectureNameTranslations": null,
      "cityName": null,
      "cityNameTranslations": null,
      "placeType": "quarter"
    },
    {
      "id": "kanagawa_unknown_kozono_minami",
      "osmId": 7639986367,
      "name": "小園南",
      "nameKana": "こぞのみなみ",
      "nameTranslations": {
        "en": "Kozono-Minami"
      },
      "latitude": 35.4476288,
      "longitude": 139.411527,
      "lines": null,
      "prefectureId": "kanagawa",
      "cityId": null,
      "countryCode": "jp",
      "prefectureName": "神奈川県",
      "prefectureNameTranslations": null,
      "cityName": null,
      "cityNameTranslations": null,
      "placeType": "quarter"
    },
    {
      "id": "kanagawa_unknown_terao_nishi",
      "osmId": 7639986370,
      "name": "寺尾西",
      "nameKana": "てらおにし",
      "nameTranslations": {
        "en": "Terao-Nishi"
      },
      "latitude": 35.4528716,
      "longitude": 139.4200316,
      "lines": null,
      "prefectureId": "kanagawa",
      "cityId": null,
      "countryCode": "jp",
      "prefectureName": "神奈川県",
      "prefectureNameTranslations": null,
      "cityName": null,
      "cityNameTranslations": null,
      "placeType": "quarter"
    },
    {
      "id": "kanagawa_unknown_terao_honch",
      "osmId": 7639986372,
      "name": "寺尾本町",
      "nameKana": "てらおほんちょう",
      "nameTranslations": {
        "en": "Terao-Honchō"
      },
      "latitude": 35.4543697,
      "longitude": 139.4247663,
      "lines": null,
      "prefectureId": "kanagawa",
      "cityId": null,
      "countryCode": "jp",
      "prefectureName": "神奈川県",
      "prefectureNameTranslations": null,
      "cityName": null,
      "cityNameTranslations": null,
      "placeType": "quarter"
    },
    {
      "id": "kanagawa_unknown_susugaya",
      "osmId": 7653240869,
      "name": "煤ヶ谷",
      "nameKana": "すすがや",
      "nameTranslations": {
        "en": "Susugaya"
      },
      "latitude": 35.4858019,
      "longitude": 139.2768316,
      "lines": null,
      "prefectureId": "kanagawa",
      "cityId": null,
      "countryCode": "jp",
      "prefectureName": "神奈川県",
      "prefectureNameTranslations": null,
      "cityName": null,
      "cityNameTranslations": null,
      "placeType": "quarter"
    },
    {
      "id": "kanagawa_unknown_miyagase",
      "osmId": 7653240871,
      "name": "宮ヶ瀬",
      "nameKana": "みやがせ",
      "nameTranslations": {
        "en": "Miyagase"
      },
      "latitude": 35.5227702,
      "longitude": 139.2272796,
      "lines": null,
      "prefectureId": "kanagawa",
      "cityId": null,
      "countryCode": "jp",
      "prefectureName": "神奈川県",
      "prefectureNameTranslations": null,
      "cityName": null,
      "cityNameTranslations": null,
      "placeType": "quarter"
    },
    {
      "id": "kanagawa_unknown_susugaya_quarter",
      "osmId": 7653240873,
      "name": "煤ヶ谷",
      "nameKana": "すすがや",
      "nameTranslations": {
        "en": "Susugaya"
      },
      "latitude": 35.462357,
      "longitude": 139.2105264,
      "lines": null,
      "prefectureId": "kanagawa",
      "cityId": null,
      "countryCode": "jp",
      "prefectureName": "神奈川県",
      "prefectureNameTranslations": null,
      "cityName": null,
      "cityNameTranslations": null,
      "placeType": "quarter"
    },
    {
      "id": "kanagawa_unknown_takashima",
      "osmId": 7681935034,
      "name": "高島",
      "nameKana": "たかしま",
      "nameTranslations": {
        "en": "Takashima"
      },
      "latitude": 35.4622243,
      "longitude": 139.6227788,
      "lines": null,
      "prefectureId": "kanagawa",
      "cityId": null,
      "countryCode": "jp",
      "prefectureName": "神奈川県",
      "prefectureNameTranslations": null,
      "cityName": null,
      "cityNameTranslations": null,
      "placeType": "quarter"
    },
    {
      "id": "kanagawa_unknown_minami_saiwai",
      "osmId": 7681935056,
      "name": "南幸",
      "nameKana": "みなみさいわい",
      "nameTranslations": {
        "en": "Minami-Saiwai"
      },
      "latitude": 35.4650943,
      "longitude": 139.6192504,
      "lines": null,
      "prefectureId": "kanagawa",
      "cityId": null,
      "countryCode": "jp",
      "prefectureName": "神奈川県",
      "prefectureNameTranslations": null,
      "cityName": null,
      "cityNameTranslations": null,
      "placeType": "quarter"
    },
    {
      "id": "kanagawa_unknown_kita_saiwai",
      "osmId": 7681935060,
      "name": "北幸",
      "nameKana": "きたさいわい",
      "nameTranslations": {
        "en": "Kita-Saiwai"
      },
      "latitude": 35.4675485,
      "longitude": 139.6170444,
      "lines": null,
      "prefectureId": "kanagawa",
      "cityId": null,
      "countryCode": "jp",
      "prefectureName": "神奈川県",
      "prefectureNameTranslations": null,
      "cityName": null,
      "cityNameTranslations": null,
      "placeType": "quarter"
    },
    {
      "id": "kanagawa_unknown_okano",
      "osmId": 7681935066,
      "name": "岡野",
      "nameKana": "おかの",
      "nameTranslations": {
        "en": "Okano"
      },
      "latitude": 35.4618375,
      "longitude": 139.6137521,
      "lines": null,
      "prefectureId": "kanagawa",
      "cityId": null,
      "countryCode": "jp",
      "prefectureName": "神奈川県",
      "prefectureNameTranslations": null,
      "cityName": null,
      "cityNameTranslations": null,
      "placeType": "quarter"
    },
    {
      "id": "kanagawa_unknown_koyato",
      "osmId": 7702823637,
      "name": "小谷",
      "nameKana": "こやと",
      "nameTranslations": {
        "en": "Koyato"
      },
      "latitude": 35.3811003,
      "longitude": 139.3957835,
      "lines": null,
      "prefectureId": "kanagawa",
      "cityId": null,
      "countryCode": "jp",
      "prefectureName": "神奈川県",
      "prefectureNameTranslations": null,
      "cityName": null,
      "cityNameTranslations": null,
      "placeType": "quarter"
    },
    {
      "id": "kanagawa_unknown_iriya_nishi",
      "osmId": 7729576413,
      "name": "入谷西",
      "nameKana": "いりやにし",
      "nameTranslations": {
        "en": "Iriya-Nishi"
      },
      "latitude": 35.4832683,
      "longitude": 139.3952171,
      "lines": null,
      "prefectureId": "kanagawa",
      "cityId": null,
      "countryCode": "jp",
      "prefectureName": "神奈川県",
      "prefectureNameTranslations": null,
      "cityName": null,
      "cityNameTranslations": null,
      "placeType": "quarter"
    },
    {
      "id": "kanagawa_unknown_tatsunodai",
      "osmId": 7732441436,
      "name": "立野台",
      "nameKana": "たつのだい",
      "nameTranslations": {
        "en": "Tatsunodai"
      },
      "latitude": 35.4793052,
      "longitude": 139.4096784,
      "lines": null,
      "prefectureId": "kanagawa",
      "cityId": null,
      "countryCode": "jp",
      "prefectureName": "神奈川県",
      "prefectureNameTranslations": null,
      "cityName": null,
      "cityNameTranslations": null,
      "placeType": "quarter"
    },
    {
      "id": "kanagawa_unknown_kamitsuchidana_naka",
      "osmId": 7782984358,
      "name": "上土棚中",
      "nameKana": "かみつちだななか",
      "nameTranslations": {
        "en": "Kamitsuchidana-Naka"
      },
      "latitude": 35.4169256,
      "longitude": 139.4512847,
      "lines": null,
      "prefectureId": "kanagawa",
      "cityId": null,
      "countryCode": "jp",
      "prefectureName": "神奈川県",
      "prefectureNameTranslations": null,
      "cityName": null,
      "cityNameTranslations": null,
      "placeType": "quarter"
    },
    {
      "id": "kanagawa_unknown_yoshioka_higashi",
      "osmId": 7795656973,
      "name": "吉岡東",
      "nameKana": "よしおかひがし",
      "nameTranslations": {
        "en": "Yoshioka-Higashi"
      },
      "latitude": 35.4248806,
      "longitude": 139.4248123,
      "lines": null,
      "prefectureId": "kanagawa",
      "cityId": null,
      "countryCode": "jp",
      "prefectureName": "神奈川県",
      "prefectureNameTranslations": null,
      "cityName": null,
      "cityNameTranslations": null,
      "placeType": "quarter"
    },
    {
      "id": "kanagawa_unknown_zama",
      "osmId": 7814374096,
      "name": "座間",
      "nameKana": "ざま",
      "nameTranslations": {
        "en": "Zama"
      },
      "latitude": 35.4865288,
      "longitude": 139.3877657,
      "lines": null,
      "prefectureId": "kanagawa",
      "cityId": null,
      "countryCode": "jp",
      "prefectureName": "神奈川県",
      "prefectureNameTranslations": null,
      "cityName": null,
      "cityNameTranslations": null,
      "placeType": "quarter"
    },
    {
      "id": "kanagawa_unknown_nishi_kurihara",
      "osmId": 7816120487,
      "name": "西栗原",
      "nameKana": "にしくりはら",
      "nameTranslations": {
        "en": "Nishi-Kurihara"
      },
      "latitude": 35.4744396,
      "longitude": 139.4119413,
      "lines": null,
      "prefectureId": "kanagawa",
      "cityId": null,
      "countryCode": "jp",
      "prefectureName": "神奈川県",
      "prefectureNameTranslations": null,
      "cityName": null,
      "cityNameTranslations": null,
      "placeType": "quarter"
    },
    {
      "id": "kanagawa_unknown_okada",
      "osmId": 7821367450,
      "name": "岡田",
      "nameKana": "おかだ",
      "nameTranslations": {
        "en": "Okada"
      },
      "latitude": 35.3704328,
      "longitude": 139.3929584,
      "lines": null,
      "prefectureId": "kanagawa",
      "cityId": null,
      "countryCode": "jp",
      "prefectureName": "神奈川県",
      "prefectureNameTranslations": null,
      "cityName": null,
      "cityNameTranslations": null,
      "placeType": "quarter"
    },
    {
      "id": "kanagawa_unknown_fukaya_naka",
      "osmId": 7823249852,
      "name": "深谷中",
      "nameKana": "ふかやなか",
      "nameTranslations": {
        "en": "Fukaya-Naka"
      },
      "latitude": 35.4360686,
      "longitude": 139.4368226,
      "lines": null,
      "prefectureId": "kanagawa",
      "cityId": null,
      "countryCode": "jp",
      "prefectureName": "神奈川県",
      "prefectureNameTranslations": null,
      "cityName": null,
      "cityNameTranslations": null,
      "placeType": "quarter"
    },
    {
      "id": "kanagawa_unknown_fukaya_kami",
      "osmId": 7823249855,
      "name": "深谷上",
      "nameKana": "ふかやかみ",
      "nameTranslations": {
        "en": "Fukaya-Kami"
      },
      "latitude": 35.4431637,
      "longitude": 139.4310589,
      "lines": null,
      "prefectureId": "kanagawa",
      "cityId": null,
      "countryCode": "jp",
      "prefectureName": "神奈川県",
      "prefectureNameTranslations": null,
      "cityName": null,
      "cityNameTranslations": null,
      "placeType": "quarter"
    },
    {
      "id": "kanagawa_unknown_fukaya_minami",
      "osmId": 7823249857,
      "name": "深谷南",
      "nameKana": "ふかやみなみ",
      "nameTranslations": {
        "en": "Fukaya-Minami"
      },
      "latitude": 35.4317284,
      "longitude": 139.4423701,
      "lines": null,
      "prefectureId": "kanagawa",
      "cityId": null,
      "countryCode": "jp",
      "prefectureName": "神奈川県",
      "prefectureNameTranslations": null,
      "cityName": null,
      "cityNameTranslations": null,
      "placeType": "quarter"
    },
    {
      "id": "kanagawa_unknown_kurihara_ch",
      "osmId": 7831049602,
      "name": "栗原中央",
      "nameKana": "くりはらちゅうおう",
      "nameTranslations": {
        "en": "Kurihara-Chūō"
      },
      "latitude": 35.4826104,
      "longitude": 139.4160824,
      "lines": null,
      "prefectureId": "kanagawa",
      "cityId": null,
      "countryCode": "jp",
      "prefectureName": "神奈川県",
      "prefectureNameTranslations": null,
      "cityName": null,
      "cityNameTranslations": null,
      "placeType": "quarter"
    },
    {
      "id": "kanagawa_unknown_higashihara",
      "osmId": 7831049603,
      "name": "東原",
      "nameKana": "ひがしはら",
      "nameTranslations": {
        "en": "Higashihara"
      },
      "latitude": 35.4790224,
      "longitude": 139.4269356,
      "lines": null,
      "prefectureId": "kanagawa",
      "cityId": null,
      "countryCode": "jp",
      "prefectureName": "神奈川県",
      "prefectureNameTranslations": null,
      "cityName": null,
      "cityNameTranslations": null,
      "placeType": "quarter"
    },
    {
      "id": "kanagawa_unknown_hibarigaoka",
      "osmId": 7833191152,
      "name": "ひばりが丘",
      "nameKana": "ひばりがおか",
      "nameTranslations": {
        "en": "Hibarigaoka"
      },
      "latitude": 35.4857938,
      "longitude": 139.4322319,
      "lines": null,
      "prefectureId": "kanagawa",
      "cityId": null,
      "countryCode": "jp",
      "prefectureName": "神奈川県",
      "prefectureNameTranslations": null,
      "cityName": null,
      "cityNameTranslations": null,
      "placeType": "quarter"
    },
    {
      "id": "kanagawa_unknown_komatsubara",
      "osmId": 7833191153,
      "name": "小松原",
      "nameKana": "こまつばら",
      "nameTranslations": {
        "en": "Komatsubara"
      },
      "latitude": 35.4970265,
      "longitude": 139.4300753,
      "lines": null,
      "prefectureId": "kanagawa",
      "cityId": null,
      "countryCode": "jp",
      "prefectureName": "神奈川県",
      "prefectureNameTranslations": null,
      "cityName": null,
      "cityNameTranslations": null,
      "placeType": "quarter"
    },
    {
      "id": "kanagawa_unknown_hironodai",
      "osmId": 7833191154,
      "name": "広野台",
      "nameKana": "ひろのだい",
      "nameTranslations": {
        "en": "Hironodai"
      },
      "latitude": 35.5022689,
      "longitude": 139.4217749,
      "lines": null,
      "prefectureId": "kanagawa",
      "cityId": null,
      "countryCode": "jp",
      "prefectureName": "神奈川県",
      "prefectureNameTranslations": null,
      "cityName": null,
      "cityNameTranslations": null,
      "placeType": "quarter"
    },
    {
      "id": "kanagawa_unknown_sagamigaoka",
      "osmId": 7833970044,
      "name": "相模が丘",
      "nameKana": "さがみがおか",
      "nameTranslations": {
        "en": "Sagamigaoka"
      },
      "latitude": 35.508875,
      "longitude": 139.4229866,
      "lines": null,
      "prefectureId": "kanagawa",
      "cityId": null,
      "countryCode": "jp",
      "prefectureName": "神奈川県",
      "prefectureNameTranslations": null,
      "cityName": null,
      "cityNameTranslations": null,
      "placeType": "quarter"
    },
    {
      "id": "kanagawa_unknown_osogo",
      "osmId": 7847905858,
      "name": "獺郷",
      "nameKana": "おそごう",
      "nameTranslations": {
        "en": "Osogo"
      },
      "latitude": 35.388757,
      "longitude": 139.406502,
      "lines": null,
      "prefectureId": "kanagawa",
      "cityId": null,
      "countryCode": "jp",
      "prefectureName": "神奈川県",
      "prefectureNameTranslations": null,
      "cityName": null,
      "cityNameTranslations": null,
      "placeType": "quarter"
    },
    {
      "id": "kanagawa_unknown_miyabara",
      "osmId": 7847905859,
      "name": "宮原",
      "nameKana": "みやばら",
      "nameTranslations": {
        "en": "Miyabara"
      },
      "latitude": 35.39871,
      "longitude": 139.4065664,
      "lines": null,
      "prefectureId": "kanagawa",
      "cityId": null,
      "countryCode": "jp",
      "prefectureName": "神奈川県",
      "prefectureNameTranslations": null,
      "cityName": null,
      "cityNameTranslations": null,
      "placeType": "quarter"
    },
    {
      "id": "kanagawa_unknown_teraodai_quarter",
      "osmId": 7858055789,
      "name": "寺尾台",
      "nameKana": "てらおだい",
      "nameTranslations": {
        "en": "Teraodai"
      },
      "latitude": 35.4586395,
      "longitude": 139.4179534,
      "lines": null,
      "prefectureId": "kanagawa",
      "cityId": null,
      "countryCode": "jp",
      "prefectureName": "神奈川県",
      "prefectureNameTranslations": null,
      "cityName": null,
      "cityNameTranslations": null,
      "placeType": "quarter"
    },
    {
      "id": "kanagawa_unknown_terao_kita",
      "osmId": 7858055790,
      "name": "寺尾北",
      "nameKana": "てらおきた",
      "nameTranslations": {
        "en": "Terao-Kita"
      },