{
  "fetchedAt": "2025-12-10T12:33:27.942Z",
  "prefecture": {
    "id": "saitama",
    "name": "埼玉県"
  },
  "cities": [
    {
      "id": "saitama_saitama",
      "osmId": 243993095,
      "prefectureId": "saitama",
      "name": "さいたま市",
      "nameKana": null,
      "nameTranslations": {
        "en": "Saitama"
      },
      "type": "市",
      "countryCode": "jp",
      "latitude": 35.8616402,
      "longitude": 139.6457957
    },
    {
      "id": "saitama_hanno",
      "osmId": 247962196,
      "prefectureId": "saitama",
      "name": "飯能市",
      "nameKana": "はんのうし",
      "nameTranslations": {
        "en": "Hanno"
      },
      "type": "市",
      "countryCode": "jp",
      "latitude": 35.8556902,
      "longitude": 139.3276436
    },
    {
      "id": "saitama_chichibu",
      "osmId": 248008276,
      "prefectureId": "saitama",
      "name": "秩父市",
      "nameKana": "ちちぶし",
      "nameTranslations": {
        "en": "Chichibu"
      },
      "type": "市",
      "countryCode": "jp",
      "latitude": 35.9914509,
      "longitude": 139.0857612
    },
    {
      "id": "saitama_kumagaya",
      "osmId": 301641122,
      "prefectureId": "saitama",
      "name": "熊谷市",
      "nameKana": null,
      "nameTranslations": {
        "en": "Kumagaya"
      },
      "type": "市",
      "countryCode": "jp",
      "latitude": 36.1472472,
      "longitude": 139.3886141
    },
    {
      "id": "saitama_gyoda",
      "osmId": 302348601,
      "prefectureId": "saitama",
      "name": "行田市",
      "nameKana": "ぎょうだし",
      "nameTranslations": {
        "en": "Gyoda"
      },
      "type": "市",
      "countryCode": "jp",
      "latitude": 36.1386052,
      "longitude": 139.4559001
    },
    {
      "id": "saitama_hidaka",
      "osmId": 459653520,
      "prefectureId": "saitama",
      "name": "日高市",
      "nameKana": "ひだかし",
      "nameTranslations": {
        "en": "Hidaka"
      },
      "type": "市",
      "countryCode": "jp",
      "latitude": 35.9077667,
      "longitude": 139.3390385
    },
    {
      "id": "saitama_kawagoe",
      "osmId": 537121807,
      "prefectureId": "saitama",
      "name": "川越市",
      "nameKana": null,
      "nameTranslations": {
        "en": "Kawagoe"
      },
      "type": "市",
      "countryCode": "jp",
      "latitude": 35.9251145,
      "longitude": 139.4856927
    },
    {
      "id": "saitama_kuki",
      "osmId": 546630465,
      "prefectureId": "saitama",
      "name": "久喜市",
      "nameKana": null,
      "nameTranslations": {
        "en": "Kuki"
      },
      "type": "市",
      "countryCode": "jp",
      "latitude": 36.0617964,
      "longitude": 139.6671445
    },
    {
      "id": "saitama_wako",
      "osmId": 622868936,
      "prefectureId": "saitama",
      "name": "和光市",
      "nameKana": "わこうし",
      "nameTranslations": {
        "en": "Wako"
      },
      "type": "市",
      "countryCode": "jp",
      "latitude": 35.7817053,
      "longitude": 139.6058692
    },
    {
      "id": "saitama_asaka",
      "osmId": 622870825,
      "prefectureId": "saitama",
      "name": "朝霞市",
      "nameKana": "あさかし",
      "nameTranslations": {
        "en": "Asaka"
      },
      "type": "市",
      "countryCode": "jp",
      "latitude": 35.7970861,
      "longitude": 139.593733
    },
    {
      "id": "saitama_niiza",
      "osmId": 671141124,
      "prefectureId": "saitama",
      "name": "新座市",
      "nameKana": "にいざし",
      "nameTranslations": {
        "en": "Niiza"
      },
      "type": "市",
      "countryCode": "jp",
      "latitude": 35.7931194,
      "longitude": 139.5657258
    },
    {
      "id": "saitama_ageo",
      "osmId": 671141125,
      "prefectureId": "saitama",
      "name": "上尾市",
      "nameKana": "あげおし",
      "nameTranslations": {
        "en": "Ageo"
      },
      "type": "市",
      "countryCode": "jp",
      "latitude": 35.9774082,
      "longitude": 139.5930504
    },
    {
      "id": "saitama_konosu",
      "osmId": 820097446,
      "prefectureId": "saitama",
      "name": "鴻巣市",
      "nameKana": "こうのすし",
      "nameTranslations": {
        "en": "Konosu"
      },
      "type": "市",
      "countryCode": "jp",
      "latitude": 36.0657583,
      "longitude": 139.5221055
    },
    {
      "id": "saitama_kazo",
      "osmId": 820110092,
      "prefectureId": "saitama",
      "name": "加須市",
      "nameKana": null,
      "nameTranslations": {
        "en": "Kazo"
      },
      "type": "市",
      "countryCode": "jp",
      "latitude": 36.1308572,
      "longitude": 139.603225
    },
    {
      "id": "saitama_okegawa",
      "osmId": 820134979,
      "prefectureId": "saitama",
      "name": "桶川市",
      "nameKana": "おけがわし",
      "nameTranslations": {
        "en": "Okegawa"
      },
      "type": "市",
      "countryCode": "jp",
      "latitude": 36.0028937,
      "longitude": 139.5583422
    },
    {
      "id": "saitama_kitamoto",
      "osmId": 820134983,
      "prefectureId": "saitama",
      "name": "北本市",
      "nameKana": "きたもとし",
      "nameTranslations": {
        "en": "Kitamoto"
      },
      "type": "市",
      "countryCode": "jp",
      "latitude": 36.0268711,
      "longitude": 139.5301389
    },
    {
      "id": "saitama_fukaya",
      "osmId": 820591253,
      "prefectureId": "saitama",
      "name": "深谷市",
      "nameKana": null,
      "nameTranslations": {
        "en": "Fukaya"
      },
      "type": "市",
      "countryCode": "jp",
      "latitude": 36.1974016,
      "longitude": 139.2816997
    },
    {
      "id": "saitama_honjo",
      "osmId": 820591261,
      "prefectureId": "saitama",
      "name": "本庄市",
      "nameKana": "ほんじょうし",
      "nameTranslations": {
        "en": "Honjo"
      },
      "type": "市",
      "countryCode": "jp",
      "latitude": 36.2435937,
      "longitude": 139.1916278
    },
    {
      "id": "saitama_higashimatsuyama",
      "osmId": 820603381,
      "prefectureId": "saitama",
      "name": "東松山市",
      "nameKana": null,
      "nameTranslations": {
        "en": "Higashimatsuyama"
      },
      "type": "市",
      "countryCode": "jp",
      "latitude": 36.0421523,
      "longitude": 139.399796
    },
    {
      "id": "saitama_misato",
      "osmId": 854693636,
      "prefectureId": "saitama",
      "name": "三郷市",
      "nameKana": null,
      "nameTranslations": {
        "en": "Misato"
      },
      "type": "市",
      "countryCode": "jp",
      "latitude": 35.8289993,
      "longitude": 139.8726811
    },
    {
      "id": "saitama_tsurugashima",
      "osmId": 863601289,
      "prefectureId": "saitama",
      "name": "鶴ヶ島市",
      "nameKana": null,
      "nameTranslations": {
        "en": "Tsurugashima"
      },
      "type": "市",
      "countryCode": "jp",
      "latitude": 35.9346812,
      "longitude": 139.3929735
    },
    {
      "id": "saitama_sayama",
      "osmId": 863611983,
      "prefectureId": "saitama",
      "name": "狭山市",
      "nameKana": null,
      "nameTranslations": {
        "en": "Sayama"
      },
      "type": "市",
      "countryCode": "jp",
      "latitude": 35.8528971,
      "longitude": 139.4122999
    },
    {
      "id": "saitama_tokorozawa",
      "osmId": 863622554,
      "prefectureId": "saitama",
      "name": "所沢市",
      "nameKana": null,
      "nameTranslations": {
        "en": "Tokorozawa"
      },
      "type": "市",
      "countryCode": "jp",
      "latitude": 35.7987179,
      "longitude": 139.4696758
    },
    {
      "id": "saitama_iruma",
      "osmId": 863647764,
      "prefectureId": "saitama",
      "name": "入間市",
      "nameKana": null,
      "nameTranslations": {
        "en": "Iruma"
      },
      "type": "市",
      "countryCode": "jp",
      "latitude": 35.8358142,
      "longitude": 139.3909293
    },
    {
      "id": "saitama_fujimino",
      "osmId": 863664907,
      "prefectureId": "saitama",
      "name": "ふじみ野市",
      "nameKana": null,
      "nameTranslations": {
        "en": "Fujimino"
      },
      "type": "市",
      "countryCode": "jp",
      "latitude": 35.8794749,
      "longitude": 139.5195441
    },
    {
      "id": "saitama_fujimi",
      "osmId": 863670497,
      "prefectureId": "saitama",
      "name": "富士見市",
      "nameKana": null,
      "nameTranslations": {
        "en": "Fujimi"
      },
      "type": "市",
      "countryCode": "jp",
      "latitude": 35.8565545,
      "longitude": 139.5490731
    },
    {
      "id": "saitama_shiki",
      "osmId": 863684931,
      "prefectureId": "saitama",
      "name": "志木市",
      "nameKana": null,
      "nameTranslations": {
        "en": "Shiki"
      },
      "type": "市",
      "countryCode": "jp",
      "latitude": 35.8373892,
      "longitude": 139.5795684
    },
    {
      "id": "saitama_satte",
      "osmId": 864242320,
      "prefectureId": "saitama",
      "name": "幸手市",
      "nameKana": "さってし",
      "nameTranslations": {
        "en": "Satte"
      },
      "type": "市",
      "countryCode": "jp",
      "latitude": 36.0778827,
      "longitude": 139.7254086
    },
    {
      "id": "saitama_kasukabe",
      "osmId": 864248665,
      "prefectureId": "saitama",
      "name": "春日部市",
      "nameKana": null,
      "nameTranslations": {
        "en": "Kasukabe"
      },
      "type": "市",
      "countryCode": "jp",
      "latitude": 35.9757957,
      "longitude": 139.752019
    },
    {
      "id": "saitama_hasuda",
      "osmId": 864248673,
      "prefectureId": "saitama",
      "name": "蓮田市",
      "nameKana": "はすだし",
      "nameTranslations": {
        "en": "Hasuda"
      },
      "type": "市",
      "countryCode": "jp",
      "latitude": 35.994092,
      "longitude": 139.6632547
    },
    {
      "id": "saitama_yoshikawa",
      "osmId": 864255936,
      "prefectureId": "saitama",
      "name": "吉川市",
      "nameKana": "よしかわし",
      "nameTranslations": {
        "en": "Yoshikawa"
      },
      "type": "市",
      "countryCode": "jp",
      "latitude": 35.8962831,
      "longitude": 139.854504
    },
    {
      "id": "saitama_soka",
      "osmId": 864255937,
      "prefectureId": "saitama",
      "name": "草加市",
      "nameKana": "そうかし",
      "nameTranslations": {
        "en": "Soka"
      },
      "type": "市",
      "countryCode": "jp",
      "latitude": 35.8262233,
      "longitude": 139.8061784
    },
    {
      "id": "saitama_yashio",
      "osmId": 864255938,
      "prefectureId": "saitama",
      "name": "八潮市",
      "nameKana": null,
      "nameTranslations": {
        "en": "Yashio"
      },
      "type": "市",
      "countryCode": "jp",
      "latitude": 35.8226404,
      "longitude": 139.8386867
    },
    {
      "id": "saitama_koshigaya",
      "osmId": 864255939,
      "prefectureId": "saitama",
      "name": "越谷市",
      "nameKana": null,
      "nameTranslations": {
        "en": "Koshigaya"
      },
      "type": "市",
      "countryCode": "jp",
      "latitude": 35.8903993,
      "longitude": 139.7908633
    },
    {
      "id": "saitama_kawaguchi",
      "osmId": 864262454,
      "prefectureId": "saitama",
      "name": "川口市",
      "nameKana": null,
      "nameTranslations": {
        "en": "Kawaguchi"
      },
      "type": "市",
      "countryCode": "jp",
      "latitude": 35.8078228,
      "longitude": 139.7241054
    },
    {
      "id": "saitama_toda",
      "osmId": 864262458,
      "prefectureId": "saitama",
      "name": "戸田市",
      "nameKana": null,
      "nameTranslations": {
        "en": "Toda"
      },
      "type": "市",
      "countryCode": "jp",
      "latitude": 35.8175874,
      "longitude": 139.6778944
    },
    {
      "id": "saitama_warabi",
      "osmId": 864262459,
      "prefectureId": "saitama",
      "name": "蕨市",
      "nameKana": null,
      "nameTranslations": {
        "en": "Warabi"
      },
      "type": "市",
      "countryCode": "jp",
      "latitude": 35.8263705,
      "longitude": 139.6791302
    },
    {
      "id": "saitama_shiraoka",
      "osmId": 2716991002,
      "prefectureId": "saitama",
      "name": "白岡市",
      "nameKana": "しらおかし",
      "nameTranslations": {
        "en": "Shiraoka"
      },
      "type": "市",
      "countryCode": "jp",
      "latitude": 36.0186181,
      "longitude": 139.677099
    },
    {
      "id": "saitama_sakado",
      "osmId": 7165933146,
      "prefectureId": "saitama",
      "name": "坂戸市",
      "nameKana": "さかどし",
      "nameTranslations": {
        "en": "Sakado"
      },
      "type": "市",
      "countryCode": "jp",
      "latitude": 35.9572312,
      "longitude": 139.4029048
    },
    {
      "id": "saitama_hanyu",
      "osmId": 7165933147,
      "prefectureId": "saitama",
      "name": "羽生市",
      "nameKana": "はにゅうし",
      "nameTranslations": {
        "en": "Hanyu"
      },
      "type": "市",
      "countryCode": "jp",
      "latitude": 36.1724023,
      "longitude": 139.5484797
    }
  ],
  "machi": [
    {
      "id": "saitama_unknown_羽生",
      "osmId": 877904137,
      "name": "羽生",
      "nameKana": null,
      "nameTranslations": null,
      "latitude": 36.1766055,
      "longitude": 139.5292987,
      "lines": null,
      "prefectureId": "saitama",
      "cityId": null,
      "countryCode": "jp",
      "prefectureName": "埼玉県",
      "prefectureNameTranslations": null,
      "cityName": null,
      "cityNameTranslations": null,
      "placeType": "quarter"
    },
    {
      "id": "saitama_unknown_稲子",
      "osmId": 877913158,
      "name": "稲子",
      "nameKana": null,
      "nameTranslations": null,
      "latitude": 36.1866693,
      "longitude": 139.5444569,
      "lines": null,
      "prefectureId": "saitama",
      "cityId": null,
      "countryCode": "jp",
      "prefectureName": "埼玉県",
      "prefectureNameTranslations": null,
      "cityName": null,
      "cityNameTranslations": null,
      "placeType": "quarter"
    },
    {
      "id": "saitama_unknown_今泉",
      "osmId": 877921026,
      "name": "今泉",
      "nameKana": null,
      "nameTranslations": null,
      "latitude": 36.1812993,
      "longitude": 139.571093,
      "lines": null,
      "prefectureId": "saitama",
      "cityId": null,
      "countryCode": "jp",
      "prefectureName": "埼玉県",
      "prefectureNameTranslations": null,
      "cityName": null,
      "cityNameTranslations": null,
      "placeType": "quarter"
    },
    {
      "id": "saitama_unknown_大沼",
      "osmId": 877937199,
      "name": "大沼",
      "nameKana": null,
      "nameTranslations": null,
      "latitude": 36.1679229,
      "longitude": 139.566452,
      "lines": null,
      "prefectureId": "saitama",
      "cityId": null,
      "countryCode": "jp",
      "prefectureName": "埼玉県",
      "prefectureNameTranslations": null,
      "cityName": null,
      "cityNameTranslations": null,
      "placeType": "quarter"
    },
    {
      "id": "saitama_unknown_尾崎",
      "osmId": 877947282,
      "name": "尾崎",
      "nameKana": null,
      "nameTranslations": null,
      "latitude": 36.1877543,
      "longitude": 139.5532353,
      "lines": null,
      "prefectureId": "saitama",
      "cityId": null,
      "countryCode": "jp",
      "prefectureName": "埼玉県",
      "prefectureNameTranslations": null,
      "cityName": null,
      "cityNameTranslations": null,
      "placeType": "quarter"
    },
    {
      "id": "saitama_unknown_加羽ケ崎",
      "osmId": 877963657,
      "name": "加羽ケ崎",
      "nameKana": null,
      "nameTranslations": null,
      "latitude": 36.1552187,
      "longitude": 139.5420207,
      "lines": null,
      "prefectureId": "saitama",
      "cityId": null,
      "countryCode": "jp",
      "prefectureName": "埼玉県",
      "prefectureNameTranslations": null,
      "cityName": null,
      "cityNameTranslations": null,
      "placeType": "quarter"
    },
    {
      "id": "saitama_unknown_kami_iwase",
      "osmId": 877985754,
      "name": "上岩瀬",
      "nameKana": null,
      "nameTranslations": {
        "en": "Kami-iwase"
      },
      "latitude": 36.1635418,
      "longitude": 139.5154019,
      "lines": null,
      "prefectureId": "saitama",
      "cityId": null,
      "countryCode": "jp",
      "prefectureName": "埼玉県",
      "prefectureNameTranslations": null,
      "cityName": null,
      "cityNameTranslations": null,
      "placeType": "quarter"
    },
    {
      "id": "saitama_unknown_上川崎",
      "osmId": 878023837,
      "name": "上川崎",
      "nameKana": null,
      "nameTranslations": null,
      "latitude": 36.1429794,
      "longitude": 139.5341534,
      "lines": null,
      "prefectureId": "saitama",
      "cityId": null,
      "countryCode": "jp",
      "prefectureName": "埼玉県",
      "prefectureNameTranslations": null,
      "cityName": null,
      "cityNameTranslations": null,
      "placeType": "quarter"
    },
    {
      "id": "saitama_unknown_上新郷",
      "osmId": 878047356,
      "name": "上新郷",
      "nameKana": null,
      "nameTranslations": null,
      "latitude": 36.1703374,
      "longitude": 139.5029124,
      "lines": null,
      "prefectureId": "saitama",
      "cityId": null,
      "countryCode": "jp",
      "prefectureName": "埼玉県",
      "prefectureNameTranslations": null,
      "cityName": null,
      "cityNameTranslations": null,
      "placeType": "quarter"
    },
    {
      "id": "saitama_unknown_上川俣",
      "osmId": 878047360,
      "name": "上川俣",
      "nameKana": null,
      "nameTranslations": null,
      "latitude": 36.1865406,
      "longitude": 139.5222344,
      "lines": null,
      "prefectureId": "saitama",
      "cityId": null,
      "countryCode": "jp",
      "prefectureName": "埼玉県",
      "prefectureNameTranslations": null,
      "cityName": null,
      "cityNameTranslations": null,
      "placeType": "quarter"
    },
    {
      "id": "saitama_unknown_上手子林",
      "osmId": 878118922,
      "name": "上手子林",
      "nameKana": null,
      "nameTranslations": null,
      "latitude": 36.1570195,
      "longitude": 139.5602577,
      "lines": null,
      "prefectureId": "saitama",
      "cityId": null,
      "countryCode": "jp",
      "prefectureName": "埼玉県",
      "prefectureNameTranslations": null,
      "cityName": null,
      "cityNameTranslations": null,
      "placeType": "quarter"
    },
    {
      "id": "saitama_unknown_上羽生",
      "osmId": 878121031,
      "name": "上羽生",
      "nameKana": null,
      "nameTranslations": null,
      "latitude": 36.1688588,
      "longitude": 139.5493774,
      "lines": null,
      "prefectureId": "saitama",
      "cityId": null,
      "countryCode": "jp",
      "prefectureName": "埼玉県",
      "prefectureNameTranslations": null,
      "cityName": null,
      "cityNameTranslations": null,
      "placeType": "quarter"
    },
    {
      "id": "saitama_unknown_上村君",
      "osmId": 878122147,
      "name": "上村君",
      "nameKana": null,
      "nameTranslations": null,
      "latitude": 36.1926555,
      "longitude": 139.5735597,
      "lines": null,
      "prefectureId": "saitama",
      "cityId": null,
      "countryCode": "jp",
      "prefectureName": "埼玉県",
      "prefectureNameTranslations": null,
      "cityName": null,
      "cityNameTranslations": null,
      "placeType": "quarter"
    },
    {
      "id": "saitama_unknown_川崎",
      "osmId": 878122225,
      "name": "川崎",
      "nameKana": null,
      "nameTranslations": null,
      "latitude": 36.1435135,
      "longitude": 139.5458596,
      "lines": null,
      "prefectureId": "saitama",
      "cityId": null,
      "countryCode": "jp",
      "prefectureName": "埼玉県",
      "prefectureNameTranslations": null,
      "cityName": null,
      "cityNameTranslations": null,
      "placeType": "quarter"
    },
    {
      "id": "saitama_unknown_喜右エ門新田",
      "osmId": 878124180,
      "name": "喜右エ門新田",
      "nameKana": null,
      "nameTranslations": null,
      "latitude": 36.1758596,
      "longitude": 139.5800084,
      "lines": null,
      "prefectureId": "saitama",
      "cityId": null,
      "countryCode": "jp",
      "prefectureName": "埼玉県",
      "prefectureNameTranslations": null,
      "cityName": null,
      "cityNameTranslations": null,
      "placeType": "quarter"
    },
    {
      "id": "saitama_unknown_北",
      "osmId": 878127381,
      "name": "北",
      "nameKana": null,
      "nameTranslations": null,
      "latitude": 36.1755445,
      "longitude": 139.5342801,
      "lines": null,
      "prefectureId": "saitama",
      "cityId": null,
      "countryCode": "jp",
      "prefectureName": "埼玉県",
      "prefectureNameTranslations": null,
      "cityName": null,
      "cityNameTranslations": null,
      "placeType": "quarter"
    },
    {
      "id": "saitama_unknown_北荻島",
      "osmId": 878131027,
      "name": "北荻島",
      "nameKana": null,
      "nameTranslations": null,
      "latitude": 36.1680891,
      "longitude": 139.5803616,
      "lines": null,
      "prefectureId": "saitama",
      "cityId": null,
      "countryCode": "jp",
      "prefectureName": "埼玉県",
      "prefectureNameTranslations": null,
      "cityName": null,
      "cityNameTranslations": null,
      "placeType": "quarter"
    },
    {
      "id": "saitama_unknown_北袋",
      "osmId": 878135773,
      "name": "北袋",
      "nameKana": null,
      "nameTranslations": null,
      "latitude": 36.1679692,
      "longitude": 139.5585177,
      "lines": null,
      "prefectureId": "saitama",
      "cityId": null,
      "countryCode": "jp",
      "prefectureName": "埼玉県",
      "prefectureNameTranslations": null,
      "cityName": null,
      "cityNameTranslations": null,
      "placeType": "quarter"
    },
    {
      "id": "saitama_unknown_桑崎",
      "osmId": 878138852,
      "name": "桑崎",
      "nameKana": null,
      "nameTranslations": null,
      "latitude": 36.1738682,
      "longitude": 139.5223041,
      "lines": null,
      "prefectureId": "saitama",
      "cityId": null,
      "countryCode": "jp",
      "prefectureName": "埼玉県",
      "prefectureNameTranslations": null,
      "cityName": null,
      "cityNameTranslations": null,
      "placeType": "quarter"
    },
    {
      "id": "saitama_unknown_小須賀",
      "osmId": 878151570,
      "name": "小須賀",
      "nameKana": null,
      "nameTranslations": null,
      "latitude": 36.1819385,
      "longitude": 139.5133326,
      "lines": null,
      "prefectureId": "saitama",
      "cityId": null,
      "countryCode": "jp",
      "prefectureName": "埼玉県",
      "prefectureNameTranslations": null,
      "cityName": null,
      "cityNameTranslations": null,
      "placeType": "quarter"
    },
    {
      "id": "saitama_unknown_小松",
      "osmId": 878152387,
      "name": "小松",
      "nameKana": null,
      "nameTranslations": null,
      "latitude": 36.1560122,
      "longitude": 139.5278249,
      "lines": null,
      "prefectureId": "saitama",
      "cityId": null,
      "countryCode": "jp",
      "prefectureName": "埼玉県",
      "prefectureNameTranslations": null,
      "cityName": null,
      "cityNameTranslations": null,
      "placeType": "quarter"
    },
    {
      "id": "saitama_unknown_小松台",
      "osmId": 878152412,
      "name": "小松台",
      "nameKana": null,
      "nameTranslations": null,
      "latitude": 36.1536839,
      "longitude": 139.5342578,
      "lines": null,
      "prefectureId": "saitama",
      "cityId": null,
      "countryCode": "jp",
      "prefectureName": "埼玉県",
      "prefectureNameTranslations": null,
      "cityName": null,
      "cityNameTranslations": null,
      "placeType": "quarter"
    },
    {
      "id": "saitama_unknown_神戸",
      "osmId": 878153117,
      "name": "神戸",
      "nameKana": null,
      "nameTranslations": null,
      "latitude": 36.1423583,
      "longitude": 139.5598128,
      "lines": null,
      "prefectureId": "saitama",
      "cityId": null,
      "countryCode": "jp",
      "prefectureName": "埼玉県",
      "prefectureNameTranslations": null,
      "cityName": null,
      "cityNameTranslations": null,
      "placeType": "quarter"
    },
    {
      "id": "saitama_unknown_shimo_iwase",
      "osmId": 878155820,
      "name": "下岩瀬",
      "nameKana": null,
      "nameTranslations": {
        "en": "Shimo-iwase"
      },
      "latitude": 36.1594198,
      "longitude": 139.5234846,
      "lines": null,
      "prefectureId": "saitama",
      "cityId": null,
      "countryCode": "jp",
      "prefectureName": "埼玉県",
      "prefectureNameTranslations": null,
      "cityName": null,
      "cityNameTranslations": null,
      "placeType": "quarter"
    },
    {
      "id": "saitama_unknown_下川崎",
      "osmId": 878159133,
      "name": "下川崎",
      "nameKana": null,
      "nameTranslations": null,
      "latitude": 36.1385905,
      "longitude": 139.5445117,
      "lines": null,
      "prefectureId": "saitama",
      "cityId": null,
      "countryCode": "jp",
      "prefectureName": "埼玉県",
      "prefectureNameTranslations": null,
      "cityName": null,
      "cityNameTranslations": null,
      "placeType": "quarter"
    },
    {
      "id": "saitama_unknown_下新郷",
      "osmId": 878161957,
      "name": "下新郷",
      "nameKana": null,
      "nameTranslations": null,
      "latitude": 36.1444487,
      "longitude": 139.5184246,
      "lines": null,
      "prefectureId": "saitama",
      "cityId": null,
      "countryCode": "jp",
      "prefectureName": "埼玉県",
      "prefectureNameTranslations": null,
      "cityName": null,
      "cityNameTranslations": null,
      "placeType": "quarter"
    },
    {
      "id": "saitama_unknown_下新田",
      "osmId": 878165331,
      "name": "下新田",
      "nameKana": null,
      "nameTranslations": null,
      "latitude": 36.1566003,
      "longitude": 139.5120983,
      "lines": null,
      "prefectureId": "saitama",
      "cityId": null,
      "countryCode": "jp",
      "prefectureName": "埼玉県",
      "prefectureNameTranslations": null,
      "cityName": null,
      "cityNameTranslations": null,
      "placeType": "quarter"
    },
    {
      "id": "saitama_unknown_下手子林",
      "osmId": 878167267,
      "name": "下手子林",
      "nameKana": null,
      "nameTranslations": null,
      "latitude": 36.1549591,
      "longitude": 139.575466,
      "lines": null,
      "prefectureId": "saitama",
      "cityId": null,
      "countryCode": "jp",
      "prefectureName": "埼玉県",
      "prefectureNameTranslations": null,
      "cityName": null,
      "cityNameTranslations": null,
      "placeType": "quarter"
    },
    {
      "id": "saitama_unknown_下羽生",
      "osmId": 878169360,
      "name": "下羽生",
      "nameKana": null,
      "nameTranslations": null,
      "latitude": 36.1649032,
      "longitude": 139.5523623,
      "lines": null,
      "prefectureId": "saitama",
      "cityId": null,
      "countryCode": "jp",
      "prefectureName": "埼玉県",
      "prefectureNameTranslations": null,
      "cityName": null,
      "cityNameTranslations": null,
      "placeType": "quarter"
    },
    {
      "id": "saitama_unknown_下村君",
      "osmId": 878180171,
      "name": "下村君",
      "nameKana": null,
      "nameTranslations": null,
      "latitude": 36.2015067,
      "longitude": 139.5847348,
      "lines": null,
      "prefectureId": "saitama",
      "cityId": null,
      "countryCode": "jp",
      "prefectureName": "埼玉県",
      "prefectureNameTranslations": null,
      "cityName": null,
      "cityNameTranslations": null,
      "placeType": "quarter"
    },
    {
      "id": "saitama_unknown_須影",
      "osmId": 878187552,
      "name": "須影",
      "nameKana": null,
      "nameTranslations": null,
      "latitude": 36.1491369,
      "longitude": 139.5463768,
      "lines": null,
      "prefectureId": "saitama",
      "cityId": null,
      "countryCode": "jp",
      "prefectureName": "埼玉県",
      "prefectureNameTranslations": null,
      "cityName": null,
      "cityNameTranslations": null,
      "placeType": "quarter"
    },
    {
      "id": "saitama_unknown_砂山",
      "osmId": 878189236,
      "name": "砂山",
      "nameKana": null,
      "nameTranslations": null,
      "latitude": 36.1473475,
      "longitude": 139.5304184,
      "lines": null,
      "prefectureId": "saitama",
      "cityId": null,
      "countryCode": "jp",
      "prefectureName": "埼玉県",
      "prefectureNameTranslations": null,
      "cityName": null,
      "cityNameTranslations": null,
      "placeType": "quarter"
    },
    {
      "id": "saitama_unknown_中央",
      "osmId": 878191140,
      "name": "中央",
      "nameKana": null,
      "nameTranslations": null,
      "latitude": 36.172734,
      "longitude": 139.5382976,
      "lines": null,
      "prefectureId": "saitama",
      "cityId": null,
      "countryCode": "jp",
      "prefectureName": "埼玉県",
      "prefectureNameTranslations": null,
      "cityName": null,
      "cityNameTranslations": null,
      "placeType": "quarter"
    },
    {
      "id": "saitama_unknown_堤",
      "osmId": 878219206,
      "name": "堤",
      "nameKana": null,
      "nameTranslations": null,
      "latitude": 36.2020864,
      "longitude": 139.5920156,
      "lines": null,
      "prefectureId": "saitama",
      "cityId": null,
      "countryCode": "jp",
      "prefectureName": "埼玉県",
      "prefectureNameTranslations": null,
      "cityName": null,
      "cityNameTranslations": null,
      "placeType": "quarter"
    },
    {
      "id": "saitama_unknown_常木",
      "osmId": 878219335,
      "name": "常木",
      "nameKana": null,
      "nameTranslations": null,
      "latitude": 36.1918457,
      "longitude": 139.5975148,
      "lines": null,
      "prefectureId": "saitama",
      "cityId": null,
      "countryCode": "jp",
      "prefectureName": "埼玉県",
      "prefectureNameTranslations": null,
      "cityName": null,
      "cityNameTranslations": null,
      "placeType": "quarter"
    },
    {
      "id": "saitama_unknown_中岩瀬",
      "osmId": 878219538,
      "name": "中岩瀬",
      "nameKana": null,
      "nameTranslations": null,
      "latitude": 36.1626544,
      "longitude": 139.5342888,
      "lines": null,
      "prefectureId": "saitama",
      "cityId": null,
      "countryCode": "jp",
      "prefectureName": "埼玉県",
      "prefectureNameTranslations": null,
      "cityName": null,
      "cityNameTranslations": null,
      "placeType": "quarter"
    },
    {
      "id": "saitama_unknown_日野手新田",
      "osmId": 878224160,
      "name": "日野手新田",
      "nameKana": null,
      "nameTranslations": null,
      "latitude": 36.1679138,
      "longitude": 139.5975335,
      "lines": null,
      "prefectureId": "saitama",
      "cityId": null,
      "countryCode": "jp",
      "prefectureName": "埼玉県",
      "prefectureNameTranslations": null,
      "cityName": null,
      "cityNameTranslations": null,
      "placeType": "quarter"
    },
    {
      "id": "saitama_unknown_西",
      "osmId": 878224163,
      "name": "西",
      "nameKana": null,
      "nameTranslations": null,
      "latitude": 36.1693425,
      "longitude": 139.5309826,
      "lines": null,
      "prefectureId": "saitama",
      "cityId": null,
      "countryCode": "jp",
      "prefectureName": "埼玉県",
      "prefectureNameTranslations": null,
      "cityName": null,
      "cityNameTranslations": null,
      "placeType": "quarter"
    },
    {
      "id": "saitama_unknown_東",
      "osmId": 878224164,
      "name": "東",
      "nameKana": null,
      "nameTranslations": null,
      "latitude": 36.1732416,
      "longitude": 139.5467755,
      "lines": null,
      "prefectureId": "saitama",
      "cityId": null,
      "countryCode": "jp",
      "prefectureName": "埼玉県",
      "prefectureNameTranslations": null,
      "cityName": null,
      "cityNameTranslations": null,
      "placeType": "quarter"
    },
    {
      "id": "saitama_unknown_秀安",
      "osmId": 878224166,
      "name": "秀安",
      "nameKana": null,
      "nameTranslations": null,
      "latitude": 36.1584783,
      "longitude": 139.5494897,
      "lines": null,
      "prefectureId": "saitama",
      "cityId": null,
      "countryCode": "jp",
      "prefectureName": "埼玉県",
      "prefectureNameTranslations": null,
      "cityName": null,
      "cityNameTranslations": null,
      "placeType": "quarter"
    },
    {
      "id": "saitama_unknown_中手子林",
      "osmId": 878224167,
      "name": "中手子林",
      "nameKana": null,
      "nameTranslations": null,
      "latitude": 36.162854,
      "longitude": 139.5770674,
      "lines": null,
      "prefectureId": "saitama",
      "cityId": null,
      "countryCode": "jp",
      "prefectureName": "埼玉県",
      "prefectureNameTranslations": null,
      "cityName": null,
      "cityNameTranslations": null,
      "placeType": "quarter"
    },
    {
      "id": "saitama_unknown_発戸",
      "osmId": 878234557,
      "name": "発戸",
      "nameKana": null,
      "nameTranslations": null,
      "latitude": 36.1905833,
      "longitude": 139.5640017,
      "lines": null,
      "prefectureId": "saitama",
      "cityId": null,
      "countryCode": "jp",
      "prefectureName": "埼玉県",
      "prefectureNameTranslations": null,
      "cityName": null,
      "cityNameTranslations": null,
      "placeType": "quarter"
    },
    {
      "id": "saitama_unknown_藤井上組",
      "osmId": 878234558,
      "name": "藤井上組",
      "nameKana": null,
      "nameTranslations": null,
      "latitude": 36.1809847,
      "longitude": 139.5504661,
      "lines": null,
      "prefectureId": "saitama",
      "cityId": null,
      "countryCode": "jp",
      "prefectureName": "埼玉県",
      "prefectureNameTranslations": null,
      "cityName": null,
      "cityNameTranslations": null,
      "placeType": "quarter"
    },
    {
      "id": "saitama_unknown_藤井下組",
      "osmId": 878234559,
      "name": "藤井下組",
      "nameKana": null,
      "nameTranslations": null,
      "latitude": 36.1765888,
      "longitude": 139.5587155,
      "lines": null,
      "prefectureId": "saitama",
      "cityId": null,
      "countryCode": "jp",
      "prefectureName": "埼玉県",
      "prefectureNameTranslations": null,
      "cityName": null,
      "cityNameTranslations": null,
      "placeType": "quarter"
    },
    {
      "id": "saitama_unknown_町屋",
      "osmId": 878238648,
      "name": "町屋",
      "nameKana": null,
      "nameTranslations": null,
      "latitude": 36.1428357,
      "longitude": 139.567955,
      "lines": null,
      "prefectureId": "saitama",
      "cityId": null,
      "countryCode": "jp",
      "prefectureName": "埼玉県",
      "prefectureNameTranslations": null,
      "cityName": null,
      "cityNameTranslations": null,
      "placeType": "quarter"
    },
    {
      "id": "saitama_unknown_本川俣",
      "osmId": 878238649,
      "name": "本川俣",
      "nameKana": null,
      "nameTranslations": null,
      "latitude": 36.1863563,
      "longitude": 139.5346349,
      "lines": null,
      "prefectureId": "saitama",
      "cityId": null,
      "countryCode": "jp",
      "prefectureName": "埼玉県",
      "prefectureNameTranslations": null,
      "cityName": null,
      "cityNameTranslations": null,
      "placeType": "quarter"
    },
    {
      "id": "saitama_unknown_名",
      "osmId": 878238650,
      "name": "名",
      "nameKana": null,
      "nameTranslations": null,
      "latitude": 36.1986686,
      "longitude": 139.5994492,
      "lines": null,
      "prefectureId": "saitama",
      "cityId": null,
      "countryCode": "jp",
      "prefectureName": "埼玉県",
      "prefectureNameTranslations": null,
      "cityName": null,
      "cityNameTranslations": null,
      "placeType": "quarter"
    },
    {
      "id": "saitama_unknown_弥勒",
      "osmId": 878238651,
      "name": "弥勒",
      "nameKana": null,
      "nameTranslations": null,
      "latitude": 36.1829384,
      "longitude": 139.5876112,
      "lines": null,
      "prefectureId": "saitama",
      "cityId": null,
      "countryCode": "jp",
      "prefectureName": "埼玉県",
      "prefectureNameTranslations": null,
      "cityName": null,
      "cityNameTranslations": null,
      "placeType": "quarter"
    },
    {
      "id": "saitama_unknown_与兵エ新田",
      "osmId": 878238652,
      "name": "与兵エ新田",
      "nameKana": null,
      "nameTranslations": null,
      "latitude": 36.1777545,
      "longitude": 139.5955732,
      "lines": null,
      "prefectureId": "saitama",
      "cityId": null,
      "countryCode": "jp",
      "prefectureName": "埼玉県",
      "prefectureNameTranslations": null,
      "cityName": null,
      "cityNameTranslations": null,
      "placeType": "quarter"
    },
    {
      "id": "saitama_unknown_南羽生",
      "osmId": 878238653,
      "name": "南羽生",
      "nameKana": null,
      "nameTranslations": null,
      "latitude": 36.1505553,
      "longitude": 139.5582993,
      "lines": null,
      "prefectureId": "saitama",
      "cityId": null,
      "countryCode": "jp",
      "prefectureName": "埼玉県",
      "prefectureNameTranslations": null,
      "cityName": null,
      "cityNameTranslations": null,
      "placeType": "quarter"
    },
    {
      "id": "saitama_unknown_三田ケ谷",
      "osmId": 878238654,
      "name": "三田ケ谷",
      "nameKana": null,
      "nameTranslations": null,
      "latitude": 36.1758996,
      "longitude": 139.6029645,
      "lines": null,
      "prefectureId": "saitama",
      "cityId": null,
      "countryCode": "jp",
      "prefectureName": "埼玉県",
      "prefectureNameTranslations": null,
      "cityName": null,
      "cityNameTranslations": null,
      "placeType": "quarter"
    },
    {
      "id": "saitama_chichibu_otaki",
      "osmId": 2502721768,
      "name": "大滝",
      "nameKana": null,
      "nameTranslations": {
        "en": "Otaki"
      },
      "latitude": 35.9525367,
      "longitude": 138.9371768,
      "lines": null,
      "prefectureId": "saitama",
      "cityId": "saitama_chichibu",
      "countryCode": "jp",
      "prefectureName": "埼玉県",
      "prefectureNameTranslations": null,
      "cityName": "秩父市",
      "cityNameTranslations": null,
      "placeType": "quarter"
    },
    {
      "id": "saitama_chichibu_mitsumine",
      "osmId": 2502724962,
      "name": "三峰",
      "nameKana": null,
      "nameTranslations": {
        "en": "Mitsumine"
      },
      "latitude": 35.9267142,
      "longitude": 138.9267752,
      "lines": null,
      "prefectureId": "saitama",
      "cityId": "saitama_chichibu",
      "countryCode": "jp",
      "prefectureName": "埼玉県",
      "prefectureNameTranslations": null,
      "cityName": "秩父市",
      "cityNameTranslations": null,
      "placeType": "quarter"
    },
    {
      "id": "saitama_chichibu_arakawashiroku",
      "osmId": 2502727606,
      "name": "荒川白久",
      "nameKana": null,
      "nameTranslations": {
        "en": "Arakawashiroku"
      },
      "latitude": 35.9592432,
      "longitude": 138.9793109,
      "lines": null,
      "prefectureId": "saitama",
      "cityId": "saitama_chichibu",
      "countryCode": "jp",
      "prefectureName": "埼玉県",
      "prefectureNameTranslations": null,
      "cityName": "秩父市",
      "cityNameTranslations": null,
      "placeType": "quarter"
    },
    {
      "id": "saitama_chichibu_arakawaniegawa",
      "osmId": 2502731486,
      "name": "荒川贄川",
      "nameKana": null,
      "nameTranslations": {
        "en": "Arakawaniegawa"
      },
      "latitude": 35.9658652,
      "longitude": 138.9774495,
      "lines": null,
      "prefectureId": "saitama",
      "cityId": "saitama_chichibu",
      "countryCode": "jp",
      "prefectureName": "埼玉県",
      "prefectureNameTranslations": null,
      "cityName": "秩父市",
      "cityNameTranslations": null,
      "placeType": "quarter"
    },
    {
      "id": "saitama_unknown_kamikocho",
      "osmId": 2816157189,
      "name": "上小町",
      "nameKana": "かみこちょう",
      "nameTranslations": {
        "en": "Kamikocho"
      },
      "latitude": 35.900605,
      "longitude": 139.6112282,
      "lines": null,
      "prefectureId": "saitama",
      "cityId": null,
      "countryCode": "jp",
      "prefectureName": "埼玉県",
      "prefectureNameTranslations": null,
      "cityName": null,
      "cityNameTranslations": null,
      "placeType": "quarter"
    },
    {
      "id": "saitama_unknown_kobushicho",
      "osmId": 3048360021,
      "name": "こぶし町",
      "nameKana": null,
      "nameTranslations": {
        "en": "Kobushicho"
      },
      "latitude": 35.799888,
      "longitude": 139.48466,
      "lines": null,
      "prefectureId": "saitama",
      "cityId": null,
      "countryCode": "jp",
      "prefectureName": "埼玉県",
      "prefectureNameTranslations": null,
      "cityName": null,
      "cityNameTranslations": null,
      "placeType": "quarter"
    },
    {
      "id": "saitama_unknown_namiki_7_chome",
      "osmId": 3048360077,
      "name": "並木7",
      "nameKana": null,
      "nameTranslations": {
        "en": "Namiki 7-chome"
      },
      "latitude": 35.8079204,
      "longitude": 139.4784515,
      "lines": null,
      "prefectureId": "saitama",
      "cityId": null,
      "countryCode": "jp",
      "prefectureName": "埼玉県",
      "prefectureNameTranslations": null,
      "cityName": null,
      "cityNameTranslations": null,
      "placeType": "quarter"
    },
    {
      "id": "saitama_unknown_元",
      "osmId": 3048360093,
      "name": "元町",
      "nameKana": null,
      "nameTranslations": null,
      "latitude": 35.789561,
      "longitude": 139.464911,
      "lines": null,
      "prefectureId": "saitama",
      "cityId": null,
      "countryCode": "jp",
      "prefectureName": "埼玉県",
      "prefectureNameTranslations": null,
      "cityName": null,
      "cityNameTranslations": null,
      "placeType": "quarter"
    },
    {
      "id": "saitama_unknown_北所沢",
      "osmId": 3048360099,
      "name": "北所沢町",
      "nameKana": null,
      "nameTranslations": null,
      "latitude": 35.811009,
      "longitude": 139.453573,
      "lines": null,
      "prefectureId": "saitama",
      "cityId": null,
      "countryCode": "jp",
      "prefectureName": "埼玉県",
      "prefectureNameTranslations": null,
      "cityName": null,
      "cityNameTranslations": null,
      "placeType": "quarter"
    },
    {
      "id": "saitama_unknown_kita_yurakucho",
      "osmId": 3048360100,
      "name": "北有楽町",
      "nameKana": null,
      "nameTranslations": {
        "en": "Kita Yurakucho"
      },
      "latitude": 35.795863,
      "longitude": 139.465918,
      "lines": null,
      "prefectureId": "saitama",
      "cityId": null,
      "countryCode": "jp",
      "prefectureName": "埼玉県",
      "prefectureNameTranslations": null,
      "cityName": null,
      "cityNameTranslations": null,
      "placeType": "quarter"
    },
    {
      "id": "saitama_unknown_minami_sumiyoshi",
      "osmId": 3048360109,
      "name": "南住吉",
      "nameKana": null,
      "nameTranslations": {
        "en": "Minami Sumiyoshi"
      },
      "latitude": 35.78231,
      "longitude": 139.469301,
      "lines": null,
      "prefectureId": "saitama",
      "cityId": null,
      "countryCode": "jp",
      "prefectureName": "埼玉県",
      "prefectureNameTranslations": null,
      "cityName": null,
      "cityNameTranslations": null,
      "placeType": "quarter"
    },
    {
      "id": "saitama_unknown_向陽",
      "osmId": 3048360110,
      "name": "向陽町",
      "nameKana": null,
      "nameTranslations": null,
      "latitude": 35.811108,
      "longitude": 139.44759,
      "lines": null,
      "prefectureId": "saitama",
      "cityId": null,
      "countryCode": "jp",
      "prefectureName": "埼玉県",
      "prefectureNameTranslations": null,
      "cityName": null,
      "cityNameTranslations": null,
      "placeType": "quarter"
    },
    {
      "id": "saitama_unknown_喜多",
      "osmId": 3048360114,
      "name": "喜多町",
      "nameKana": null,
      "nameTranslations": null,
      "latitude": 35.799009,
      "longitude": 139.463179,
      "lines": null,
      "prefectureId": "saitama",
      "cityId": null,
      "countryCode": "jp",
      "prefectureName": "埼玉県",
      "prefectureNameTranslations": null,
      "cityName": null,
      "cityNameTranslations": null,
      "placeType": "quarter"
    },
    {
      "id": "saitama_unknown_堀之内",
      "osmId": 3048360115,
      "name": "堀之内",
      "nameKana": null,
      "nameTranslations": null,
      "latitude": 35.787023,
      "longitude": 139.394528,
      "lines": null,
      "prefectureId": "saitama",
      "cityId": null,
      "countryCode": "jp",
      "prefectureName": "埼玉県",
      "prefectureNameTranslations": null,
      "cityName": null,
      "cityNameTranslations": null,
      "placeType": "quarter"
    },
    {
      "id": "saitama_unknown_大字上安松",
      "osmId": 3048360116,
      "name": "大字上安松",
      "nameKana": null,
      "nameTranslations": null,
      "latitude": 35.787329,
      "longitude": 139.489907,
      "lines": null,
      "prefectureId": "saitama",
      "cityId": null,
      "countryCode": "jp",
      "prefectureName": "埼玉県",
      "prefectureNameTranslations": null,
      "cityName": null,
      "cityNameTranslations": null,
      "placeType": "quarter"
    },
    {
      "id": "saitama_unknown_大字上山口",
      "osmId": 3048360117,
      "name": "大字上山口",
      "nameKana": null,
      "nameTranslations": null,
      "latitude": 35.777297,
      "longitude": 139.423138,
      "lines": null,
      "prefectureId": "saitama",
      "cityId": null,
      "countryCode": "jp",
      "prefectureName": "埼玉県",
      "prefectureNameTranslations": null,
      "cityName": null,
      "cityNameTranslations": null,
      "placeType": "quarter"
    },
    {
      "id": "saitama_unknown_大字下安松",
      "osmId": 3048360118,
      "name": "大字下安松",
      "nameKana": null,
      "nameTranslations": null,
      "latitude": 35.787367,
      "longitude": 139.504722,
      "lines": null,
      "prefectureId": "saitama",
      "cityId": null,
      "countryCode": "jp",
      "prefectureName": "埼玉県",
      "prefectureNameTranslations": null,
      "cityName": null,
      "cityNameTranslations": null,
      "placeType": "quarter"
    },
    {
      "id": "saitama_unknown_大字下富",
      "osmId": 3048360119,
      "name": "大字下富",
      "nameKana": null,
      "nameTranslations": null,
      "latitude": 35.833412,
      "longitude": 139.46153,
      "lines": null,
      "prefectureId": "saitama",
      "cityId": null,
      "countryCode": "jp",
      "prefectureName": "埼玉県",
      "prefectureNameTranslations": null,
      "cityName": null,
      "cityNameTranslations": null,
      "placeType": "quarter"
    },
    {
      "id": "saitama_unknown_下新井",
      "osmId": 3048360120,
      "name": "下新井",
      "nameKana": null,
      "nameTranslations": null,
      "latitude": 35.8087757,
      "longitude": 139.4946183,
      "lines": null,
      "prefectureId": "saitama",
      "cityId": null,
      "countryCode": "jp",
      "prefectureName": "埼玉県",
      "prefectureNameTranslations": null,
      "cityName": null,
      "cityNameTranslations": null,
      "placeType": "quarter"
    },
    {
      "id": "saitama_unknown_大字中富",
      "osmId": 3048360121,
      "name": "大字中富",
      "nameKana": null,
      "nameTranslations": null,
      "latitude": 35.819263,
      "longitude": 139.486973,
      "lines": null,
      "prefectureId": "saitama",
      "cityId": null,
      "countryCode": "jp",
      "prefectureName": "埼玉県",
      "prefectureNameTranslations": null,
      "cityName": null,
      "cityNameTranslations": null,
      "placeType": "quarter"
    },
    {
      "id": "saitama_unknown_大字中新井",
      "osmId": 3048360122,
      "name": "大字中新井",
      "nameKana": null,
      "nameTranslations": null,
      "latitude": 35.8192088,
      "longitude": 139.4716727,
      "lines": null,
      "prefectureId": "saitama",
      "cityId": null,
      "countryCode": "jp",
      "prefectureName": "埼玉県",
      "prefectureNameTranslations": null,
      "cityName": null,
      "cityNameTranslations": null,
      "placeType": "quarter"
    },
    {
      "id": "saitama_unknown_大字久米",
      "osmId": 3048360123,
      "name": "大字久米",
      "nameKana": null,
      "nameTranslations": null,
      "latitude": 35.779447,
      "longitude": 139.46281,
      "lines": null,
      "prefectureId": "saitama",
      "cityId": null,
      "countryCode": "jp",
      "prefectureName": "埼玉県",
      "prefectureNameTranslations": null,
      "cityName": null,
      "cityNameTranslations": null,
      "placeType": "quarter"
    },
    {
      "id": "saitama_unknown_kamegaya",
      "osmId": 3048360124,
      "name": "亀ケ谷",
      "nameKana": null,
      "nameTranslations": {
        "en": "Kamegaya"
      },
      "latitude": 35.8082683,
      "longitude": 139.5178944,
      "lines": null,
      "prefectureId": "saitama",
      "cityId": null,
      "countryCode": "jp",
      "prefectureName": "埼玉県",
      "prefectureNameTranslations": null,
      "cityName": null,
      "cityNameTranslations": null,
      "placeType": "quarter"
    },
    {
      "id": "saitama_unknown_大字勝楽寺",
      "osmId": 3048360125,
      "name": "大字勝楽寺",
      "nameKana": null,
      "nameTranslations": null,
      "latitude": 35.7732336,
      "longitude": 139.3980264,
      "lines": null,
      "prefectureId": "saitama",
      "cityId": null,
      "countryCode": "jp",
      "prefectureName": "埼玉県",
      "prefectureNameTranslations": null,
      "cityName": null,
      "cityNameTranslations": null,
      "placeType": "quarter"
    },
    {
      "id": "saitama_unknown_大字北岩岡",
      "osmId": 3048360126,
      "name": "大字北岩岡",
      "nameKana": null,
      "nameTranslations": null,
      "latitude": 35.821219,
      "longitude": 139.447259,
      "lines": null,
      "prefectureId": "saitama",
      "cityId": null,
      "countryCode": "jp",
      "prefectureName": "埼玉県",
      "prefectureNameTranslations": null,
      "cityName": null,
      "cityNameTranslations": null,
      "placeType": "quarter"
    },
    {
      "id": "saitama_unknown_大字北秋津",
      "osmId": 3048360127,
      "name": "大字北秋津",
      "nameKana": null,
      "nameTranslations": null,
      "latitude": 35.78164,
      "longitude": 139.47989,
      "lines": null,
      "prefectureId": "saitama",
      "cityId": null,
      "countryCode": "jp",
      "prefectureName": "埼玉県",
      "prefectureNameTranslations": null,
      "cityName": null,
      "cityNameTranslations": null,
      "placeType": "quarter"
    },
    {
      "id": "saitama_unknown_南永井",
      "osmId": 3048360128,
      "name": "南永井",
      "nameKana": null,
      "nameTranslations": null,
      "latitude": 35.8156718,
      "longitude": 139.52205,
      "lines": null,
      "prefectureId": "saitama",
      "cityId": null,
      "countryCode": "jp",
      "prefectureName": "埼玉県",
      "prefectureNameTranslations": null,
      "cityName": null,
      "cityNameTranslations": null,
      "placeType": "quarter"
    },
    {
      "id": "saitama_unknown_sakanoshita",
      "osmId": 3048360129,
      "name": "坂之下",
      "nameKana": null,
      "nameTranslations": {
        "en": "Sakanoshita"
      },
      "latitude": 35.8089068,
      "longitude": 139.5355483,
      "lines": null,
      "prefectureId": "saitama",
      "cityId": null,
      "countryCode": "jp",
      "prefectureName": "埼玉県",
      "prefectureNameTranslations": null,
      "cityName": null,
      "cityNameTranslations": null,
      "placeType": "quarter"
    },
    {
      "id": "saitama_unknown_shiro",
      "osmId": 3048360130,
      "name": "城",
      "nameKana": null,
      "nameTranslations": {
        "en": "Shiro"
      },
      "latitude": 35.8028142,
      "longitude": 139.527495,
      "lines": null,
      "prefectureId": "saitama",
      "cityId": null,
      "countryCode": "jp",
      "prefectureName": "埼玉県",
      "prefectureNameTranslations": null,
      "cityName": null,
      "cityNameTranslations": null,
      "placeType": "quarter"
    },
    {
      "id": "saitama_unknown_大字山口",
      "osmId": 3048360131,
      "name": "大字山口",
      "nameKana": null,
      "nameTranslations": null,
      "latitude": 35.776053,
      "longitude": 139.435475,
      "lines": null,
      "prefectureId": "saitama",
      "cityId": null,
      "countryCode": "jp",
      "prefectureName": "埼玉県",
      "prefectureNameTranslations": null,
      "cityName": null,
      "cityNameTranslations": null,
      "placeType": "quarter"
    },
    {
      "id": "saitama_unknown_kitaharacho",
      "osmId": 3048360154,
      "name": "北原町",
      "nameKana": null,
      "nameTranslations": {
        "en": "Kitaharacho"
      },
      "latitude": 35.8075173,
      "longitude": 139.4855865,
      "lines": null,
      "prefectureId": "saitama",
      "cityId": null,
      "countryCode": "jp",
      "prefectureName": "埼玉県",
      "prefectureNameTranslations": null,
      "cityName": null,
      "cityNameTranslations": null,
      "placeType": "quarter"
    },
    {
      "id": "saitama_unknown_shingo",
      "osmId": 3048360188,
      "name": "新郷",
      "nameKana": null,
      "nameTranslations": {
        "en": "Shingo"
      },
      "latitude": 35.8026655,
      "longitude": 139.5063888,
      "lines": null,
      "prefectureId": "saitama",
      "cityId": null,
      "countryCode": "jp",
      "prefectureName": "埼玉県",
      "prefectureNameTranslations": null,
      "cityName": null,
      "cityNameTranslations": null,
      "placeType": "quarter"
    },
    {
      "id": "saitama_unknown_oaza_hongo",
      "osmId": 3048360190,
      "name": "大字本郷",
      "nameKana": null,
      "nameTranslations": {
        "en": "Oaza Hongo"
      },
      "latitude": 35.793162,
      "longitude": 139.517461,
      "lines": null,
      "prefectureId": "saitama",
      "cityId": null,
      "countryCode": "jp",
      "prefectureName": "埼玉県",
      "prefectureNameTranslations": null,
      "cityName": null,
      "cityNameTranslations": null,
      "placeType": "quarter"
    },
    {
      "id": "saitama_unknown_matsugo",
      "osmId": 3048360191,
      "name": "松郷",
      "nameKana": "まつごう",
      "nameTranslations": {
        "en": "Matsugo"
      },
      "latitude": 35.797507,
      "longitude": 139.5012631,
      "lines": null,
      "prefectureId": "saitama",
      "cityId": null,
      "countryCode": "jp",
      "prefectureName": "埼玉県",
      "prefectureNameTranslations": null,
      "cityName": null,
      "cityNameTranslations": null,
      "placeType": "quarter"
    },
    {
      "id": "saitama_unknown_oaza_ushinuma",
      "osmId": 3048360192,
      "name": "大字牛沼",
      "nameKana": null,
      "nameTranslations": {
        "en": "Oaza Ushinuma"
      },
      "latitude": 35.796419,
      "longitude": 139.490866,
      "lines": null,
      "prefectureId": "saitama",
      "cityId": null,
      "countryCode": "jp",
      "prefectureName": "埼玉県",
      "prefectureNameTranslations": null,
      "cityName": null,
      "cityNameTranslations": null,
      "placeType": "quarter"
    },
    {
      "id": "saitama_unknown_大字神米金",
      "osmId": 3048360193,
      "name": "大字神米金",
      "nameKana": null,
      "nameTranslations": null,
      "latitude": 35.824418,
      "longitude": 139.466936,
      "lines": null,
      "prefectureId": "saitama",
      "cityId": null,
      "countryCode": "jp",
      "prefectureName": "埼玉県",
      "prefectureNameTranslations": null,
      "cityName": null,
      "cityNameTranslations": null,
      "placeType": "quarter"
    },
    {
      "id": "saitama_unknown_大字荒幡",
      "osmId": 3048360194,
      "name": "大字荒幡",
      "nameKana": null,
      "nameTranslations": null,
      "latitude": 35.777709,
      "longitude": 139.447383,
      "lines": null,
      "prefectureId": "saitama",
      "cityId": null,
      "countryCode": "jp",
      "prefectureName": "埼玉県",
      "prefectureNameTranslations": null,
      "cityName": null,
      "cityNameTranslations": null,
      "placeType": "quarter"
    },
    {
      "id": "saitama_unknown_寿",
      "osmId": 3048360197,
      "name": "寿町",
      "nameKana": null,
      "nameTranslations": null,
      "latitude": 35.790022,
      "longitude": 139.467343,
      "lines": null,
      "prefectureId": "saitama",
      "cityId": null,
      "countryCode": "jp",
      "prefectureName": "埼玉県",
      "prefectureNameTranslations": null,
      "cityName": null,
      "cityNameTranslations": null,
      "placeType": "quarter"
    },
    {
      "id": "saitama_unknown_小手指台",
      "osmId": 3048360207,
      "name": "小手指台",
      "nameKana": null,
      "nameTranslations": null,
      "latitude": 35.791411,
      "longitude": 139.441696,
      "lines": null,
      "prefectureId": "saitama",
      "cityId": null,
      "countryCode": "jp",
      "prefectureName": "埼玉県",
      "prefectureNameTranslations": null,
      "cityName": null,
      "cityNameTranslations": null,
      "placeType": "quarter"
    },
    {
      "id": "saitama_unknown_岩岡",
      "osmId": 3048360213,
      "name": "岩岡町",
      "nameKana": null,
      "nameTranslations": null,
      "latitude": 35.8169918,
      "longitude": 139.4424661,
      "lines": null,
      "prefectureId": "saitama",
      "cityId": null,
      "countryCode": "jp",
      "prefectureName": "埼玉県",
      "prefectureNameTranslations": null,
      "cityName": null,
      "cityNameTranslations": null,
      "placeType": "quarter"
    },
    {
      "id": "saitama_unknown_yayoicho",
      "osmId": 3048360214,
      "name": "弥生町",
      "nameKana": null,
      "nameTranslations": {
        "en": "Yayoicho"
      },
      "latitude": 35.80384,
      "longitude": 139.46153,
      "lines": null,
      "prefectureId": "saitama",
      "cityId": null,
      "countryCode": "jp",
      "prefectureName": "埼玉県",
      "prefectureNameTranslations": null,
      "cityName": null,
      "cityNameTranslations": null,
      "placeType": "quarter"
    },
    {
      "id": "saitama_unknown_御幸",
      "osmId": 3048360215,
      "name": "御幸町",
      "nameKana": null,
      "nameTranslations": null,
      "latitude": 35.792257,
      "longitude": 139.470319,
      "lines": null,
      "prefectureId": "saitama",
      "cityId": null,
      "countryCode": "jp",
      "prefectureName": "埼玉県",
      "prefectureNameTranslations": null,
      "cityName": null,
      "cityNameTranslations": null,
      "placeType": "quarter"
    },
    {
      "id": "saitama_unknown_所沢新",
      "osmId": 3048360216,
      "name": "所沢新町",
      "nameKana": null,
      "nameTranslations": null,
      "latitude": 35.820167,
      "longitude": 139.460137,
      "lines": null,
      "prefectureId": "saitama",
      "cityId": null,
      "countryCode": "jp",
      "prefectureName": "埼玉県",
      "prefectureNameTranslations": null,
      "cityName": null,
      "cityNameTranslations": null,
      "placeType": "quarter"
    },
    {
      "id": "saitama_unknown_日吉",
      "osmId": 3048360217,
      "name": "日吉町",
      "nameKana": null,
      "nameTranslations": null,
      "latitude": 35.787702,
      "longitude": 139.469482,
      "lines": null,
      "prefectureId": "saitama",
      "cityId": null,
      "countryCode": "jp",
      "prefectureName": "埼玉県",
      "prefectureNameTranslations": null,
      "cityName": null,
      "cityNameTranslations": null,
      "placeType": "quarter"
    },
    {
      "id": "saitama_unknown_旭",
      "osmId": 3048360218,
      "name": "旭町",
      "nameKana": null,
      "nameTranslations": null,
      "latitude": 35.7913167,
      "longitude": 139.4750895,
      "lines": null,
      "prefectureId": "saitama",
      "cityId": null,
      "countryCode": "jp",
      "prefectureName": "埼玉県",
      "prefectureNameTranslations": null,
      "cityName": null,
      "cityNameTranslations": null,
      "placeType": "quarter"
    },
    {
      "id": "saitama_unknown_yurakucho",
      "osmId": 3048360221,
      "name": "有楽町",
      "nameKana": null,
      "nameTranslations": {
        "en": "Yurakucho"
      },
      "latitude": 35.792564,
      "longitude": 139.4666,
      "lines": null,
      "prefectureId": "saitama",
      "cityId": null,
      "countryCode": "jp",
      "prefectureName": "埼玉県",
      "prefectureNameTranslations": null,
      "cityName": null,
      "cityNameTranslations": null,
      "placeType": "quarter"
    },
    {
      "id": "saitama_unknown_higashi_sumiyoshi",
      "osmId": 3048360222,
      "name": "東住吉",
      "nameKana": null,
      "nameTranslations": {
        "en": "Higashi-Sumiyoshi"
      },
      "latitude": 35.785204,
      "longitude": 139.470605,
      "lines": null,
      "prefectureId": "saitama",
      "cityId": null,
      "countryCode": "jp",
      "prefectureName": "埼玉県",
      "prefectureNameTranslations": null,
      "cityName": null,
      "cityNameTranslations": null,
      "placeType": "quarter"
    },
    {
      "id": "saitama_unknown_東新井",
      "osmId": 3048360231,
      "name": "東新井町",
      "nameKana": null,
      "nameTranslations": null,
      "latitude": 35.797141,
      "longitude": 139.481416,
      "lines": null,
      "prefectureId": "saitama",
      "cityId": null,
      "countryCode": "jp",
      "prefectureName": "埼玉県",
      "prefectureNameTranslations": null,
      "cityName": null,
      "cityNameTranslations": null,
      "placeType": "quarter"
    },
    {
      "id": "saitama_unknown_東_quarter",
      "osmId": 3048360238,
      "name": "東町",
      "nameKana": null,
      "nameTranslations": null,
      "latitude": 35.790288,
      "longitude": 139.471765,
      "lines": null,
      "prefectureId": "saitama",
      "cityId": null,
      "countryCode": "jp",
      "prefectureName": "埼玉県",
      "prefectureNameTranslations": null,
      "cityName": null,
      "cityNameTranslations": null,
      "placeType": "quarter"
    },
    {
      "id": "saitama_unknown_matsuba_ch",
      "osmId": 3048360241,
      "name": "松葉町",
      "nameKana": null,
      "nameTranslations": {
        "en": "Matsuba-chō"
      },
      "latitude": 35.8075448,
      "longitude": 139.4577187,
      "lines": null,
      "prefectureId": "saitama",
      "cityId": null,
      "countryCode": "jp",
      "prefectureName": "埼玉県",
      "prefectureNameTranslations": null,
      "cityName": null,
      "cityNameTranslations": null,
      "placeType": "quarter"
    },
    {
      "id": "saitama_unknown_enokicho",
      "osmId": 3048360245,
      "name": "榎町",
      "nameKana": null,
      "nameTranslations": {
        "en": "Enokicho"
      },
      "latitude": 35.805518,
      "longitude": 139.444324,
      "lines": null,
      "prefectureId": "saitama",
      "cityId": null,
      "countryCode": "jp",
      "prefectureName": "埼玉県",
      "prefectureNameTranslations": null,
      "cityName": null,
      "cityNameTranslations": null,
      "placeType": "quarter"
    },
    {
      "id": "saitama_unknown_泉",
      "osmId": 3048360246,
      "name": "泉町",
      "nameKana": null,
      "nameTranslations": null,
      "latitude": 35.80179,
      "longitude": 139.459114,
      "lines": null,
      "prefectureId": "saitama",
      "cityId": null,
      "countryCode": "jp",
      "prefectureName": "埼玉県",
      "prefectureNameTranslations": null,
      "cityName": null,
      "cityNameTranslations": null,
      "placeType": "quarter"
    },
    {
      "id": "saitama_unknown_糀谷",
      "osmId": 3048360249,
      "name": "糀谷",
      "nameKana": null,
      "nameTranslations": null,
      "latitude": 35.793077,
      "longitude": 139.391476,
      "lines": null,
      "prefectureId": "saitama",
      "cityId": null,
      "countryCode": "jp",
      "prefectureName": "埼玉県",
      "prefectureNameTranslations": null,
      "cityName": null,
      "cityNameTranslations": null,
      "placeType": "quarter"
    },
    {
      "id": "saitama_unknown_wakamatsucho",
      "osmId": 3048360263,
      "name": "若松町",
      "nameKana": null,
      "nameTranslations": {
        "en": "Wakamatsucho"
      },
      "latitude": 35.802648,
      "longitude": 139.484424,
      "lines": null,
      "prefectureId": "saitama",
      "cityId": null,
      "countryCode": "jp",
      "prefectureName": "埼玉県",
      "prefectureNameTranslations": null,
      "cityName": null,
      "cityNameTranslations": null,
      "placeType": "quarter"
    },
    {
      "id": "saitama_unknown_西住吉",
      "osmId": 3048360268,
      "name": "西住吉",
      "nameKana": null,
      "nameTranslations": null,
      "latitude": 35.785615,
      "longitude": 139.46702,
      "lines": null,
      "prefectureId": "saitama",
      "cityId": null,
      "countryCode": "jp",
      "prefectureName": "埼玉県",
      "prefectureNameTranslations": null,
      "cityName": null,
      "cityNameTranslations": null,
      "placeType": "quarter"
    },
    {
      "id": "saitama_unknown_西新井",
      "osmId": 3048360271,
      "name": "西新井町",
      "nameKana": null,
      "nameTranslations": null,
      "latitude": 35.794448,
      "longitude": 139.476517,
      "lines": null,
      "prefectureId": "saitama",
      "cityId": null,
      "countryCode": "jp",
      "prefectureName": "埼玉県",
      "prefectureNameTranslations": null,
      "cityName": null,
      "cityNameTranslations": null,
      "placeType": "quarter"
    },
    {
      "id": "saitama_unknown_金山",
      "osmId": 3048360274,
      "name": "金山町",
      "nameKana": null,
      "nameTranslations": null,
      "latitude": 35.790874,
      "longitude": 139.461657,
      "lines": null,
      "prefectureId": "saitama",
      "cityId": null,
      "countryCode": "jp",
      "prefectureName": "埼玉県",
      "prefectureNameTranslations": null,
      "cityName": null,
      "cityNameTranslations": null,
      "placeType": "quarter"
    },
    {
      "id": "saitama_unknown_aobadai",
      "osmId": 3048360275,
      "name": "青葉台",
      "nameKana": null,
      "nameTranslations": {
        "en": "Aobadai"
      },
      "latitude": 35.80752,
      "longitude": 139.441822,
      "lines": null,
      "prefectureId": "saitama",
      "cityId": null,
      "countryCode": "jp",
      "prefectureName": "埼玉県",
      "prefectureNameTranslations": null,
      "cityName": null,
      "cityNameTranslations": null,
      "placeType": "quarter"
    },
    {
      "id": "saitama_unknown_日比田",
      "osmId": 3048360333,
      "name": "日比田",
      "nameKana": null,
      "nameTranslations": null,
      "latitude": 35.8087033,
      "longitude": 139.5050058,
      "lines": null,
      "prefectureId": "saitama",
      "cityId": null,
      "countryCode": "jp",
      "prefectureName": "埼玉県",
      "prefectureNameTranslations": null,
      "cityName": null,
      "cityNameTranslations": null,
      "placeType": "quarter"
    },
    {
      "id": "saitama_unknown_otaarai",
      "osmId": 4787860267,
      "name": "太田新井",
      "nameKana": "おおたあらい",
      "nameTranslations": {
        "en": "Otaarai"
      },
      "latitude": 36.0047581,
      "longitude": 139.7056186,
      "lines": null,
      "prefectureId": "saitama",
      "cityId": null,
      "countryCode": "jp",
      "prefectureName": "埼玉県",
      "prefectureNameTranslations": null,
      "cityName": null,
      "cityNameTranslations": null,
      "placeType": "quarter"
    },
    {
      "id": "saitama_unknown_maegoya",
      "osmId": 4805473296,
      "name": "前小屋",
      "nameKana": null,
      "nameTranslations": {
        "en": "Maegoya"
      },
      "latitude": 36.2318842,
      "longitude": 139.3217581,
      "lines": null,
      "prefectureId": "saitama",
      "cityId": null,
      "countryCode": "jp",
      "prefectureName": "埼玉県",
      "prefectureNameTranslations": null,
      "cityName": null,
      "cityNameTranslations": null,
      "placeType": "quarter"
    },
    {
      "id": "saitama_unknown_okaizumi",
      "osmId": 4805647898,
      "name": "岡泉",
      "nameKana": "おかいずみ",
      "nameTranslations": {
        "en": "Okaizumi"
      },
      "latitude": 36.007949,
      "longitude": 139.691118,
      "lines": null,
      "prefectureId": "saitama",
      "cityId": null,
      "countryCode": "jp",
      "prefectureName": "埼玉県",
      "prefectureNameTranslations": null,
      "cityName": null,
      "cityNameTranslations": null,
      "placeType": "quarter"
    },
    {
      "id": "saitama_unknown_sanagaya",
      "osmId": 4815460447,
      "name": "実ヶ谷",
      "nameKana": "さながや",
      "nameTranslations": {
        "en": "Sanagaya"
      },
      "latitude": 36.0050692,
      "longitude": 139.6752161,
      "lines": null,
      "prefectureId": "saitama",
      "cityId": null,
      "countryCode": "jp",
      "prefectureName": "埼玉県",
      "prefectureNameTranslations": null,
      "cityName": null,
      "cityNameTranslations": null,
      "placeType": "quarter"
    },
    {
      "id": "saitama_unknown_sendano",
      "osmId": 4819913323,
      "name": "千駄野",
      "nameKana": "せんだの",
      "nameTranslations": {
        "en": "Sendano"
      },
      "latitude": 36.0121297,
      "longitude": 139.6760633,
      "lines": null,
      "prefectureId": "saitama",
      "cityId": null,
      "countryCode": "jp",
      "prefectureName": "埼玉県",
      "prefectureNameTranslations": null,
      "cityName": null,
      "cityNameTranslations": null,
      "placeType": "quarter"
    },
    {
      "id": "saitama_unknown_hikobee",
      "osmId": 4822242877,
      "name": "彦兵衛",
      "nameKana": "ひこべえ",
      "nameTranslations": {
        "en": "Hikobee"
      },
      "latitude": 36.0130985,
      "longitude": 139.6997304,
      "lines": null,
      "prefectureId": "saitama",
      "cityId": null,
      "countryCode": "jp",
      "prefectureName": "埼玉県",
      "prefectureNameTranslations": null,
      "cityName": null,
      "cityNameTranslations": null,
      "placeType": "quarter"
    },
    {
      "id": "saitama_unknown_tsumetagaya",
      "osmId": 4845583852,
      "name": "爪田ヶ谷",
      "nameKana": "つめたがや",
      "nameTranslations": {
        "en": "Tsumetagaya"
      },
      "latitude": 36.0212058,
      "longitude": 139.7005927,
      "lines": null,
      "prefectureId": "saitama",
      "cityId": null,
      "countryCode": "jp",
      "prefectureName": "埼玉県",
      "prefectureNameTranslations": null,
      "cityName": null,
      "cityNameTranslations": null,
      "placeType": "quarter"
    },
    {
      "id": "saitama_unknown_shibayama",
      "osmId": 4873985138,
      "name": "柴山",
      "nameKana": "しばやま",
      "nameTranslations": {
        "en": "Shibayama"
      },
      "latitude": 36.0366415,
      "longitude": 139.6143329,
      "lines": null,
      "prefectureId": "saitama",
      "cityId": null,
      "countryCode": "jp",
      "prefectureName": "埼玉県",
      "prefectureNameTranslations": null,
      "cityName": null,
      "cityNameTranslations": null,
      "placeType": "quarter"
    },
    {
      "id": "saitama_unknown_araishinden",
      "osmId": 4901662647,
      "name": "荒井新田",
      "nameKana": "あらいしんでん",
      "nameTranslations": {
        "en": "Araishinden"
      },
      "latitude": 36.0366544,
      "longitude": 139.6273879,
      "lines": null,
      "prefectureId": "saitama",
      "cityId": null,
      "countryCode": "jp",
      "prefectureName": "埼玉県",
      "prefectureNameTranslations": null,
      "cityName": null,
      "cityNameTranslations": null,
      "placeType": "quarter"
    },
    {
      "id": "saitama_unknown_koguki",
      "osmId": 4910548427,
      "name": "小久喜",
      "nameKana": "こぐき",
      "nameTranslations": {
        "en": "Koguki"
      },
      "latitude": 36.0130963,
      "longitude": 139.6670464,
      "lines": null,
      "prefectureId": "saitama",
      "cityId": null,
      "countryCode": "jp",
      "prefectureName": "埼玉県",
      "prefectureNameTranslations": null,
      "cityName": null,
      "cityNameTranslations": null,
      "placeType": "quarter"
    },
    {
      "id": "saitama_unknown_shimoosaki",
      "osmId": 5177953486,
      "name": "下大崎",
      "nameKana": "しもおおさき",
      "nameTranslations": {
        "en": "Shimoosaki"
      },
      "latitude": 36.0409663,
      "longitude": 139.6305925,
      "lines": null,
      "prefectureId": "saitama",
      "cityId": null,
      "countryCode": "jp",
      "prefectureName": "埼玉県",
      "prefectureNameTranslations": null,
      "cityName": null,
      "cityNameTranslations": null,
      "placeType": "quarter"
    },
    {
      "id": "saitama_unknown_monma",
      "osmId": 5275052419,
      "name": "百間",
      "nameKana": "もんま",
      "nameTranslations": {
        "en": "Monma"
      },
      "latitude": 36.0197867,
      "longitude": 139.722477,
      "lines": null,
      "prefectureId": "saitama",
      "cityId": null,
      "countryCode": "jp",
      "prefectureName": "埼玉県",
      "prefectureNameTranslations": null,
      "cityName": null,
      "cityNameTranslations": null,
      "placeType": "quarter"
    },
    {
      "id": "saitama_unknown_higashikumehara",
      "osmId": 5276805921,
      "name": "東粂原",
      "nameKana": "ひがしくめはら",
      "nameTranslations": {
        "en": "Higashikumehara"
      },
      "latitude": 36.029843,
      "longitude": 139.7031377,
      "lines": null,
      "prefectureId": "saitama",
      "cityId": null,
      "countryCode": "jp",
      "prefectureName": "埼玉県",
      "prefectureNameTranslations": null,
      "cityName": null,
      "cityNameTranslations": null,
      "placeType": "quarter"
    },
    {
      "id": "saitama_unknown_yamazaki",
      "osmId": 5289365796,
      "name": "山崎",
      "nameKana": "やまざき",
      "nameTranslations": {
        "en": "Yamazaki"
      },
      "latitude": 36.0148885,
      "longitude": 139.7189572,
      "lines": null,
      "prefectureId": "saitama",
      "cityId": null,
      "countryCode": "jp",
      "prefectureName": "埼玉県",
      "prefectureNameTranslations": null,
      "cityName": null,
      "cityNameTranslations": null,
      "placeType": "quarter"
    },
    {
      "id": "saitama_unknown_shiraokahigashi",
      "osmId": 5694595221,
      "name": "白岡東",
      "nameKana": "しらおかひがし",
      "nameTranslations": {
        "en": "Shiraokahigashi"
      },
      "latitude": 36.022067,
      "longitude": 139.6611536,
      "lines": null,
      "prefectureId": "saitama",
      "cityId": null,
      "countryCode": "jp",
      "prefectureName": "埼玉県",
      "prefectureNameTranslations": null,
      "cityName": null,
      "cityNameTranslations": null,
      "placeType": "quarter"
    },
    {
      "id": "saitama_unknown_tsurugaoka",
      "osmId": 5800617736,
      "name": "鶴ヶ丘",
      "nameKana": "つるがおか",
      "nameTranslations": {
        "en": "Tsurugaoka"
      },
      "latitude": 35.9328821,
      "longitude": 139.4161951,
      "lines": null,
      "prefectureId": "saitama",
      "cityId": null,
      "countryCode": "jp",
      "prefectureName": "埼玉県",
      "prefectureNameTranslations": null,
      "cityName": null,
      "cityNameTranslations": null,
      "placeType": "quarter"
    },
    {
      "id": "saitama_unknown_鯨井新田",
      "osmId": 5800617737,
      "name": "鯨井新田",
      "nameKana": null,
      "nameTranslations": null,
      "latitude": 35.9342224,
      "longitude": 139.4236145,
      "lines": null,
      "prefectureId": "saitama",
      "cityId": null,
      "countryCode": "jp",
      "prefectureName": "埼玉県",
      "prefectureNameTranslations": null,
      "cityName": null,
      "cityNameTranslations": null,
      "placeType": "quarter"
    },
    {
      "id": "saitama_unknown_天沼新田",
      "osmId": 5800617738,
      "name": "天沼新田",
      "nameKana": null,
      "nameTranslations": null,
      "latitude": 35.9363098,
      "longitude": 139.4266805,
      "lines": null,
      "prefectureId": "saitama",
      "cityId": null,
      "countryCode": "jp",
      "prefectureName": "埼玉県",
      "prefectureNameTranslations": null,
      "cityName": null,
      "cityNameTranslations": null,
      "placeType": "quarter"
    },
    {
      "id": "saitama_unknown_kamihiroya",
      "osmId": 5800617739,
      "name": "上広谷",
      "nameKana": "かみひろや",
      "nameTranslations": {
        "en": "Kamihiroya"
      },
      "latitude": 35.941091,
      "longitude": 139.4171856,
      "lines": null,
      "prefectureId": "saitama",
      "cityId": null,
      "countryCode": "jp",
      "prefectureName": "埼玉県",
      "prefectureNameTranslations": null,
      "cityName": null,
      "cityNameTranslations": null,
      "placeType": "quarter"
    },
    {
      "id": "saitama_unknown_富士見",
      "osmId": 5800617740,
      "name": "富士見",
      "nameKana": null,
      "nameTranslations": null,
      "latitude": 35.9510726,
      "longitude": 139.41618,
      "lines": null,
      "prefectureId": "saitama",
      "cityId": null,
      "countryCode": "jp",
      "prefectureName": "埼玉県",
      "prefectureNameTranslations": null,
      "cityName": null,
      "cityNameTranslations": null,
      "placeType": "quarter"
    },
    {
      "id": "saitama_unknown_gomigaya",
      "osmId": 5800617741,
      "name": "五味ヶ谷",
      "nameKana": "ごみがや",
      "nameTranslations": {
        "en": "Gomigaya"
      },
      "latitude": 35.946283,
      "longitude": 139.4201302,
      "lines": null,
      "prefectureId": "saitama",
      "cityId": null,
      "countryCode": "jp",
      "prefectureName": "埼玉県",
      "prefectureNameTranslations": null,
      "cityName": null,
      "cityNameTranslations": null,
      "placeType": "quarter"
    },
    {
      "id": "saitama_unknown_fujigane",
      "osmId": 5800617742,
      "name": "藤金",
      "nameKana": "ふじがね",
      "nameTranslations": {
        "en": "Fujigane"
      },
      "latitude": 35.9401807,
      "longitude": 139.406281,
      "lines": null,
      "prefectureId": "saitama",
      "cityId": null,
      "countryCode": "jp",
      "prefectureName": "埼玉県",
      "prefectureNameTranslations": null,
      "cityName": null,
      "cityNameTranslations": null,
      "placeType": "quarter"
    },
    {
      "id": "saitama_unknown_関間",
      "osmId": 5800617743,
      "name": "関間",
      "nameKana": null,
      "nameTranslations": null,
      "latitude": 35.9514711,
      "longitude": 139.4015124,
      "lines": null,
      "prefectureId": "saitama",
      "cityId": null,
      "countryCode": "jp",
      "prefectureName": "埼玉県",
      "prefectureNameTranslations": null,
      "cityName": null,
      "cityNameTranslations": null,
      "placeType": "quarter"
    },
    {
      "id": "saitama_unknown_千代田",
      "osmId": 5800617744,
      "name": "千代田",
      "nameKana": null,
      "nameTranslations": null,
      "latitude": 35.9562073,
      "longitude": 139.4066847,
      "lines": null,
      "prefectureId": "saitama",
      "cityId": null,
      "countryCode": "jp",
      "prefectureName": "埼玉県",
      "prefectureNameTranslations": null,
      "cityName": null,
      "cityNameTranslations": null,
      "placeType": "quarter"
    },
    {
      "id": "saitama_unknown_脚折",
      "osmId": 5800617745,
      "name": "脚折町",
      "nameKana": null,
      "nameTranslations": null,
      "latitude": 35.9458115,
      "longitude": 139.3909465,
      "lines": null,
      "prefectureId": "saitama",
      "cityId": null,
      "countryCode": "jp",
      "prefectureName": "埼玉県",
      "prefectureNameTranslations": null,
      "cityName": null,
      "cityNameTranslations": null,
      "placeType": "quarter"
    },
    {
      "id": "saitama_unknown_haneoricho",
      "osmId": 5800617746,
      "name": "羽折町",
      "nameKana": "はねおりちょう",
      "nameTranslations": {
        "en": "Haneoricho"
      },
      "latitude": 35.9502078,
      "longitude": 139.3817454,
      "lines": null,
      "prefectureId": "saitama",
      "cityId": null,
      "countryCode": "jp",
      "prefectureName": "埼玉県",
      "prefectureNameTranslations": null,
      "cityName": null,
      "cityNameTranslations": null,
      "placeType": "quarter"
    },
    {
      "id": "saitama_unknown_shimoshinden",
      "osmId": 5800617747,
      "name": "下新田",
      "nameKana": "しもしんでん",
      "nameTranslations": {
        "en": "Shimoshinden"
      },
      "latitude": 35.944766,
      "longitude": 139.3806035,
      "lines": null,
      "prefectureId": "saitama",
      "cityId": null,
      "countryCode": "jp",
      "prefectureName": "埼玉県",
      "prefectureNameTranslations": null,
      "cityName": null,
      "cityNameTranslations": null,
      "placeType": "quarter"
    },
    {
      "id": "saitama_unknown_浅羽",
      "osmId": 5800617748,
      "name": "浅羽",
      "nameKana": null,
      "nameTranslations": null,
      "latitude": 35.9469285,
      "longitude": 139.3771125,
      "lines": null,
      "prefectureId": "saitama",
      "cityId": null,
      "countryCode": "jp",
      "prefectureName": "埼玉県",
      "prefectureNameTranslations": null,
      "cityName": null,
      "cityNameTranslations": null,
      "placeType": "quarter"
    },
    {
      "id": "saitama_unknown_nakashinden",
      "osmId": 5800617749,
      "name": "中新田",
      "nameKana": "なかしんでん",
      "nameTranslations": {
        "en": "Nakashinden"
      },
      "latitude": 35.9381792,
      "longitude": 139.3683436,
      "lines": null,
      "prefectureId": "saitama",
      "cityId": null,
      "countryCode": "jp",
      "prefectureName": "埼玉県",
      "prefectureNameTranslations": null,
      "cityName": null,
      "cityNameTranslations": null,
      "placeType": "quarter"
    },
    {
      "id": "saitama_unknown_新",
      "osmId": 5800617750,
      "name": "新町",
      "nameKana": null,
      "nameTranslations": null,
      "latitude": 35.9350209,
      "longitude": 139.3724491,
      "lines": null,
      "prefectureId": "saitama",
      "cityId": null,
      "countryCode": "jp",
      "prefectureName": "埼玉県",
      "prefectureNameTranslations": null,
      "cityName": null,
      "cityNameTranslations": null,
      "placeType": "quarter"
    },
    {
      "id": "saitama_unknown_kamishinden",
      "osmId": 5800617751,
      "name": "上新田",
      "nameKana": "かみしんでん",
      "nameTranslations": {
        "en": "Kamishinden"
      },
      "latitude": 35.9315246,
      "longitude": 139.364074,
      "lines": null,
      "prefectureId": "saitama",
      "cityId": null,
      "countryCode": "jp",
      "prefectureName": "埼玉県",
      "prefectureNameTranslations": null,
      "cityName": null,
      "cityNameTranslations": null,
      "placeType": "quarter"
    },
    {
      "id": "saitama_unknown_takakura",
      "osmId": 5800617752,
      "name": "高倉",
      "nameKana": "たかくら",
      "nameTranslations": {
        "en": "Takakura"
      },
      "latitude": 35.9343379,
      "longitude": 139.379896,
      "lines": null,
      "prefectureId": "saitama",
      "cityId": null,
      "countryCode": "jp",
      "prefectureName": "埼玉県",
      "prefectureNameTranslations": null,
      "cityName": null,
      "cityNameTranslations": null,
      "placeType": "quarter"
    },
    {
      "id": "saitama_unknown_mitsugi",
      "osmId": 5800621153,
      "name": "三ツ木",
      "nameKana": "みつぎ",
      "nameTranslations": {
        "en": "Mitsugi"
      },
      "latitude": 35.9291626,
      "longitude": 139.3916436,
      "lines": null,
      "prefectureId": "saitama",
      "cityId": null,
      "countryCode": "jp",
      "prefectureName": "埼玉県",
      "prefectureNameTranslations": null,
      "cityName": null,
      "cityNameTranslations": null,
      "placeType": "quarter"
    },
    {
      "id": "saitama_unknown_三ツ木新",
      "osmId": 5800621154,
      "name": "三ツ木新町",
      "nameKana": null,
      "nameTranslations": null,
      "latitude": 35.923997,
      "longitude": 139.3896603,
      "lines": null,
      "prefectureId": "saitama",
      "cityId": null,
      "countryCode": "jp",
      "prefectureName": "埼玉県",
      "prefectureNameTranslations": null,
      "cityName": null,
      "cityNameTranslations": null,
      "placeType": "quarter"
    },
    {
      "id": "saitama_unknown_yanagidocho",
      "osmId": 5800621155,
      "name": "柳戸町",
      "nameKana": "やなぎどちょう",
      "nameTranslations": {
        "en": "Yanagidocho"
      },
      "latitude": 35.9221279,
      "longitude": 139.3920851,
      "lines": null,
      "prefectureId": "saitama",
      "cityId": null,
      "countryCode": "jp",
      "prefectureName": "埼玉県",
      "prefectureNameTranslations": null,
      "cityName": null,
      "cityNameTranslations": null,
      "placeType": "quarter"
    },
    {
      "id": "saitama_unknown_otagaya",
      "osmId": 5800621156,
      "name": "太田ヶ谷",
      "nameKana": "おおたがや",
      "nameTranslations": {
        "en": "Otagaya"
      },
      "latitude": 35.9242943,
      "longitude": 139.400089,
      "lines": null,
      "prefectureId": "saitama",
      "cityId": null,
      "countryCode": "jp",
      "prefectureName": "埼玉県",
      "prefectureNameTranslations": null,
      "cityName": null,
      "cityNameTranslations": null,
      "placeType": "quarter"
    },
    {
      "id": "saitama_unknown_南",
      "osmId": 5800621157,
      "name": "南町",
      "nameKana": null,
      "nameTranslations": null,
      "latitude": 35.9243831,
      "longitude": 139.4071734,
      "lines": null,
      "prefectureId": "saitama",
      "cityId": null,
      "countryCode": "jp",
      "prefectureName": "埼玉県",
      "prefectureNameTranslations": null,
      "cityName": null,
      "cityNameTranslations": null,
      "placeType": "quarter"
    },
    {
      "id": "saitama_unknown_川鶴",
      "osmId": 5800621158,
      "name": "川鶴",
      "nameKana": null,
      "nameTranslations": null,
      "latitude": 35.9224478,
      "longitude": 139.4127326,
      "lines": null,
      "prefectureId": "saitama",
      "cityId": null,
      "countryCode": "jp",
      "prefectureName": "埼玉県",
      "prefectureNameTranslations": null,
      "cityName": null,
      "cityNameTranslations": null,
      "placeType": "quarter"
    },
    {
      "id": "saitama_unknown_松ヶ丘",
      "osmId": 5800621159,
      "name": "松ヶ丘",
      "nameKana": null,
      "nameTranslations": null,
      "latitude": 35.9274047,
      "longitude": 139.4155797,
      "lines": null,
      "prefectureId": "saitama",
      "cityId": null,
      "countryCode": "jp",
      "prefectureName": "埼玉県",
      "prefectureNameTranslations": null,
      "cityName": null,
      "cityNameTranslations": null,
      "placeType": "quarter"
    },
    {
      "id": "saitama_unknown_吉田新",
      "osmId": 5800621160,
      "name": "吉田新町",
      "nameKana": null,
      "nameTranslations": null,
      "latitude": 35.9276481,
      "longitude": 139.4193759,
      "lines": null,
      "prefectureId": "saitama",
      "cityId": null,
      "countryCode": "jp",
      "prefectureName": "埼玉県",
      "prefectureNameTranslations": null,
      "cityName": null,
      "cityNameTranslations": null,
      "placeType": "quarter"
    },
    {
      "id": "saitama_unknown_吉田",
      "osmId": 5800621161,
      "name": "吉田",
      "nameKana": null,
      "nameTranslations": null,
      "latitude": 35.9304274,
      "longitude": 139.4275692,
      "lines": null,
      "prefectureId": "saitama",
      "cityId": null,
      "countryCode": "jp",
      "prefectureName": "埼玉県",
      "prefectureNameTranslations": null,
      "cityName": null,
      "cityNameTranslations": null,
      "placeType": "quarter"
    },
    {
      "id": "saitama_unknown_竹野",
      "osmId": 5800621162,
      "name": "竹野",
      "nameKana": null,
      "nameTranslations": null,
      "latitude": 35.9549471,
      "longitude": 139.4248138,
      "lines": null,
      "prefectureId": "saitama",
      "cityId": null,
      "countryCode": "jp",
      "prefectureName": "埼玉県",
      "prefectureNameTranslations": null,
      "cityName": null,
      "cityNameTranslations": null,
      "placeType": "quarter"
    },
    {
      "id": "saitama_unknown_machiya",
      "osmId": 5800621166,
      "name": "町屋",
      "nameKana": "まちや",
      "nameTranslations": {
        "en": "Machiya"
      },
      "latitude": 35.9287251,
      "longitude": 139.3585585,
      "lines": null,
      "prefectureId": "saitama",
      "cityId": null,
      "countryCode": "jp",
      "prefectureName": "埼玉県",
      "prefectureNameTranslations": null,
      "cityName": null,
      "cityNameTranslations": null,
      "placeType": "quarter"
    },
    {
      "id": "saitama_unknown_双柳",
      "osmId": 6346292059,
      "name": "双柳",
      "nameKana": null,
      "nameTranslations": null,
      "latitude": 35.8556619,
      "longitude": 139.3415949,
      "lines": null,
      "prefectureId": "saitama",
      "cityId": null,
      "countryCode": "jp",
      "prefectureName": "埼玉県",
      "prefectureNameTranslations": null,
      "cityName": null,
      "cityNameTranslations": null,
      "placeType": "quarter"
    },
    {
      "id": "saitama_unknown_岩沢",
      "osmId": 6346334768,
      "name": "岩沢",
      "nameKana": null,
      "nameTranslations": null,
      "latitude": 35.8416122,
      "longitude": 139.3402684,
      "lines": null,
      "prefectureId": "saitama",
      "cityId": null,
      "countryCode": "jp",
      "prefectureName": "埼玉県",
      "prefectureNameTranslations": null,
      "cityName": null,
      "cityNameTranslations": null,
      "placeType": "quarter"
    },
    {
      "id": "saitama_unknown_新光",
      "osmId": 6346334770,
      "name": "新光",
      "nameKana": null,
      "nameTranslations": null,
      "latitude": 35.8517031,
      "longitude": 139.3447308,
      "lines": null,
      "prefectureId": "saitama",
      "cityId": null,
      "countryCode": "jp",
      "prefectureName": "埼玉県",
      "prefectureNameTranslations": null,
      "cityName": null,
      "cityNameTranslations": null,
      "placeType": "quarter"
    },
    {
      "id": "saitama_unknown_oaza_nishimotojyuku",
      "osmId": 6399590828,
      "name": "大字西本宿",
      "nameKana": null,
      "nameTranslations": {
        "en": "Oaza-Nishimotojyuku"
      },
      "latitude": 36.0003637,
      "longitude": 139.3910709,
      "lines": null,
      "prefectureId": "saitama",
      "cityId": null,
      "countryCode": "jp",
      "prefectureName": "埼玉県",
      "prefectureNameTranslations": null,
      "cityName": null,
      "cityNameTranslations": null,
      "placeType": "quarter"
    },
    {
      "id": "saitama_unknown_ketsuka",
      "osmId": 6399590829,
      "name": "毛塚",
      "nameKana": null,
      "nameTranslations": {
        "en": "Ketsuka"
      },
      "latitude": 35.9955637,
      "longitude": 139.3964287,
      "lines": null,
      "prefectureId": "saitama",
      "cityId": null,
      "countryCode": "jp",
      "prefectureName": "埼玉県",
      "prefectureNameTranslations": null,
      "cityName": null,
      "cityNameTranslations": null,
      "placeType": "quarter"
    },
    {
      "id": "saitama_unknown_tagi",
      "osmId": 6400642333,
      "name": "田木",
      "nameKana": null,
      "nameTranslations": {
        "en": "Tagi"
      },
      "latitude": 35.989461,
      "longitude": 139.3886579,
      "lines": null,
      "prefectureId": "saitama",
      "cityId": null,
      "countryCode": "jp",
      "prefectureName": "埼玉県",
      "prefectureNameTranslations": null,
      "cityName": null,
      "cityNameTranslations": null,
      "placeType": "quarter"
    },
    {
      "id": "saitama_unknown_正代",
      "osmId": 6400642338,
      "name": "正代",
      "nameKana": null,
      "nameTranslations": null,
      "latitude": 36.0006114,
      "longitude": 139.4116795,
      "lines": null,
      "prefectureId": "saitama",
      "cityId": null,
      "countryCode": "jp",
      "prefectureName": "埼玉県",
      "prefectureNameTranslations": null,
      "cityName": null,
      "cityNameTranslations": null,
      "placeType": "quarter"
    },
    {
      "id": "saitama_unknown_宮鼻",
      "osmId": 6400642339,
      "name": "宮鼻",
      "nameKana": null,
      "nameTranslations": null,
      "latitude": 35.9970718,
      "longitude": 139.4080808,
      "lines": null,
      "prefectureId": "saitama",
      "cityId": null,
      "countryCode": "jp",
      "prefectureName": "埼玉県",
      "prefectureNameTranslations": null,
      "cityName": null,
      "cityNameTranslations": null,
      "placeType": "quarter"
    },
    {
      "id": "saitama_unknown_oaza_iwadono",
      "osmId": 7247220029,
      "name": "大字岩殿",
      "nameKana": null,
      "nameTranslations": {
        "en": "Oaza-Iwadono"
      },
      "latitude": 36.0005445,
      "longitude": 139.3803856,
      "lines": null,
      "prefectureId": "saitama",
      "cityId": null,
      "countryCode": "jp",
      "prefectureName": "埼玉県",
      "prefectureNameTranslations": null,
      "cityName": null,
      "cityNameTranslations": null,
      "placeType": "quarter"
    },
    {
      "id": "saitama_unknown_hosoma",
      "osmId": 7296001615,
      "name": "細間",
      "nameKana": null,
      "nameTranslations": {
        "en": "Hosoma"
      },
      "latitude": 36.1575409,
      "longitude": 139.6463799,
      "lines": null,
      "prefectureId": "saitama",
      "cityId": null,
      "countryCode": "jp",
      "prefectureName": "埼玉県",
      "prefectureNameTranslations": null,
      "cityName": null,
      "cityNameTranslations": null,
      "placeType": "quarter"
    },
    {
      "id": "saitama_unknown_shimohiyarikawa",
      "osmId": 7296001616,
      "name": "下樋遣川",
      "nameKana": null,
      "nameTranslations": {
        "en": "Shimohiyarikawa"
      },
      "latitude": 36.1502122,
      "longitude": 139.625566,
      "lines": null,
      "prefectureId": "saitama",
      "cityId": null,
      "countryCode": "jp",
      "prefectureName": "埼玉県",
      "prefectureNameTranslations": null,
      "cityName": null,
      "cityNameTranslations": null,
      "placeType": "quarter"
    },
    {
      "id": "saitama_unknown_nakahiyarikawa",
      "osmId": 7296001617,
      "name": "中樋遣川",
      "nameKana": null,
      "nameTranslations": {
        "en": "Nakahiyarikawa"
      },
      "latitude": 36.1598711,
      "longitude": 139.6252334,
      "lines": null,
      "prefectureId": "saitama",
      "cityId": null,
      "countryCode": "jp",
      "prefectureName": "埼玉県",
      "prefectureNameTranslations": null,
      "cityName": null,
      "cityNameTranslations": null,
      "placeType": "quarter"
    },
    {
      "id": "saitama_unknown_kamihiyarikawa",
      "osmId": 7296001618,
      "name": "上樋遣川",
      "nameKana": null,
      "nameTranslations": {
        "en": "Kamihiyarikawa"
      },
      "latitude": 36.1617248,
      "longitude": 139.630276,
      "lines": null,
      "prefectureId": "saitama",
      "cityId": null,
      "countryCode": "jp",
      "prefectureName": "埼玉県",
      "prefectureNameTranslations": null,
      "cityName": null,
      "cityNameTranslations": null,
      "placeType": "quarter"
    },
    {
      "id": "saitama_unknown_goe",
      "osmId": 7296001666,
      "name": "大越",
      "nameKana": null,
      "nameTranslations": {
        "en": "Ōgoe"
      },
      "latitude": 36.175678,
      "longitude": 139.6223152,
      "lines": null,
      "prefectureId": "saitama",
      "cityId": null,
      "countryCode": "jp",
      "prefectureName": "埼玉県",
      "prefectureNameTranslations": null,
      "cityName": null,
      "cityNameTranslations": null,
      "placeType": "quarter"
    },
    {
      "id": "saitama_unknown_yahee",
      "osmId": 7296001719,
      "name": "弥兵衛",
      "nameKana": null,
      "nameTranslations": {
        "en": "Yahee"
      },
      "latitude": 36.1676958,
      "longitude": 139.6559393,
      "lines": null,
      "prefectureId": "saitama",
      "cityId": null,
      "countryCode": "jp",
      "prefectureName": "埼玉県",
      "prefectureNameTranslations": null,
      "cityName": null,
      "cityNameTranslations": null,
      "placeType": "quarter"
    },
    {
      "id": "saitama_unknown_zawa",
      "osmId": 7296001720,
      "name": "佐波",
      "nameKana": null,
      "nameTranslations": {
        "en": "Zawa"
      },
      "latitude": 36.1721012,
      "longitude": 139.6435707,
      "lines": null,
      "prefectureId": "saitama",
      "cityId": null,
      "countryCode": "jp",
      "prefectureName": "埼玉県",
      "prefectureNameTranslations": null,
      "cityName": null,
      "cityNameTranslations": null,
      "placeType": "quarter"
    },
    {
      "id": "saitama_unknown_sunahara",
      "osmId": 7296001721,
      "name": "砂原",
      "nameKana": null,
      "nameTranslations": {
        "en": "Sunahara"
      },
      "latitude": 36.1636131,
      "longitude": 139.6458757,
      "lines": null,
      "prefectureId": "saitama",
      "cityId": null,
      "countryCode": "jp",
      "prefectureName": "埼玉県",
      "prefectureNameTranslations": null,
      "cityName": null,
      "cityNameTranslations": null,
      "placeType": "quarter"
    },
    {
      "id": "saitama_unknown_sotono",
      "osmId": 7296001722,
      "name": "外野",
      "nameKana": null,
      "nameTranslations": {
        "en": "Sotono"
      },
      "latitude": 36.1754701,
      "longitude": 139.6320355,
      "lines": null,
      "prefectureId": "saitama",
      "cityId": null,
      "countryCode": "jp",
      "prefectureName": "埼玉県",
      "prefectureNameTranslations": null,
      "cityName": null,
      "cityNameTranslations": null,
      "placeType": "quarter"
    },
    {
      "id": "saitama_unknown_kitakobama",
      "osmId": 7296140206,
      "name": "北小浜",
      "nameKana": null,
      "nameTranslations": {
        "en": "Kitakobama"
      },
      "latitude": 36.1334816,
      "longitude": 139.6158349,
      "lines": null,
      "prefectureId": "saitama",
      "cityId": null,
      "countryCode": "jp",
      "prefectureName": "埼玉県",
      "prefectureNameTranslations": null,
      "cityName": null,
      "cityNameTranslations": null,
      "placeType": "quarter"
    },
    {
      "id": "saitama_unknown_matsunagashinden",
      "osmId": 7296140210,
      "name": "松永新田",
      "nameKana": null,
      "nameTranslations": {
        "en": "Matsunagashinden"
      },
      "latitude": 36.1411152,
      "longitude": 139.6369171,
      "lines": null,
      "prefectureId": "saitama",
      "cityId": null,
      "countryCode": "jp",
      "prefectureName": "埼玉県",
      "prefectureNameTranslations": null,
      "cityName": null,
      "cityNameTranslations": null,
      "placeType": "quarter"
    },
    {
      "id": "saitama_unknown_shimomitsumata",
      "osmId": 7296140211,
      "name": "下三俣",
      "nameKana": null,
      "nameTranslations": {
        "en": "Shimomitsumata"
      },
      "latitude": 36.1470327,
      "longitude": 139.6074986,
      "lines": null,
      "prefectureId": "saitama",
      "cityId": null,
      "countryCode": "jp",
      "prefectureName": "埼玉県",
      "prefectureNameTranslations": null,
      "cityName": null,
      "cityNameTranslations": null,
      "placeType": "quarter"
    },
    {
      "id": "saitama_unknown_kamimitsumata",
      "osmId": 7296140212,
      "name": "上三俣",
      "nameKana": null,
      "nameTranslations": {
        "en": "Kamimitsumata"
      },
      "latitude": 36.1367916,
      "longitude": 139.6076059,
      "lines": null,
      "prefectureId": "saitama",
      "cityId": null,
      "countryCode": "jp",
      "prefectureName": "埼玉県",
      "prefectureNameTranslations": null,
      "cityName": null,
      "cityNameTranslations": null,
      "placeType": "quarter"
    },
    {
      "id": "saitama_unknown_早俣",
      "osmId": 7304548514,
      "name": "早俣",
      "nameKana": null,
      "nameTranslations": null,
      "latitude": 36.0055201,
      "longitude": 139.4190882,
      "lines": null,
      "prefectureId": "saitama",
      "cityId": null,
      "countryCode": "jp",
      "prefectureName": "埼玉県",
      "prefectureNameTranslations": null,
      "cityName": null,
      "cityNameTranslations": null,
      "placeType": "quarter"
    },
    {
      "id": "saitama_unknown_kitahirano",
      "osmId": 7310839931,
      "name": "北平野",
      "nameKana": null,
      "nameTranslations": {
        "en": "Kitahirano"
      },