id,name,name_en,name_kana,lat,lon,place_type,is_in,old_name,all_tags
57544160,"田町","Tamachi","",35.6455451,139.7485367,locality,"","","{""name"":""田町"",""name:en"":""Tamachi"",""name:es"":""Tamachi"",""name:ja"":""田町"",""name:ru"":""Тамати"",""place"":""locality""}"
557718230,"伊豆諸島","Izu Islands","",31.9999272,139.9992275,locality,"","","{""int_name"":""Izu-shotō"",""name"":""伊豆諸島"",""name:en"":""Izu Islands"",""name:ja"":""伊豆諸島"",""place"":""locality""}"
1655964253,"吉野梅郷","Yoshino Baigo","",35.7854075,139.2209435,locality,"","","{""name"":""吉野梅郷"",""name:en"":""Yoshino Baigo"",""name:ja"":""吉野梅郷"",""place"":""locality"",""tourism"":""yes"",""wikidata"":""Q11414471"",""wikipedia"":""ja:吉野梅郷""}"
1657233010,"岩蔵温泉郷","Iwakura Onsen-kyo","",35.8255643,139.2904807,locality,"","","{""name"":""岩蔵温泉郷"",""name:en"":""Iwakura Onsen-kyo"",""name:ja"":""岩蔵温泉郷"",""place"":""locality"",""website"":""http://iwakuraonsen.jp/""}"
1978964492,"","","",35.7197426,139.2303935,locality,"","芹沢","{""old_name"":""芹沢"",""place"":""locality""}"
1978964497,"","","",35.7192026,139.2308977,locality,"","小峰","{""old_name"":""小峰"",""place"":""locality""}"
1978964501,"","","",35.7212498,139.2345565,locality,"","前沢","{""old_name"":""前沢"",""place"":""locality""}"
1978973471,"","","",35.7166395,139.235412,locality,"","高野","{""old_name"":""高野"",""place"":""locality""}"
1978973476,"","","",35.7230315,139.2326951,locality,"","東","{""old_name"":""東"",""place"":""locality""}"
1978973564,"","","",35.7202634,139.2364744,locality,"","安戸","{""old_name"":""安戸"",""place"":""locality""}"
1978973614,"","","",35.7217614,139.236399,locality,"","天王沢","{""old_name"":""天王沢"",""place"":""locality""}"
2087049016,"筆島","Fudeshima","ふでしま",34.7063929,139.4451299,locality,"","","{""name"":""筆島"",""name:en"":""Fudeshima"",""name:ja"":""筆島"",""name:ja_kana"":""ふでしま"",""name:ja_rm"":""Fudeshima"",""place"":""locality"",""source"":""GSI/KIBAN 25000"",""source_ref"":""source_ref=http://wiki.osm.org/wiki/GSI_KIBAN"",""url"":""http://oshima-gdm.jp/%E7%AD%86%E5%B3%B6"",""wikidata"":""Q11602695"",""wikipedia"":""ja:筆島""}"
2088095625,"トウシキの鼻","Toushiki no hana","",34.678789,139.4306663,locality,"","","{""name"":""トウシキの鼻"",""name:en"":""Toushiki no hana"",""name:ja"":""トウシキの鼻"",""name:ja_rm"":""Toushiki no hana"",""place"":""locality"",""source"":""GSI/KIBAN 2500"",""source_ref"":""http://wiki.osm.org/wiki/GSI_KIBAN"",""url"":""http://oshima-gdm.jp/%E3%83%88%E3%82%A6%E3%82%B7%E3%82%AD%28%E3%83%9C%E3%83%A0%E3%82%B5%E3%83%83%E3%82%B0%29""}"
2088110634,"龍王崎","","",34.6854407,139.4437289,locality,"","","{""name"":""龍王崎"",""name:ja_rm"":""Ryuozaki"",""place"":""locality"",""source"":""source=GSI/KIBAN 25000"",""source_ref"":""http://wiki.osm.org/wiki/GSI_KIBAN""}"
2088112202,"カキハラ磯","Kakihara iso","",34.6996977,139.4485392,locality,"","","{""name"":""カキハラ磯"",""name:en"":""Kakihara iso"",""name:ja"":""カキハラ磯"",""name:ja_rm"":""Kakihara iso"",""place"":""locality"",""source"":""source=GSI/KIBAN 25000"",""source_ref"":""http://wiki.osm.org/wiki/GSI_KIBAN""}"
2088123231,"千波崎","","",34.7020491,139.3589327,locality,"","","{""name"":""千波崎"",""place"":""locality"",""source"":""GSI/KIBAN 25000"",""source_ref"":""http://wiki.osm.org/wiki/GSI_KIBAN""}"
2088130188,"龍の口","Ryunokuchi","",34.7209793,139.3525821,locality,"","","{""name"":""龍の口"",""name:en"":""Ryunokuchi"",""name:ja"":""龍の口"",""name:ja_rm"":""Ryunokuchi"",""place"":""locality"",""source"":""GSI/KIBAN 25000"",""source_ref"":""http://wiki.osm.org/wiki/GSI_KIBAN""}"
2088130189,"王の浜","Ounohama","",34.7260854,139.3530423,locality,"","","{""name"":""王の浜"",""name:en"":""Ounohama"",""name:ja"":""王の浜"",""name:ja_rm"":""Ounohama"",""place"":""locality"",""source"":""GSI/KIBAN 25000"",""source_ref"":""http://wiki.osm.org/wiki/GSI_KIBAN""}"
2088130779,"前浜","","",34.7327955,139.3551248,locality,"","","{""name"":""前浜"",""name:ja_rm"":""Maehama"",""place"":""locality"",""source"":""GSI/KIBAN 25000"",""source_ref"":""http://wiki.osm.org/wiki/GSI_KIBAN""}"
2088130780,"弘法浜","Kohohama","こうほうはま",34.7459228,139.353773,locality,"","","{""name"":""弘法浜"",""name:en"":""Kohohama"",""name:ja"":""弘法浜"",""name:ja_kana"":""こうほうはま"",""name:ja_rm"":""Kohohama"",""place"":""locality"",""source"":""GSI/KIBAN 25000"",""source_ref"":""http://wiki.osm.org/wiki/GSI_KIBAN""}"
2088130781,"湯の浜","Yunohama","ゆのはま",34.7436025,139.356085,locality,"","","{""alt_name"":""地引浜"",""name"":""湯の浜"",""name:en"":""Yunohama"",""name:ja"":""湯の浜"",""name:ja_kana"":""ゆのはま"",""name:ja_rm"":""Yunohama"",""place"":""locality"",""source"":""GSI/KIBAN 25000"",""source_ref"":""http://wiki.osm.org/wiki/GSI_KIBAN""}"
2088141825,"前浜","","",34.7542533,139.3518847,locality,"","","{""name"":""前浜"",""name:ja_rm"":""Maehama"",""place"":""locality"",""source"":""GSI/KIBAN 25000"",""source_ref"":""http://wiki.osm.org/wiki/GSI_KIBAN""}"
2088141830,"長根","Nagane","",34.7557829,139.3502325,locality,"","","{""name"":""長根"",""name:en"":""Nagane"",""name:ja"":""長根"",""name:ja_rm"":""Nagane"",""place"":""locality"",""source"":""GSI/KIBAN 25000"",""source_ref"":""http://wiki.osm.org/wiki/GSI_KIBAN"",""url"":""http://oshima-gdm.jp/%E9%95%B7%E6%A0%B9""}"
2088145993,"泉浜","","",34.7694839,139.3520563,locality,"","","{""name"":""泉浜"",""name:ja_rm"":""Izumihama"",""place"":""locality"",""source"":""GSI/KIBAN 25000"",""source_ref"":""http://wiki.osm.org/wiki/GSI_KIBAN""}"
2088145998,"赤禿","Akappage","あかっぱげ",34.7749652,139.3495785,locality,"","","{""name"":""赤禿"",""name:en"":""Akappage"",""name:ja"":""赤禿"",""name:ja_kana"":""あかっぱげ"",""name:ja_rm"":""Akappage"",""place"":""locality"",""source"":""GSI/KIBAN 25000"",""source_ref"":""http://wiki.osm.org/wiki/GSI_KIBAN"",""url"":""http://oshima-gdm.jp/%E8%B5%A4%E7%A6%BF%28%E3%81%82%E3%81%8B%E3%81%A3%E3%81%B1%E3%81%92%29""}"
2088151692,"万立","","",34.7844082,139.3526354,locality,"","","{""name"":""万立"",""place"":""locality"",""source"":""GSI/KIBAN 25000"",""source_ref"":""http://wiki.osm.org/wiki/GSI_KIBAN""}"
2088151892,"乳が崎","","",34.7987638,139.3609994,locality,"","","{""name"":""乳が崎"",""name:ja_rm"":""Chichigasaki"",""place"":""locality"",""source"":""GSI/KIBAN 25000"",""source_ref"":""http://wiki.osm.org/wiki/GSI_KIBAN""}"
2088151893,"野田浜","","",34.7970907,139.3609329,locality,"","","{""name"":""野田浜"",""name:ja_rm"":""Nodahama"",""place"":""locality"",""source"":""GSI/KIBAN 25000"",""source_ref"":""http://wiki.osm.org/wiki/GSI_KIBAN""}"
2088154339,"碁石浜","","",34.7965486,139.3663527,locality,"","","{""name"":""碁石浜"",""name:ja_rm"":""Goishihama"",""place"":""locality"",""source"":""GSI/KIBAN 25000"",""source_ref"":""http://wiki.osm.org/wiki/GSI_KIBAN""}"
2088154340,"小口崎","","",34.7937692,139.3801986,locality,"","","{""name"":""小口崎"",""place"":""locality"",""source"":""GSI/KIBAN 25000"",""source_ref"":""http://wiki.osm.org/wiki/GSI_KIBAN""}"
2088154341,"風早崎","","",34.7980158,139.3719374,locality,"","","{""name"":""風早崎"",""place"":""locality"",""source"":""GSI/KIBAN 25000"",""source_ref"":""http://wiki.osm.org/wiki/GSI_KIBAN""}"
2088161311,"万根崎","","",34.7866851,139.4126426,locality,"","","{""name"":""万根崎"",""place"":""locality"",""source"":""GSI/KIBAN 25000"",""source_ref"":""http://wiki.osm.org/wiki/GSI_KIBAN""}"
2088161538,"松崎","","",34.7813981,139.4222557,locality,"","","{""name"":""松崎"",""place"":""locality"",""source"":""GSI/KIBAN 25000"",""source_ref"":""http://wiki.osm.org/wiki/GSI_KIBAN""}"
2088161539,"潮吹","","",34.781169,139.4210755,locality,"","","{""name"":""潮吹"",""place"":""locality"",""source"":""GSI/KIBAN 25000"",""source_ref"":""http://wiki.osm.org/wiki/GSI_KIBAN""}"
2088162729,"行者浜","Gyoja hama (Gyoja beach)","",34.7542705,139.4404915,locality,"","","{""name"":""行者浜"",""name:en"":""Gyoja hama (Gyoja beach)"",""name:ja"":""行者浜"",""name:ja_rm"":""Gyoja hama"",""place"":""locality"",""source"":""GSI/KIBAN 25000"",""source_ref"":""http://wiki.osm.org/wiki/GSI_KIBAN""}"
2088167964,"長根岬","Nagane misaki (Nagane cape)","ながねみさき",34.7403982,139.4489749,locality,"","","{""name"":""長根岬"",""name:en"":""Nagane misaki (Nagane cape)"",""name:ja"":""長根岬"",""name:ja_kana"":""ながねみさき"",""name:ja_rm"":""Nagane misaki"",""place"":""locality"",""source"":""GSI/KIBAN 25000"",""source_ref"":""http://wiki.osm.org/wiki/GSI_KIBAN""}"
2088171787,"黒崎","","",34.7154063,139.4492247,locality,"","","{""name"":""黒崎"",""place"":""locality"",""source"":""GSI/KIBAN 25000"",""source_ref"":""http://wiki.osm.org/wiki/GSI_KIBAN""}"
2090976979,"奥山砂漠","Okuyamasabaku (Okuyama desert)","おくやまさばく",34.7443587,139.4276561,locality,"","","{""name"":""奥山砂漠"",""name:en"":""Okuyamasabaku (Okuyama desert)"",""name:ja"":""奥山砂漠"",""name:ja_kana"":""おくやまさばく"",""name:ja_rm"":""Okuyamasabaku"",""place"":""locality"",""source"":""GSI/KIBAN 25000"",""source_ref"":""http://wiki.osm.org/wiki/GSI_KIBAN""}"
2128407938,"惣兵衛越し","","",34.7487316,139.3536909,locality,"","","{""name"":""惣兵衛越し"",""place"":""locality""}"
2128486783,"サンカク","","",34.7447974,139.3541263,locality,"","","{""name"":""サンカク"",""place"":""locality""}"
2128497154,"為朝の刀研ぎ場","","",34.7425558,139.3575973,locality,"","","{""name"":""為朝の刀研ぎ場"",""place"":""locality""}"
2362796467,"ひよどり沢","","",35.6739993,139.339559,locality,"","","{""name"":""ひよどり沢"",""place"":""locality""}"
2362796468,"くぬぎ平","","",35.6722713,139.3418311,locality,"","","{""name"":""くぬぎ平"",""place"":""locality""}"
2362796469,"みずき平","","",35.6736309,139.341123,locality,"","","{""name"":""みずき平"",""place"":""locality""}"
2362796470,"ひよどり山","","",35.6755705,139.3424731,locality,"","","{""name"":""ひよどり山"",""place"":""locality""}"
2362796471,"水源涵養林","","",35.6744613,139.3388885,locality,"","","{""name"":""水源涵養林"",""place"":""locality""}"
2402661813,"草堂ノ入","","",35.7341494,139.2396981,locality,"","","{""name"":""草堂ノ入"",""place"":""locality""}"
2402681559,"中央湿地","","",35.7354965,139.2417527,locality,"","","{""name"":""中央湿地"",""place"":""locality""}"
2402681560,"富田ノ入","","",35.7352309,139.2393177,locality,"","","{""name"":""富田ノ入"",""place"":""locality""}"
2402687748,"下ノ川","","",35.7357852,139.2438581,locality,"","","{""name"":""下ノ川"",""place"":""locality""}"
2402687751,"宮田西沢","","",35.7367723,139.2409265,locality,"","","{""name"":""宮田西沢"",""place"":""locality""}"
2402687752,"宮田東沢","","",35.7365437,139.2419243,locality,"","","{""name"":""宮田東沢"",""place"":""locality""}"
2402687756,"荒田ノ入","","",35.7370771,139.2396074,locality,"","","{""name"":""荒田ノ入"",""place"":""locality""}"
2442452449,"鳩ノ巣渓谷","Hatonosu Valley","",35.8131774,139.1291762,locality,"","","{""name"":""鳩ノ巣渓谷"",""name:en"":""Hatonosu Valley"",""name:ja"":""鳩ノ巣渓谷"",""place"":""locality"",""wikidata"":""Q11675195"",""wikipedia"":""ja:鳩ノ巣渓谷""}"
2571008577,"芋坂","Imosaka","",35.7266876,139.7735296,locality,"","","{""name"":""芋坂"",""name:en"":""Imosaka"",""place"":""locality""}"
2906663008,"大字五ノ神字武蔵野","","",35.769146,139.3303125,locality,"","","{""name"":""大字五ノ神字武蔵野"",""place"":""locality"",""ref"":""132270015000"",""source"":""ISJ 2012""}"
2906663013,"大字川崎字武蔵野","Oaza Kawasaki-aza Musashino","",35.7625232,139.3345781,locality,"","","{""name"":""大字川崎字武蔵野"",""name:en"":""Oaza Kawasaki-aza Musashino"",""place"":""locality"",""ref"":""132270016000"",""source"":""ISJ 2012""}"
2906663021,"大字羽字武蔵野","","",35.7668401,139.3309346,locality,"","","{""name"":""大字羽字武蔵野"",""place"":""locality"",""ref"":""132270014000"",""source"":""ISJ 2012""}"
2906663022,"大字羽字玉川附","","",35.7551111,139.3029956,locality,"","","{""name"":""大字羽字玉川附"",""place"":""locality"",""ref"":""132270013000"",""source"":""ISJ 2012""}"
2906663023,"大字羽字羽ケ上","","",35.7689124,139.3057722,locality,"","","{""name"":""大字羽字羽ケ上"",""place"":""locality"",""ref"":""132270012000"",""source"":""ISJ 2012""}"
3259183358,"地鉈温泉","","",34.3178786,139.2160101,locality,"","","{""amenity"":""public_bath"",""bath:type"":""onsen"",""fee"":""no"",""name"":""地鉈温泉"",""natural"":""hot_spring"",""place"":""locality"",""wikidata"":""Q11424716""}"
3997059716,"御岳渓谷","Mitake Gorge","",35.8009016,139.1848433,locality,"","","{""name"":""御岳渓谷"",""name:en"":""Mitake Gorge"",""name:ja"":""御岳渓谷"",""place"":""locality""}"
4267999539,"大千代港","","",32.4572392,139.7812589,locality,"","","{""harbour"":""yes"",""name"":""大千代港"",""place"":""locality""}"
4267999540,"大名子","","",32.4619321,139.7774544,locality,"","","{""name"":""大名子"",""place"":""locality""}"
4267999541,"三宝港","","",32.4467665,139.7589463,locality,"","","{""harbour"":""yes"",""name"":""三宝港"",""official_name"":""青ヶ島港"",""place"":""locality""}"
4271603479,"式根島港","","",34.3196482,139.2184653,locality,"","","{""harbour"":""yes"",""name"":""式根島港"",""place"":""locality"",""wikidata"":""Q11487036"",""wikipedia"":""ja:式根島港""}"
4271603486,"袴ヶ崎","","",34.3294846,139.2007031,locality,"","","{""name"":""袴ヶ崎"",""natural"":""cape"",""place"":""locality""}"
4271603487,"足付温泉","","",34.3198614,139.2175764,locality,"","","{""amenity"":""public_bath"",""bath:type"":""onsen"",""fee"":""no"",""name"":""足付温泉"",""natural"":""hot_spring"",""place"":""locality""}"
4277500882,"コシダ崩れ","","",34.5121165,139.2716934,locality,"","","{""name"":""コシダ崩れ"",""place"":""locality""}"
4277500883,"ツムギ根","","",34.5319643,139.2847376,locality,"","","{""name"":""ツムギ根"",""place"":""locality""}"
4277500884,"ナズカタ","","",34.5197251,139.2900012,locality,"","","{""name"":""ナズカタ"",""place"":""locality""}"
4277502439,"亀石","","",34.5171156,139.2683757,locality,"","","{""name"":""亀石"",""place"":""locality""}"
4277502440,"利島港","","",34.5323982,139.2810088,locality,"","","{""harbour"":""yes"",""name"":""利島港"",""place"":""locality""}"
4277502441,"大根","","",34.5305849,139.2720572,locality,"","","{""name"":""大根"",""place"":""locality""}"
4277502442,"橋","","",34.5285706,139.2904128,locality,"","","{""name"":""橋"",""place"":""locality""}"
4277505666,"大和田","","",34.3755434,139.2243463,locality,"","","{""name"":""大和田"",""place"":""locality""}"
4279773270,"里","","",33.8950581,139.5941242,locality,"","","{""name"":""里"",""place"":""locality""}"
4344283097,"新澪池跡","","",34.0506576,139.5024097,locality,"","","{""name"":""新澪池跡"",""place"":""locality""}"
4344301767,"ミノワ","","",34.1173245,139.5492069,locality,"","","{""name"":""ミノワ"",""place"":""locality""}"
4344301770,"六双根","","",34.0907722,139.4823703,locality,"","","{""name"":""六双根"",""place"":""locality""}"
4344301774,"湯ノ浜","","",34.1246277,139.5339853,locality,"","","{""name"":""湯ノ浜"",""place"":""locality""}"
4344301776,"赤場暁","","",34.1052038,139.5602361,locality,"","","{""name"":""赤場暁"",""place"":""locality""}"
4385207873,"千両池","Senryo Pond","せんりょういけ",34.1896899,139.1210909,locality,"","","{""name"":""千両池"",""name:en"":""Senryo Pond"",""name:ja"":""千両池"",""name:ja-Hira"":""せんりょういけ"",""place"":""locality""}"
4385207886,"神木島","","かんきじま",34.2086491,139.1309238,locality,"","","{""name"":""神木島"",""name:ja-Hira"":""かんきじま"",""name:ja-Latn"":""Kanki Jima"",""place"":""locality""}"
4407498658,"アジア磯","","",34.4060931,139.2621067,locality,"","","{""name"":""アジア磯"",""place"":""locality""}"
4407499786,"高根","","",34.3965282,139.2550471,locality,"","","{""name"":""高根"",""place"":""locality""}"
4408687332,"湯の浜漁港","","",34.1240286,139.5314054,locality,"","","{""harbour"":""yes"",""name"":""湯の浜漁港"",""place"":""locality""}"
4409671515,"儀兵岩","Gihei Rock","ぎへい いわ",27.1003084,142.1816202,locality,"","","{""name"":""儀兵岩"",""name:en"":""Gihei Rock"",""name:es"":""Roca Gihei"",""name:fr"":""Rocher de Gihei"",""name:ja-Hira"":""ぎへい いわ"",""name:ja-Latn"":""Gi-hei iwa"",""place"":""locality""}"
4411502515,"二見岩","Futami Rock","ふたみ いわ",27.0954484,142.1995631,locality,"","","{""name"":""二見岩"",""name:en"":""Futami Rock"",""name:fr"":""Rocher Futami"",""name:ja-Hira"":""ふたみ いわ"",""name:ja-Latn"":""Futami-iwa"",""place"":""locality""}"
4411502518,"宮之浜","","",27.1035619,142.1944341,locality,"","","{""name"":""宮之浜"",""natural"":""beach"",""place"":""locality""}"
4411502519,"屏風谷","","",27.0928581,142.205925,locality,"","","{""name"":""屏風谷"",""natural"":""valley"",""place"":""locality""}"
4411502526,"釣浜","","",27.1036527,142.2050476,locality,"","","{""name"":""釣浜"",""natural"":""beach"",""place"":""locality""}"
4414864857,"ウグイス浜","","",27.1248834,142.190955,locality,"","","{""name"":""ウグイス浜"",""natural"":""beach"",""place"":""locality""}"
4414865489,"二俣岬","","",27.1440686,142.1914913,locality,"","","{""name"":""二俣岬"",""natural"":""cape"",""place"":""locality""}"
4414865492,"兄島瀬戸","","",27.1078637,142.2021076,locality,"","","{""name"":""兄島瀬戸"",""place"":""locality""}"
4414865494,"吐出鼻","","",27.1099361,142.2009462,locality,"","","{""name"":""吐出鼻"",""natural"":""cape"",""place"":""locality""}"
4414865497,"家内見崎","","",27.1100253,142.2355895,locality,"","","{""name"":""家内見崎"",""natural"":""cape"",""place"":""locality""}"
4414865499,"弟島瀬戸","","",27.1441975,142.189654,locality,"","","{""name"":""弟島瀬戸"",""place"":""locality""}"
4414865500,"挙崎","","",27.1324109,142.2194855,locality,"","","{""name"":""挙崎"",""natural"":""cape"",""place"":""locality""}"
4414865502,"滝之浦","","",27.117595,142.2058976,locality,"","","{""name"":""滝之浦"",""place"":""locality""}"
4414865510,"立神崎","","",27.1304153,142.1871407,locality,"","","{""name"":""立神崎"",""natural"":""cape"",""place"":""locality""}"
4414865511,"筋岩岬","","",27.1218349,142.1872589,locality,"","","{""name"":""筋岩岬"",""natural"":""cape"",""place"":""locality""}"
4420332364,"神湊漁港","","",33.1314054,139.8057692,locality,"","","{""harbour"":""yes"",""name"":""神湊漁港"",""place"":""locality""}"
4421870872,"大平潟","","",33.1303756,139.815106,locality,"","","{""name"":""大平潟"",""place"":""locality""}"
4421870873,"神湊 (底土) 港","","",33.1214624,139.8190113,locality,"","","{""alt_name"":""底土港"",""harbour"":""yes"",""name"":""神湊 (底土) 港"",""place"":""locality""}"
4469471109,"ウロウ根","","",33.0673685,139.8425586,locality,"","","{""name"":""ウロウ根"",""place"":""locality""}"
4469471110,"エイガ浦","","",33.1335001,139.7379994,locality,"","","{""name"":""エイガ浦"",""place"":""locality""}"
4469471111,"オアサ根","","",33.1544804,139.7780756,locality,"","","{""name"":""オアサ根"",""place"":""locality""}"
4469471116,"ナズマド","","",33.1449992,139.7393995,locality,"","","{""name"":""ナズマド"",""place"":""locality""}"
4469471148,"乙千代ケ浜","","",33.0655658,139.7941347,locality,"","","{""name"":""乙千代ケ浜"",""name:ja-Latn"":""Occhogahama"",""natural"":""beach"",""place"":""locality""}"
4469471149,"亀トド","","",33.0561829,139.8215321,locality,"","","{""name"":""亀トド"",""place"":""locality""}"
4469471152,"八重根港","","",33.0978745,139.7696951,locality,"","","{""harbour"":""yes"",""name"":""八重根港"",""place"":""locality""}"
4469471153,"八重根漁港","","",33.0998878,139.7777417,locality,"","","{""harbour"":""yes"",""name"":""八重根漁港"",""place"":""locality""}"
4469471157,"南原千畳敷","","",33.1061295,139.7541704,locality,"","","{""name"":""南原千畳敷"",""place"":""locality""}"
4469471159,"大ヶ根","","",33.0842544,139.8603054,locality,"","","{""name"":""大ヶ根"",""place"":""locality""}"
4469471166,"屋けんケ浜","","",33.1007191,139.7696226,locality,"","","{""name"":""屋けんケ浜"",""natural"":""beach"",""place"":""locality""}"
4469471174,"火潟","","",33.1401078,139.7378519,locality,"","","{""name"":""火潟"",""place"":""locality""}"
4469471176,"白ママ","","",33.1106657,139.8492413,locality,"","","{""name"":""白ママ"",""place"":""locality""}"
4469471183,"赤崎","","",33.1576129,139.7745257,locality,"","","{""name"":""赤崎"",""natural"":""cape"",""place"":""locality""}"
4469471187,"鮫切","","",33.1583023,139.7565415,locality,"","","{""name"":""鮫切"",""place"":""locality""}"
4470977950,"初寝崎","","",30.4835391,140.2867748,locality,"","","{""name"":""初寝崎"",""natural"":""cape"",""place"":""locality""}"
4470977951,"小島","","",30.4852634,140.2866849,locality,"","","{""name"":""小島"",""place"":""locality""}"
4471310861,"四本岩","","",26.6478574,142.1435602,locality,"","","{""name"":""四本岩"",""place"":""locality""}"
4471310863,"大瀬戸","","",26.6067698,142.1777235,locality,"","","{""name"":""大瀬戸"",""place"":""locality""}"
4471310867,"母島漁港","","",26.6930281,142.147432,locality,"","","{""harbour"":""yes"",""name"":""母島漁港"",""place"":""locality""}"
4471310868,"沖ノ浅根","","おきの あさね",26.6303365,142.1567902,locality,"","","{""name"":""沖ノ浅根"",""name:ja-Hira"":""おきの あさね"",""name:ja-Latn"":""Oki-no-Asane"",""place"":""locality""}"
4471310873,"西浦","","にしうら",26.6536563,142.14911,locality,"","","{""name"":""西浦"",""name:fr"":""Côte Ouest"",""name:ja-Hira"":""にしうら"",""name:ja-Latn"":""Nishi-ura"",""place"":""locality""}"
4471310875,"針ノ岩","","",26.6807676,142.1623263,locality,"","","{""name"":""針ノ岩"",""place"":""locality""}"
4488559740,"伊ヶ谷漁港","","",34.1008528,139.4886399,locality,"","","{""harbour"":""yes"",""name"":""伊ヶ谷漁港"",""place"":""locality""}"
4488613183,"阿古漁港","","",34.066655,139.4804182,locality,"","","{""harbour"":""yes"",""name"":""阿古漁港"",""place"":""locality""}"
5008998805,"松が下雅湯","","",34.3205906,139.2182186,locality,"","","{""amenity"":""public_bath"",""bath:type"":""onsen"",""fee"":""no"",""name"":""松が下雅湯"",""natural"":""hot_spring"",""place"":""locality""}"
5011794328,"唐人津城","","",34.3211407,139.1960987,locality,"","","{""name"":""唐人津城"",""place"":""locality""}"
5011794329,"隈の井","","",34.3180793,139.1985154,locality,"","","{""name"":""隈の井"",""place"":""locality""}"
5011794337,"小浜漁港","","",34.330453,139.2228967,locality,"","","{""harbour"":""yes"",""name"":""小浜漁港"",""place"":""locality""}"
5022092028,"前浜","","",34.5319624,139.2778096,locality,"","","{""name"":""前浜"",""place"":""locality""}"
5126406832,"三原山","","",33.0942561,139.8134708,locality,"","","{""name"":""三原山"",""place"":""locality""}"
5126406833,"八丈富士","","",33.1388089,139.7644615,locality,"","","{""name"":""八丈富士"",""place"":""locality""}"
5181297587,"Taka Bureau Board","","",24.2956006,153.9837112,locality,"Minami Torishima","","{""is_in"":""Minami Torishima"",""name"":""Taka Bureau Board"",""name:hu"":""Takan Iroda"",""place"":""locality""}"
5222825806,"鎧端","","",34.7428468,139.3875789,locality,"","","{""name"":""鎧端"",""place"":""locality""}"
5222825807,"滑台","","",34.7206978,139.385004,locality,"","","{""name"":""滑台"",""place"":""locality""}"
5222825808,"鏡端","","",34.7322668,139.3798542,locality,"","","{""name"":""鏡端"",""place"":""locality""}"
5296974307,"原宿","Harajuku","",35.6687049,139.7053357,locality,"","","{""name"":""原宿"",""name:en"":""Harajuku"",""name:es"":""Harajuku"",""name:fr"":""Harajuku"",""name:it"":""Harajuku"",""name:ja"":""原宿"",""name:ja-Latn"":""Harajuku"",""name:zh"":""原宿"",""place"":""locality"",""wikidata"":""Q746573"",""wikipedia"":""ja:原宿""}"
5996386820,"高砂台","Takasagodai","",24.7626474,141.3011271,locality,"","","{""name"":""高砂台"",""name:en"":""Takasagodai"",""place"":""locality"",""source"":""GSImaps/std""}"
5996386821,"千鳥ヶ原","Chidorigahara","",24.7606404,141.2946469,locality,"","","{""name"":""千鳥ヶ原"",""name:en"":""Chidorigahara"",""place"":""locality"",""source"":""GSImaps/std""}"
5996386822,"鶯","","",24.7703765,141.2992549,locality,"","","{""name"":""鶯"",""place"":""locality"",""source"":""GSImaps/std""}"
5996386827,"東","Azuma","",24.7811559,141.3392856,locality,"","","{""name"":""東"",""name:en"":""Azuma"",""place"":""locality"",""source"":""GSImaps/std""}"
5996386828,"玉名山","","",24.784939,141.3323157,locality,"","","{""name"":""玉名山"",""place"":""locality"",""source"":""GSImaps/std""}"
5996386830,"金剛岩","Kongō iwa","",24.7928739,141.3431774,locality,"","","{""name"":""金剛岩"",""name:en"":""Kongō iwa"",""place"":""locality"",""source"":""GSImaps/std""}"
5996386831,"古山","","",24.7956294,141.3328731,locality,"","","{""name"":""古山"",""place"":""locality"",""source"":""GSImaps/std""}"
5996386832,"東山","","",24.7924363,141.334762,locality,"","","{""name"":""東山"",""place"":""locality"",""source"":""GSImaps/std""}"
5996386834,"三軒家","","",24.7969447,141.3174895,locality,"","","{""name"":""三軒家"",""place"":""locality"",""source"":""GSImaps/std""}"
5996386835,"元山","","",24.7868805,141.3217443,locality,"","","{""name"":""元山"",""place"":""locality"",""source"":""GSImaps/std""}"
5996386836,"阿蘇台","Aso-dai","",24.7848029,141.3026265,locality,"","","{""name"":""阿蘇台"",""name:en"":""Aso-dai"",""place"":""locality"",""source"":""GSImaps/std""}"
5996386837,"西","","",24.7973444,141.3086689,locality,"","","{""name"":""西"",""place"":""locality"",""source"":""GSImaps/std""}"
5996386838,"漂流木","","",24.803489,141.3168892,locality,"","","{""name"":""漂流木"",""place"":""locality"",""source"":""GSImaps/std""}"
5996386839,"北","","",24.8024207,141.3216526,locality,"","","{""name"":""北"",""place"":""locality"",""source"":""GSImaps/std""}"
5996386843,"南","","",24.7777526,141.3234961,locality,"","","{""name"":""南"",""place"":""locality"",""source"":""GSImaps/std""}"
5996386844,"霧島","","",24.7931954,141.3081295,locality,"","","{""name"":""霧島"",""place"":""locality"",""source"":""GSImaps/std""}"
5996386845,"漂流木海岸","","",24.801637,141.3092999,locality,"","","{""name"":""漂流木海岸"",""place"":""locality"",""source"":""GSImaps/std""}"
5996425165,"石野村","","",25.4375895,141.2919707,locality,"","","{""name"":""石野村"",""place"":""locality"",""source"":""GSImaps/std""}"
5996425166,"西村","","",25.4444486,141.276756,locality,"","","{""name"":""西村"",""place"":""locality"",""source"":""GSImaps/std""}"
5996489495,"姪島瀬戸","","",26.5640804,142.2226453,locality,"","","{""name"":""姪島瀬戸"",""place"":""locality"",""source"":""GSImaps/std""}"
5996489507,"北浦","","",26.5617066,142.1575281,locality,"","","{""name"":""北浦"",""place"":""locality"",""source"":""GSImaps/std""}"
5996489513,"姉島瀬戸","","",26.5675251,142.148247,locality,"","","{""name"":""姉島瀬戸"",""place"":""locality"",""source"":""GSImaps/std""}"
5996489516,"丸島瀬戸","","",26.5968797,142.1720342,locality,"","","{""name"":""丸島瀬戸"",""place"":""locality"",""source"":""GSImaps/std""}"
5996489519,"向島瀬戸","","",26.5913292,142.1359336,locality,"","","{""name"":""向島瀬戸"",""place"":""locality"",""source"":""GSImaps/std""}"
5996489520,"安井海岸","","",26.6067558,142.1333246,locality,"","","{""name"":""安井海岸"",""place"":""locality"",""source"":""GSImaps/std""}"
5996489521,"石浜","","",26.6035403,142.1348621,locality,"","","{""name"":""石浜"",""place"":""locality"",""source"":""GSImaps/std""}"
5996489525,"コペペ浜","","",26.5998382,142.1278163,locality,"","","{""name"":""コペペ浜"",""place"":""locality"",""source"":""GSImaps/std""}"
6484427285,"渋谷百軒店","Hyakkendana","しぶやひゃっけんだな",35.6589174,139.6964855,locality,"","","{""name"":""渋谷百軒店"",""name:en"":""Hyakkendana"",""name:ja"":""渋谷百軒店"",""name:ja-Hira"":""しぶやひゃっけんだな"",""place"":""locality""}"
6664883298,"大黒根海岸","","",34.2430049,139.1397428,locality,"","","{""name"":""大黒根海岸"",""place"":""locality""}"
6664883299,"水がしり海岸","","",34.2421446,139.1386056,locality,"","","{""name"":""水がしり海岸"",""place"":""locality""}"
6664910353,"沢尻海岸","","",34.2175823,139.1339225,locality,"","","{""name"":""沢尻海岸"",""place"":""locality""}"
6664924216,"小浜","","",34.2235351,139.134534,locality,"","","{""name"":""小浜"",""place"":""locality""}"
6664924239,"うらん根海岸","","",34.2319179,139.1354728,locality,"","","{""name"":""うらん根海岸"",""place"":""locality""}"
6664924240,"たたみが鼻","","",34.2349869,139.1344428,locality,"","","{""name"":""たたみが鼻"",""place"":""locality""}"
6672822819,"おおだちの入り江","","",34.2365923,139.1353011,locality,"","","{""name"":""おおだちの入り江"",""place"":""locality""}"
6808377675,"下北沢","Shimokitazawa","しもきたざわ",35.6616779,139.6663345,locality,"","","{""alt_name"":""北沢五丁目"",""name"":""下北沢"",""name:en"":""Shimokitazawa"",""name:es"":""Shimokitazawa"",""name:fr"":""Shimokitazawa"",""name:ja-Hira"":""しもきたざわ"",""name:ja-Latn"":""Shimokitasawa"",""name:ko"":""시모키타자와"",""place"":""locality"",""postal_code"":""155-0031"",""wikidata"":""Q735384"",""wikimedia_commons"":""Category:Shimokitazawa"",""wikipedia"":""ja:下北沢""}"
7159763175,"そよぎの丘","","",35.7025005,139.4074903,locality,"","","{""name"":""そよぎの丘"",""place"":""locality""}"
7159763182,"小さな池の間","","",35.7041471,139.4081227,locality,"","","{""name"":""小さな池の間"",""natural"":""water"",""place"":""locality"",""ref"":""H""}"
7159763183,"シンボルツリーの間","","",35.7040551,139.4079316,locality,"","","{""name"":""シンボルツリーの間"",""place"":""locality"",""ref"":""G""}"
7159800485,"エクボの間","","",35.7038438,139.407898,locality,"","","{""name"":""エクボの間"",""place"":""locality"",""ref"":""F""}"
7159800486,"実りの間","","",35.7035481,139.407898,locality,"","","{""landuse"":""farmland"",""name"":""実りの間"",""place"":""locality"",""ref"":""E""}"
7159800487,"小さな丘の間","","",35.7034136,139.4079544,locality,"","","{""name"":""小さな丘の間"",""place"":""locality"",""ref"":""D""}"
7159800488,"花と香りの間","","",35.7034125,139.4078082,locality,"","","{""leisure"":""garden"",""name"":""花と香りの間"",""place"":""locality"",""ref"":""C""}"
7159800489,"大広間","","",35.7033173,139.4079296,locality,"","","{""landuse"":""recreation_ground"",""name"":""大広間"",""place"":""locality"",""ref"":""B""}"
7159800490,"エントランス(出会いの間)","","",35.7029587,139.4079299,locality,"","","{""entrance"":""yes"",""name"":""エントランス(出会いの間)"",""place"":""locality"",""ref"":""A""}"
8310535849,"蓬莱根海岸","Horaine coast","ほうらい ね かいがん",26.6154405,142.1782619,locality,"","","{""name"":""蓬莱根海岸"",""name:en"":""Horaine coast"",""name:fr"":""Côte Hōraine"",""name:ja-Hira"":""ほうらい ね かいがん"",""name:ja-Latn"":""Hōraine-kaigan"",""place"":""locality""}"
8310535850,"四ッ海岸","","",26.6215024,142.1763843,locality,"","","{""name"":""四ッ海岸"",""place"":""locality""}"
9468310348,"二ッ根浜","1945 US military landing Nitonehama","",24.75588,141.3013586,locality,"","","{""name"":""二ッ根浜"",""name:en"":""1945 US military landing Nitonehama"",""place"":""locality""}"
9468310379,"為八海岸","Tamehachi coast","",24.8083477,141.3215495,locality,"","","{""name"":""為八海岸"",""name:en"":""Tamehachi coast"",""place"":""locality""}"
9468312340,"ジェット燃料タンク","Fuel tanks","",24.7848047,141.3042864,locality,"","","{""name"":""ジェット燃料タンク"",""name:en"":""Fuel tanks"",""place"":""locality""}"
11982721590,"坪田漁港","","",34.0572216,139.5442817,locality,"","","{""harbour"":""yes"",""name"":""坪田漁港"",""place"":""locality""}"
11982721591,"大久保漁港","","",34.1221702,139.508442,locality,"","","{""harbour"":""yes"",""name"":""大久保漁港"",""place"":""locality""}"
12112280370,"","Yurakucho Yakitori Alley","",35.672258,139.7603098,locality,"","","{""alt_name:en"":""Memory Lane"",""name:en"":""Yurakucho Yakitori Alley"",""note"":""an alley lined with yakitori shops, under the rail tracks"",""place"":""locality""}"