[
  {
    "id": "egypt",
    "name": "エジプト",
    "name_kana": "",
    "latitude": 26.8206,
    "longitude": 30.8025,
    "country_code": "eg"
  },
  {
    "id": "morocco",
    "name": "モロッコ",
    "name_kana": "",
    "latitude": 31.7917,
    "longitude": -7.0926,
    "country_code": "ma"
  },
  {
    "id": "south_africa",
    "name": "南アフリカ",
    "name_kana": "",
    "latitude": -30.5595,
    "longitude": 22.9375,
    "country_code": "za"
  },
  {
    "id": "kenya",
    "name": "ケニア",
    "name_kana": "",
    "latitude": -0.0236,
    "longitude": 37.9062,
    "country_code": "ke"
  },
  {
    "id": "tanzania",
    "name": "タンザニア",
    "name_kana": "",
    "latitude": -6.369,
    "longitude": 34.8888,
    "country_code": "tz"
  },
  {
    "id": "tunisia",
    "name": "チュニジア",
    "name_kana": "",
    "latitude": 33.8869,
    "longitude": 9.5375,
    "country_code": "tn"
  },
  {
    "id": "mauritius",
    "name": "モーリシャス",
    "name_kana": "",
    "latitude": -20.3484,
    "longitude": 57.5522,
    "country_code": "mu"
  }
]
