[
  {
    "id": "thailand",
    "name": "タイ",
    "name_en": "Thailand",
    "name_kana": "",
    "latitude": 15.87,
    "longitude": 100.9925,
    "country_code": "th"
  },
  {
    "id": "vietnam",
    "name": "ベトナム",
    "name_en": "Vietnam",
    "name_kana": "",
    "latitude": 14.0583,
    "longitude": 108.2772,
    "country_code": "vn"
  },
  {
    "id": "singapore",
    "name": "シンガポール",
    "name_en": "Singapore",
    "name_kana": "",
    "latitude": 1.3521,
    "longitude": 103.8198,
    "country_code": "sg"
  },
  {
    "id": "malaysia",
    "name": "マレーシア",
    "name_en": "Malaysia",
    "name_kana": "",
    "latitude": 4.2105,
    "longitude": 101.9758,
    "country_code": "my"
  },
  {
    "id": "indonesia",
    "name": "インドネシア",
    "name_en": "Indonesia",
    "name_kana": "",
    "latitude": -0.7893,
    "longitude": 113.9213,
    "country_code": "id"
  },
  {
    "id": "philippines",
    "name": "フィリピン",
    "name_en": "Philippines",
    "name_kana": "",
    "latitude": 12.8797,
    "longitude": 121.774,
    "country_code": "ph"
  },
  {
    "id": "cambodia",
    "name": "カンボジア",
    "name_en": "Cambodia",
    "name_kana": "",
    "latitude": 12.5657,
    "longitude": 104.991,
    "country_code": "kh"
  },
  {
    "id": "myanmar",
    "name": "ミャンマー",
    "name_en": "Myanmar",
    "name_kana": "",
    "latitude": 21.9162,
    "longitude": 95.956,
    "country_code": "mm"
  },
  {
    "id": "laos",
    "name": "ラオス",
    "name_en": "Laos",
    "name_kana": "",
    "latitude": 19.8563,
    "longitude": 102.4955,
    "country_code": "la"
  },
  {
    "id": "brunei",
    "name": "ブルネイ",
    "name_en": "Brunei",
    "name_kana": "",
    "latitude": 4.5353,
    "longitude": 114.7277,
    "country_code": "bn"
  },
  {
    "id": "timor_leste",
    "name": "東ティモール",
    "name_en": "Timor-Leste",
    "name_kana": "",
    "latitude": -8.8742,
    "longitude": 125.7275,
    "country_code": "tl"
  }
]
