[
  {
    "id": "us_ar",
    "name": "アーカンソー州",
    "name_kana": "",
    "region_id": "us_south",
    "latitude": 34.75037,
    "longitude": -92.50044,
    "name_translations": {
      "en": "Arkansas"
    }
  },
  {
    "id": "us_dc",
    "name": "コロンビア特別区",
    "name_kana": "",
    "region_id": "us_south",
    "latitude": 38.91706,
    "longitude": -77.00025,
    "name_translations": {
      "en": "District of Columbia"
    }
  },
  {
    "id": "us_de",
    "name": "デラウェア州",
    "name_kana": "",
    "region_id": "us_south",
    "latitude": 39.00039,
    "longitude": -75.49992,
    "name_translations": {
      "en": "Delaware"
    }
  },
  {
    "id": "us_fl",
    "name": "フロリダ州",
    "name_kana": "",
    "region_id": "us_south",
    "latitude": 28.75054,
    "longitude": -82.5001,
    "name_translations": {
      "en": "Florida"
    }
  },
  {
    "id": "us_ga",
    "name": "ジョージア州",
    "name_kana": "",
    "region_id": "us_south",
    "latitude": 32.75042,
    "longitude": -83.50018,
    "name_translations": {
      "en": "Georgia"
    }
  },
  {
    "id": "us_ks",
    "name": "カンザス州",
    "name_kana": "",
    "region_id": "us_midwest",
    "latitude": 38.50029,
    "longitude": -98.50063,
    "name_translations": {
      "en": "Kansas"
    }
  },
  {
    "id": "us_la",
    "name": "ルイジアナ州",
    "name_kana": "",
    "region_id": "us_south",
    "latitude": 31.00047,
    "longitude": -92.0004,
    "name_translations": {
      "en": "Louisiana"
    }
  },
  {
    "id": "us_md",
    "name": "メリーランド州",
    "name_kana": "",
    "region_id": "us_south",
    "latitude": 39.00039,
    "longitude": -76.74997,
    "name_translations": {
      "en": "Maryland"
    }
  },
  {
    "id": "us_mo",
    "name": "ミズーリ州",
    "name_kana": "",
    "region_id": "us_midwest",
    "latitude": 38.25031,
    "longitude": -92.50046,
    "name_translations": {
      "en": "Missouri"
    }
  },
  {
    "id": "us_ms",
    "name": "ミシシッピ州",
    "name_kana": "",
    "region_id": "us_south",
    "latitude": 32.75041,
    "longitude": -89.75036,
    "name_translations": {
      "en": "Mississippi"
    }
  },
  {
    "id": "us_nc",
    "name": "ノースカロライナ州",
    "name_kana": "",
    "region_id": "us_south",
    "latitude": 35.50069,
    "longitude": -80.00032,
    "name_translations": {
      "en": "North Carolina"
    }
  },
  {
    "id": "us_ok",
    "name": "オクラホマ州",
    "name_kana": "",
    "region_id": "us_south",
    "latitude": 35.49209,
    "longitude": -97.50328,
    "name_translations": {
      "en": "Oklahoma"
    }
  },
  {
    "id": "us_sc",
    "name": "サウスカロライナ州",
    "name_kana": "",
    "region_id": "us_south",
    "latitude": 34.00043,
    "longitude": -81.00009,
    "name_translations": {
      "en": "South Carolina"
    }
  },
  {
    "id": "us_tn",
    "name": "テネシー州",
    "name_kana": "",
    "region_id": "us_south",
    "latitude": 35.75035,
    "longitude": -86.25027,
    "name_translations": {
      "en": "Tennessee"
    }
  },
  {
    "id": "us_tx",
    "name": "テキサス州",
    "name_kana": "",
    "region_id": "us_south",
    "latitude": 31.25044,
    "longitude": -99.25061,
    "name_translations": {
      "en": "Texas"
    }
  },
  {
    "id": "us_wv",
    "name": "ウェストバージニア州",
    "name_kana": "",
    "region_id": "us_south",
    "latitude": 38.50038,
    "longitude": -80.50009,
    "name_translations": {
      "en": "West Virginia"
    }
  },
  {
    "id": "us_al",
    "name": "アラバマ州",
    "name_kana": "",
    "region_id": "us_south",
    "latitude": 32.75041,
    "longitude": -86.75026,
    "name_translations": {
      "en": "Alabama"
    }
  },
  {
    "id": "us_ct",
    "name": "コネチカット州",
    "name_kana": "",
    "region_id": "us_northeast",
    "latitude": 41.66704,
    "longitude": -72.66648,
    "name_translations": {
      "en": "Connecticut"
    }
  },
  {
    "id": "us_ia",
    "name": "アイオワ州",
    "name_kana": "",
    "region_id": "us_midwest",
    "latitude": 42.00027,
    "longitude": -93.50049,
    "name_translations": {
      "en": "Iowa"
    }
  },
  {
    "id": "us_il",
    "name": "イリノイ州",
    "name_kana": "",
    "region_id": "us_midwest",
    "latitude": 40.00032,
    "longitude": -89.25037,
    "name_translations": {
      "en": "Illinois"
    }
  },
  {
    "id": "us_in",
    "name": "インディアナ州",
    "name_kana": "",
    "region_id": "us_midwest",
    "latitude": 40.00032,
    "longitude": -86.25027,
    "name_translations": {
      "en": "Indiana"
    }
  },
  {
    "id": "us_me",
    "name": "メイン州",
    "name_kana": "",
    "region_id": "us_northeast",
    "latitude": 45.50032,
    "longitude": -69.24977,
    "name_translations": {
      "en": "Maine"
    }
  },
  {
    "id": "us_mi",
    "name": "ミシガン州",
    "name_kana": "",
    "region_id": "us_midwest",
    "latitude": 44.25029,
    "longitude": -85.50033,
    "name_translations": {
      "en": "Michigan"
    }
  },
  {
    "id": "us_mn",
    "name": "ミネソタ州",
    "name_kana": "",
    "region_id": "us_midwest",
    "latitude": 46.25024,
    "longitude": -94.25055,
    "name_translations": {
      "en": "Minnesota"
    }
  },
  {
    "id": "us_ne",
    "name": "ネブラスカ州",
    "name_kana": "",
    "region_id": "us_midwest",
    "latitude": 41.50028,
    "longitude": -99.75067,
    "name_translations": {
      "en": "Nebraska"
    }
  },
  {
    "id": "us_nh",
    "name": "ニューハンプシャー州",
    "name_kana": "",
    "region_id": "us_northeast",
    "latitude": 43.66702,
    "longitude": -71.4998,
    "name_translations": {
      "en": "New Hampshire"
    }
  },
  {
    "id": "us_nj",
    "name": "ニュージャージー州",
    "name_kana": "",
    "region_id": "us_northeast",
    "latitude": 40.16706,
    "longitude": -74.49987,
    "name_translations": {
      "en": "New Jersey"
    }
  },
  {
    "id": "us_ny",
    "name": "ニューヨーク州",
    "name_kana": "",
    "region_id": "us_northeast",
    "latitude": 43.00035,
    "longitude": -75.4999,
    "name_translations": {
      "en": "New York"
    }
  },
  {
    "id": "us_oh",
    "name": "オハイオ州",
    "name_kana": "",
    "region_id": "us_midwest",
    "latitude": 40.25034,
    "longitude": -83.00018,
    "name_translations": {
      "en": "Ohio"
    }
  },
  {
    "id": "us_ri",
    "name": "ロードアイランド州",
    "name_kana": "",
    "region_id": "us_northeast",
    "latitude": 41.75038,
    "longitude": -71.49978,
    "name_translations": {
      "en": "Rhode Island"
    }
  },
  {
    "id": "us_vt",
    "name": "バーモント州",
    "name_kana": "",
    "region_id": "us_northeast",
    "latitude": 44.00034,
    "longitude": -72.74983,
    "name_translations": {
      "en": "Vermont"
    }
  },
  {
    "id": "us_wi",
    "name": "ウィスコンシン州",
    "name_kana": "",
    "region_id": "us_midwest",
    "latitude": 44.50024,
    "longitude": -90.00041,
    "name_translations": {
      "en": "Wisconsin"
    }
  },
  {
    "id": "us_ca",
    "name": "カリフォルニア州",
    "name_kana": "",
    "region_id": "us_west",
    "latitude": 37.25022,
    "longitude": -119.75126,
    "name_translations": {
      "en": "California"
    }
  },
  {
    "id": "us_co",
    "name": "コロラド州",
    "name_kana": "",
    "region_id": "us_west",
    "latitude": 39.00027,
    "longitude": -105.50083,
    "name_translations": {
      "en": "Colorado"
    }
  },
  {
    "id": "us_nm",
    "name": "ニューメキシコ州",
    "name_kana": "",
    "region_id": "us_west",
    "latitude": 34.50034,
    "longitude": -106.00085,
    "name_translations": {
      "en": "New Mexico"
    }
  },
  {
    "id": "us_nv",
    "name": "ネバダ州",
    "name_kana": "",
    "region_id": "us_west",
    "latitude": 39.25021,
    "longitude": -116.75119,
    "name_translations": {
      "en": "Nevada"
    }
  },
  {
    "id": "us_ut",
    "name": "ユタ州",
    "name_kana": "",
    "region_id": "us_west",
    "latitude": 39.25024,
    "longitude": -111.75103,
    "name_translations": {
      "en": "Utah"
    }
  },
  {
    "id": "us_az",
    "name": "アリゾナ州",
    "name_kana": "",
    "region_id": "us_west",
    "latitude": 34.5003,
    "longitude": -111.50098,
    "name_translations": {
      "en": "Arizona"
    }
  },
  {
    "id": "us_id",
    "name": "アイダホ州",
    "name_kana": "",
    "region_id": "us_west",
    "latitude": 44.5002,
    "longitude": -114.25118,
    "name_translations": {
      "en": "Idaho"
    }
  },
  {
    "id": "us_mt",
    "name": "モンタナ州",
    "name_kana": "",
    "region_id": "us_west",
    "latitude": 47.00025,
    "longitude": -109.75102,
    "name_translations": {
      "en": "Montana"
    }
  },
  {
    "id": "us_nd",
    "name": "ノースダコタ州",
    "name_kana": "",
    "region_id": "us_midwest",
    "latitude": 47.50027,
    "longitude": -100.00068,
    "name_translations": {
      "en": "North Dakota"
    }
  },
  {
    "id": "us_or",
    "name": "オレゴン州",
    "name_kana": "",
    "region_id": "us_west",
    "latitude": 44.00013,
    "longitude": -120.50139,
    "name_translations": {
      "en": "Oregon"
    }
  },
  {
    "id": "us_sd",
    "name": "サウスダコタ州",
    "name_kana": "",
    "region_id": "us_midwest",
    "latitude": 44.50026,
    "longitude": -100.25069,
    "name_translations": {
      "en": "South Dakota"
    }
  },
  {
    "id": "us_wa",
    "name": "ワシントン州",
    "name_kana": "",
    "region_id": "us_west",
    "latitude": 47.50012,
    "longitude": -120.50147,
    "name_translations": {
      "en": "Washington"
    }
  },
  {
    "id": "us_wy",
    "name": "ワイオミング州",
    "name_kana": "",
    "region_id": "us_west",
    "latitude": 43.00024,
    "longitude": -107.5009,
    "name_translations": {
      "en": "Wyoming"
    }
  },
  {
    "id": "us_hi",
    "name": "ハワイ州",
    "name_kana": "",
    "region_id": "us_west",
    "latitude": 20.78785,
    "longitude": -156.38612,
    "name_translations": {
      "en": "Hawaii"
    }
  },
  {
    "id": "us_ak",
    "name": "アラスカ州",
    "name_kana": "",
    "region_id": "us_west",
    "latitude": 64.00028,
    "longitude": -150.00028,
    "name_translations": {
      "en": "Alaska"
    }
  },
  {
    "id": "us_ky",
    "name": "ケンタッキー州",
    "name_kana": "",
    "region_id": "us_south",
    "latitude": 38.20042,
    "longitude": -84.87762,
    "name_translations": {
      "en": "Kentucky"
    }
  },
  {
    "id": "us_ma",
    "name": "マサチューセッツ州",
    "name_kana": "",
    "region_id": "us_northeast",
    "latitude": 42.36565,
    "longitude": -71.10832,
    "name_translations": {
      "en": "Massachusetts"
    }
  },
  {
    "id": "us_pa",
    "name": "ペンシルベニア州",
    "name_kana": "",
    "region_id": "us_northeast",
    "latitude": 40.8,
    "longitude": -77.7,
    "name_translations": {
      "en": "Pennsylvania"
    }
  },
  {
    "id": "us_va",
    "name": "バージニア州",
    "name_kana": "",
    "region_id": "us_south",
    "latitude": 37.54812,
    "longitude": -77.44675,
    "name_translations": {
      "en": "Virginia"
    }
  }
]
